sat_11node/group5-sr1.csv

Time (UTCG),Azimuth (deg),Elevation (deg),Range (km)
2020/8/18 4:41:02,286.597,57.583,36064.65946
2020/8/18 4:42:02,278.926,58.562,36009.73388
2020/8/18 4:43:02,270.907,58.914,35990.04233
2020/8/18 4:44:02,262.874,58.617,36005.71273
2020/8/18 4:45:02,255.17,57.689,36056.60007
2020/8/18 4:46:02,248.061,56.188,36142.28905
2020/8/18 4:47:02,241.7,54.193,36262.10132
2020/8/18 4:48:02,236.135,51.789,36415.10717
2020/8/18 4:49:02,231.337,49.058,36600.14109
2020/8/18 4:50:02,227.235,46.072,36815.82064
2020/8/18 4:51:02,223.743,42.891,37060.56784
2020/8/18 4:52:02,220.776,39.564,37332.63258
2020/8/18 4:53:02,218.255,36.128,37630.11675
2020/8/18 4:54:02,216.114,32.616,37950.99921
2020/8/18 4:55:02,214.295,29.05,38293.16001
2020/8/18 4:56:02,212.753,25.45,38654.40425
2020/8/18 4:57:02,211.449,21.832,39032.48425
2020/8/18 4:58:02,210.352,18.207,39425.12053
2020/8/18 4:59:02,209.438,14.585,39830.02079
2020/8/18 5:00:02,208.685,10.973,40244.89686
2020/8/18 5:01:02,208.08,7.378,40667.48002
2020/8/18 5:02:02,207.608,3.804,41095.53413
2020/8/18 5:03:02,207.262,0.256,41526.86693
2020/8/18 5:04:02,207.033,-3.263,41959.3397
2020/8/18 5:05:02,206.917,-6.751,42390.8753
2020/8/18 5:06:02,206.913,-10.205,42819.46469
2020/8/18 5:07:02,207.019,-13.624,43243.17233
2020/8/18 5:08:02,207.238,-17.006,43660.14034
2020/8/18 5:09:02,207.573,-20.348,44068.59176
2020/8/18 5:10:02,208.03,-23.649,44466.83303
2020/8/18 5:10:21,208.202,-24.686,44590.68877
2020/8/18 5:46:35,331.275,-24.602,44567.69548
2020/8/18 5:47:35,331.747,-21.343,44176.03242
2020/8/18 5:48:35,332.096,-18.021,43771.05129
2020/8/18 5:49:35,332.327,-14.66,43357.23299
2020/8/18 5:50:35,332.442,-11.262,42936.33756
2020/8/18 5:51:35,332.444,-7.83,42510.20578
2020/8/18 5:52:35,332.333,-4.365,42080.75586
2020/8/18 5:53:35,332.107,-0.871,41649.97925
2020/8/18 5:54:35,331.761,2.651,41219.93549
2020/8/18 5:55:35,331.29,6.196,40792.74564
2020/8/18 5:56:35,330.685,9.76,40370.58445
2020/8/18 5:57:35,329.933,13.339,39955.67097
2020/8/18 5:58:35,329.019,16.927,39550.25738
2020/8/18 5:59:35,327.926,20.515,39156.61618
2020/8/18 6:00:35,326.629,24.094,38777.02529
2020/8/18 6:01:35,325.099,27.652,38413.75152
2020/8/18 6:02:35,323.302,31.174,38069.03178
2020/8/18 6:03:35,321.194,34.641,37745.05295
2020/8/18 6:04:35,318.725,38.029,37443.92975
2020/8/18 6:05:35,315.833,41.31,37167.68183
2020/8/18 6:06:35,312.451,44.445,36918.20952
2020/8/18 6:07:35,308.504,47.391,36697.26974
2020/8/18 6:08:35,303.918,50.09,36506.45174
2020/8/18 6:09:35,298.634,52.478,36347.15432
2020/8/18 6:10:35,292.629,54.48,36220.56426
2020/8/18 6:11:35,285.939,56.017,36127.63756
2020/8/18 6:12:35,278.691,57.018,36069.08365
2020/8/18 6:13:35,271.104,57.427,36045.35339
2020/8/18 6:14:35,263.466,57.221,36056.63135
2020/8/18 6:15:35,256.075,56.412,36102.83257
2020/8/18 6:16:35,249.18,55.045,36183.60413
2020/8/18 6:17:35,242.936,53.188,36298.33122
2020/8/18 6:18:35,237.41,50.919,36446.1477
2020/8/18 6:19:35,232.594,48.314,36625.95056
2020/8/18 6:20:35,228.438,45.442,36836.41774
2020/8/18 6:21:35,224.872,42.362,37076.02864
2020/8/18 6:22:35,221.82,39.123,37343.08671
2020/8/18 6:23:35,219.212,35.765,37635.74303
2020/8/18 6:24:35,216.983,32.319,37952.02079
2020/8/18 6:25:35,215.081,28.81,38289.83919
2020/8/18 6:26:35,213.458,25.259,38647.03721
2020/8/18 6:27:35,212.078,21.682,39021.39571
2020/8/18 6:28:35,210.91,18.092,39410.65855
2020/8/18 6:29:35,209.928,14.499,39812.55162
2020/8/18 6:30:35,209.113,10.912,40224.80029
2020/8/18 6:31:35,208.447,7.337,40645.14483
2020/8/18 6:32:35,207.918,3.779,41071.3539
2020/8/18 6:33:35,207.515,0.243,41501.23622
2020/8/18 6:34:35,207.233,-3.268,41932.65064
2020/8/18 6:35:35,207.065,-6.751,42363.51444
2020/8/18 6:36:35,207.009,-10.203,42791.81025
2020/8/18 6:37:35,207.064,-13.622,43215.59171
2020/8/18 6:38:35,207.231,-17.007,43632.98795
2020/8/18 6:39:35,207.514,-20.355,44042.20711
2020/8/18 6:40:35,207.917,-23.665,44441.53903
2020/8/18 6:40:55,208.083,-24.776,44574.17987
2020/8/18 7:17:14,333.328,-24.75,44561.20724
2020/8/18 7:18:13,333.819,-21.469,44166.9495
2020/8/18 7:19:13,334.198,-18.098,43756.29667
2020/8/18 7:20:13,334.463,-14.687,43336.35385
2020/8/18 7:21:13,334.619,-11.236,42908.88251
2020/8/18 7:22:13,334.669,-7.748,42475.72839
2020/8/18 7:23:13,334.613,-4.223,42038.81855
2020/8/18 7:24:13,334.449,-0.663,41600.15768
2020/8/18 7:25:13,334.175,2.93,41161.82324
2020/8/18 7:26:13,333.783,6.552,40725.95938
2020/8/18 7:27:13,333.266,10.202,40294.76955
2020/8/18 7:28:13,332.613,13.874,39870.50738
2020/8/18 7:29:13,331.808,17.564,39455.46593
2020/8/18 7:30:13,330.834,21.266,39051.96501
2020/8/18 7:31:13,329.667,24.972,38662.33653
2020/8/18 7:32:13,328.278,28.671,38288.9079
2020/8/18 7:33:13,326.628,32.35,37933.98316
2020/8/18 7:34:13,324.673,35.993,37599.82245
2020/8/18 7:35:13,322.353,39.578,37288.61946
2020/8/18 7:36:13,319.6,43.077,37002.47765
2020/8/18 7:37:13,316.326,46.456,36743.38511
2020/8/18 7:38:13,312.432,49.669,36513.18927
2020/8/18 7:39:13,307.805,52.657,36313.5712
2020/8/18 7:40:13,302.336,55.348,36146.02127
2020/8/18 7:41:13,295.944,57.653,36011.81594
2020/8/18 7:42:13,288.616,59.473,35911.99716
2020/8/18 7:43:13,280.469,60.707,35847.35493
2020/8/18 7:44:13,271.775,61.273,35818.4136
2020/8/18 7:45:13,262.943,61.128,35825.42266
2020/8/18 7:46:13,254.418,60.284,35868.35226
2020/8/18 7:47:13,246.565,58.799,35946.89376
2020/8/18 7:48:13,239.593,56.767,36060.46525
2020/8/18 7:49:13,233.56,54.287,36208.22171
2020/8/18 7:50:13,228.422,51.458,36389.06954
2020/8/18 7:51:13,224.081,48.359,36601.68476
2020/8/18 7:52:13,220.425,45.059,36844.53413
2020/8/18 7:53:13,217.344,41.61,37115.89861
2020/8/18 7:54:13,214.745,38.054,37413.89796
2020/8/18 7:55:13,212.547,34.422,37736.51637
2020/8/18 7:56:13,210.685,30.739,38081.62759
2020/8/18 7:57:13,209.105,27.025,38447.01981
2020/8/18 7:58:13,207.766,23.295,38830.419
2020/8/18 7:59:13,206.632,19.56,39229.51103
2020/8/18 8:00:13,205.676,15.83,39641.96171
2020/8/18 8:01:13,204.877,12.111,40065.43509
2020/8/18 8:02:13,204.218,8.41,40497.60959
2020/8/18 8:03:13,203.684,4.731,40936.19208
2020/8/18 8:04:13,203.265,1.077,41378.93019
2020/8/18 8:05:13,202.954,-2.549,41823.62255
2020/8/18 8:06:13,202.744,-6.145,42268.12753
2020/8/18 8:07:13,202.633,-9.711,42710.37032
2020/8/18 8:08:13,202.618,-13.243,43148.34871
2020/8/18 8:09:13,202.7,-16.742,43580.13764
2020/8/18 8:10:13,202.881,-20.206,44003.89282
2020/8/18 8:11:13,203.166,-23.635,44417.85331
2020/8/18 8:11:36,203.303,-24.927,44572.004
2020/8/18 8:48:23,339.74,-24.929,44566.84117
2020/8/18 8:49:23,340.175,-21.467,44151.11757
2020/8/18 8:50:23,340.513,-17.959,43723.56081
2020/8/18 8:51:23,340.76,-14.409,43286.3946
2020/8/18 8:52:23,340.921,-10.818,42841.42241
2020/8/18 8:53:23,340.998,-7.186,42390.53644
2020/8/18 8:54:23,340.991,-3.514,41935.71507
2020/8/18 8:55:23,340.901,0.2,41479.01954
2020/8/18 8:56:23,340.723,3.953,41022.58946
2020/8/18 8:57:23,340.454,7.746,40568.63704
2020/8/18 8:58:23,340.086,11.576,40119.43988
2020/8/18 8:59:23,339.61,15.443,39677.33205
2020/8/18 9:00:23,339.012,19.344,39244.69331
2020/8/18 9:01:23,338.277,23.275,38823.93631
2020/8/18 9:02:23,337.383,27.231,38417.49157
2020/8/18 9:03:23,336.3,31.206,38027.79037
2020/8/18 9:04:23,334.991,35.191,37657.24498
2020/8/18 9:05:23,333.408,39.175,37308.22718
2020/8/18 9:06:23,331.484,43.143,36983.04421
2020/8/18 9:07:23,329.132,47.073,36683.91347
2020/8/18 9:08:23,326.233,50.938,36412.9354
2020/8/18 9:09:23,322.626,54.696,36172.06611
2020/8/18 9:10:23,318.098,58.29,35963.08944
2020/8/18 9:11:23,312.372,61.64,35787.5902
2020/8/18 9:12:23,305.12,64.628,35646.92869
2020/8/18 9:13:23,296.045,67.096,35542.21795
2020/8/18 9:14:23,285.07,68.845,35474.30433
2020/8/18 9:15:23,272.633,69.679,35443.75222
2020/8/18 9:16:23,259.788,69.481,35450.83369
2020/8/18 9:17:23,247.799,68.278,35495.52344
2020/8/18 9:18:23,237.508,66.228,35577.49924
2020/8/18 9:19:23,229.127,63.535,35696.14788
2020/8/18 9:20:23,222.467,60.384,35850.57642
2020/8/18 9:21:23,217.202,56.918,36039.62809
2020/8/18 9:22:23,213.02,53.239,36261.90233
2020/8/18 9:23:23,209.668,49.417,36515.778
2020/8/18 9:24:23,206.953,45.504,36799.439
2020/8/18 9:25:23,204.73,41.533,37110.90129
2020/8/18 9:26:23,202.894,37.532,37448.04048
2020/8/18 9:27:23,201.366,33.518,37808.61935
2020/8/18 9:28:23,200.086,29.505,38190.31429
2020/8/18 9:29:23,199.01,25.504,38590.7406
2020/8/18 9:30:23,198.104,21.522,39007.47569
2020/8/18 9:31:23,197.34,17.564,39438.08052
2020/8/18 9:32:23,196.699,13.635,39880.11861
2020/8/18 9:33:23,196.164,9.737,40331.1727
2020/8/18 9:34:23,195.724,5.873,40788.85952
2020/8/18 9:35:23,195.368,2.045,41250.84207
2020/8/18 9:36:23,195.089,-1.748,41714.84007
2020/8/18 9:37:23,194.882,-5.505,42178.63855
2020/8/18 9:38:23,194.744,-9.226,42640.09485
2020/8/18 9:39:23,194.673,-12.911,43097.14416
2020/8/18 9:40:23,194.667,-16.561,43547.8038
2020/8/18 9:41:23,194.727,-20.176,43990.17646
2020/8/18 9:42:23,194.856,-23.757,44422.45256
2020/8/18 9:42:44,194.919,-25.013,44572.30752
2020/8/18 10:20:04,349.188,-25.05,44576.75463
2020/8/18 10:21:03,349.483,-21.501,44150.78218
2020/8/18 10:22:03,349.728,-17.854,43706.37009
2020/8/18 10:23:03,349.92,-14.168,43252.24843
2020/8/18 10:24:03,350.065,-10.441,42790.2712
2020/8/18 10:25:03,350.164,-6.671,42322.38419
2020/8/18 10:26:03,350.218,-2.858,41850.6226
2020/8/18 10:27:03,350.228,0.999,41377.10793
2020/8/18 10:28:03,350.192,4.903,40904.04364
2020/8/18 10:29:03,350.11,8.853,40433.70954
2020/8/18 10:30:03,349.977,12.85,39968.45455
2020/8/18 10:31:03,349.789,16.895,39510.68775
2020/8/18 10:32:03,349.539,20.988,39062.86741
2020/8/18 10:33:03,349.219,25.128,38627.48781
2020/8/18 10:34:03,348.818,29.315,38207.06381
2020/8/18 10:35:03,348.317,33.545,37804.11293
2020/8/18 10:36:03,347.696,37.818,37421.13477
2020/8/18 10:37:03,346.924,42.129,37060.58835
2020/8/18 10:38:03,345.956,46.473,36724.86673
2020/8/18 10:39:03,344.73,50.842,36416.27018
2020/8/18 10:40:03,343.148,55.226,36136.97735
2020/8/18 10:41:03,341.058,59.609,35889.01603
2020/8/18 10:42:03,338.21,63.966,35674.23343
2020/8/18 10:43:03,334.164,68.256,35494.26745
2020/8/18 10:44:03,328.097,72.4,35350.51956
2020/8/18 10:45:03,318.395,76.238,35244.1305
2020/8/18 10:46:03,302.044,79.4,35175.95967
2020/8/18 10:47:03,276.125,81.106,35146.56909
2020/8/18 10:48:03,246.825,80.524,35156.21268
2020/8/18 10:49:03,225.621,77.983,35204.83141
2020/8/18 10:50:03,212.96,74.423,35292.05431
2020/8/18 10:51:03,205.284,70.402,35417.20568
2020/8/18 10:52:03,200.315,66.167,35579.31774
2020/8/18 10:53:03,196.895,61.83,35777.14846
2020/8/18 10:54:03,194.423,57.447,36009.20475
2020/8/18 10:55:03,192.564,53.051,36273.76283
2020/8/18 10:56:03,191.124,48.661,36568.90439
2020/8/18 10:57:03,189.981,44.289,36892.53964
2020/8/18 10:58:03,189.056,39.946,37242.43843
2020/8/18 10:59:03,188.296,35.637,37616.25954
2020/8/18 11:00:03,187.662,31.366,38011.57855
2020/8/18 11:01:03,187.13,27.138,38425.91438
2020/8/18 11:02:03,186.678,22.954,38856.75335
2020/8/18 11:03:03,186.292,18.815,39301.57132
2020/8/18 11:04:03,185.961,14.721,39757.85306
2020/8/18 11:05:03,185.677,10.674,40223.1092
2020/8/18 11:06:03,185.432,6.673,40694.89097
2020/8/18 11:07:03,185.221,2.717,41170.80242
2020/8/18 11:08:03,185.041,-1.195,41648.51062
2020/8/18 11:09:03,184.887,-5.064,42125.75401
2020/8/18 11:10:03,184.757,-8.891,42600.34901
2020/8/18 11:11:03,184.65,-12.678,43070.1952
2020/8/18 11:12:03,184.564,-16.427,43533.27917
2020/8/18 11:13:03,184.497,-20.139,43987.67744
2020/8/18 11:14:03,184.45,-23.816,44431.55831
2020/8/18 11:14:22,184.439,-24.978,44570.15347
2020/8/18 11:52:00,0.105,-25.074,44587.11268
2020/8/18 11:52:59,0.222,-21.439,44150.89001
2020/8/18 11:53:59,0.336,-17.735,43699.41702
2020/8/18 11:54:59,0.451,-13.994,43238.46981
2020/8/18 11:55:59,0.565,-10.214,42769.93366
2020/8/18 11:56:59,0.683,-6.393,42295.78527
2020/8/18 11:57:59,0.804,-2.53,41818.09031
2020/8/18 11:58:59,0.931,1.377,41339.00019
2020/8/18 11:59:59,1.066,5.33,40860.74749
2020/8/18 12:00:59,1.211,9.33,40385.64018
2020/8/18 12:01:59,1.369,13.378,39916.05407
2020/8/18 12:02:59,1.542,17.475,39454.42363
2020/8/18 12:03:59,1.736,21.622,39003.23057
2020/8/18 12:04:59,1.954,25.818,38564.99035
2020/8/18 12:05:59,2.203,30.065,38142.23629
2020/8/18 12:06:59,2.491,34.36,37737.50097
2020/8/18 12:07:59,2.83,38.704,37353.2955
2020/8/18 12:08:59,3.235,43.093,36992.08586
2020/8/18 12:09:59,3.729,47.527,36656.26747
2020/8/18 12:10:59,4.344,52,36348.13739
2020/8/18 12:11:59,5.131,56.509,36069.86546
2020/8/18 12:12:59,6.174,61.046,35823.46438
2020/8/18 12:13:59,7.619,65.604,35610.75997
2020/8/18 12:14:59,9.746,70.167,35433.36224
2020/8/18 12:15:59,13.167,74.71,35292.63849
2020/8/18 12:16:59,19.477,79.168,35189.68921
2020/8/18 12:17:59,34.132,83.328,35125.32802
2020/8/18 12:18:59,77.97,86.033,35100.06631
2020/8/18 12:19:59,133.912,84.421,35114.10345
2020/8/18 12:20:59,154.059,80.481,35167.32282
2020/8/18 12:21:59,161.951,76.076,35259.29413
2020/8/18 12:22:59,165.979,71.55,35389.28159
2020/8/18 12:23:59,168.385,66.99,35556.25783
2020/8/18 12:24:59,169.969,62.431,35758.9228
2020/8/18 12:25:59,171.079,57.888,35995.72682
2020/8/18 12:26:59,171.892,53.372,36264.89684
2020/8/18 12:27:59,172.505,48.89,36564.46493
2020/8/18 12:28:59,172.977,44.446,36892.29801
2020/8/18 12:29:59,173.345,40.046,37246.12761
2020/8/18 12:30:59,173.633,35.692,37623.57941
2020/8/18 12:31:59,173.858,31.386,38022.20112
2020/8/18 12:32:59,174.032,27.129,38439.48893
2020/8/18 12:33:59,174.164,22.922,38872.91144
2020/8/18 12:34:59,174.258,18.765,39319.93148
2020/8/18 12:35:59,174.32,14.659,39778.02523
2020/8/18 12:36:59,174.353,10.602,40244.69881
2020/8/18 12:37:59,174.359,6.595,40717.50264
2020/8/18 12:38:59,174.338,2.636,41194.04331
2020/8/18 12:39:59,174.293,-1.277,41671.99345
2020/8/18 12:40:59,174.221,-5.143,42149.09975
2020/8/18 12:41:59,174.124,-8.966,42623.18922
2020/8/18 12:42:59,174,-12.746,43092.17412
2020/8/18 12:43:59,173.847,-16.485,43554.05559
2020/8/18 12:44:59,173.662,-20.185,44006.92625
2020/8/18 12:45:59,173.443,-23.847,44448.97197
2020/8/18 12:46:16,173.375,-24.854,44569.11579
2020/8/18 13:23:48,10.986,-24.987,44595.2072
2020/8/18 13:24:48,10.907,-21.382,44162.51017
2020/8/18 13:25:48,10.88,-17.734,43717.93647
2020/8/18 13:26:48,10.902,-14.052,43264.30912
2020/8/18 13:27:48,10.974,-10.333,42803.50585
2020/8/18 13:28:48,11.095,-6.578,42337.49211
2020/8/18 13:29:48,11.268,-2.785,41868.31825
2020/8/18 13:30:48,11.495,1.047,41398.11581
2020/8/18 13:31:48,11.781,4.918,40929.09268
2020/8/18 13:32:48,12.132,8.829,40463.52679
2020/8/18 13:33:48,12.555,12.778,40003.7583
2020/8/18 13:34:48,13.059,16.766,39552.17997
2020/8/18 13:35:48,13.658,20.791,39111.22561
2020/8/18 13:36:48,14.368,24.85,38683.35629
2020/8/18 13:37:48,15.21,28.941,38271.04446
2020/8/18 13:38:48,16.212,33.057,37876.75543
2020/8/18 13:39:48,17.41,37.194,37502.92688
2020/8/18 13:40:48,18.856,41.342,37151.9457
2020/8/18 13:41:48,20.616,45.488,36826.12328
2020/8/18 13:42:48,22.786,49.616,36527.66862
2020/8/18 13:43:48,25.5,53.7,36258.66072
2020/8/18 13:44:48,28.952,57.704,36021.02008
2020/8/18 13:45:48,33.426,61.576,35816.48058
2020/8/18 13:46:48,39.332,65.23,35646.56243
2020/8/18 13:47:48,47.237,68.535,35512.54706
2020/8/18 13:48:48,57.801,71.286,35415.45502
2020/8/18 13:49:48,71.405,73.193,35356.02768
2020/8/18 13:50:48,87.351,73.942,35334.71362
2020/8/18 13:51:48,103.472,73.373,35351.66012
2020/8/18 13:52:48,117.465,71.611,35406.71041
2020/8/18 13:53:48,128.424,68.961,35499.40655
2020/8/18 13:54:48,136.638,65.724,35628.998
2020/8/18 13:55:48,142.759,62.116,35794.45537
2020/8/18 13:56:48,147.374,58.279,35994.48878
2020/8/18 13:57:48,150.915,54.3,36227.57014
2020/8/18 13:58:48,153.679,50.238,36491.9583
2020/8/18 13:59:48,155.872,46.13,36785.7262
2020/8/18 14:00:48,157.633,42.002,37106.78923
2020/8/18 14:01:48,159.062,37.872,37452.93351
2020/8/18 14:02:48,160.229,33.753,37821.84406
2020/8/18 14:03:48,161.187,29.655,38211.13125
2020/8/18 14:04:48,161.972,25.585,38618.35611
2020/8/18 14:05:48,162.613,21.547,39041.05312
2020/8/18 14:06:48,163.132,17.546,39476.75111
2020/8/18 14:07:48,163.545,13.584,39922.99169
2020/8/18 14:08:48,163.863,9.662,40377.34511
2020/8/18 14:09:48,164.097,5.783,40837.42429
2020/8/18 14:10:48,164.251,1.945,41300.89628
2020/8/18 14:11:48,164.333,-1.85,41765.49199
2020/8/18 14:12:48,164.342,-5.602,42229.01401
2020/8/18 14:13:48,164.282,-9.312,42689.34291
2020/8/18 14:14:48,164.152,-12.981,43144.44214
2020/8/18 14:15:48,163.949,-16.608,43592.36178
2020/8/18 14:16:48,163.67,-20.194,44031.24121
2020/8/18 14:17:48,163.311,-23.739,44459.31104
2020/8/18 14:18:04,163.198,-24.701,44574.16483
2020/8/18 14:55:11,20.349,-24.824,44601.96217
2020/8/18 14:56:11,20.091,-21.37,44187.38616
2020/8/18 14:57:11,19.925,-17.86,43759.80961
2020/8/18 14:58:11,19.848,-14.316,43323.53028
2020/8/18 14:59:11,19.858,-10.739,42880.38307
2020/8/18 15:00:11,19.954,-7.128,42432.28564
2020/8/18 15:01:11,20.138,-3.484,41981.23517
2020/8/18 15:02:11,20.412,0.192,41529.30427
2020/8/18 15:03:11,20.781,3.899,41078.6358
2020/8/18 15:04:11,21.253,7.634,40631.43624
2020/8/18 15:05:11,21.836,11.397,40189.9677
2020/8/18 15:06:11,22.544,15.183,39756.53815
2020/8/18 15:07:11,23.392,18.988,39333.48991
2020/8/18 15:08:11,24.4,22.807,38923.1861
2020/8/18 15:09:11,25.593,26.632,38527.99517
2020/8/18 15:10:11,27.004,30.454,38150.27303
2020/8/18 15:11:11,28.674,34.26,37792.34351
2020/8/18 15:12:11,30.654,38.035,37456.47644
2020/8/18 15:13:11,33.011,41.757,37144.86443
2020/8/18 15:14:11,35.828,45.398,36859.59783
2020/8/18 15:15:11,39.209,48.923,36602.6392
2020/8/18 15:16:11,43.283,52.283,36375.79702
2020/8/18 15:17:11,48.197,55.413,36180.70013
2020/8/18 15:18:11,54.108,58.231,36018.77301
2020/8/18 15:19:11,61.143,60.633,35891.21316
2020/8/18 15:20:11,69.336,62.498,35798.9712
2020/8/18 15:21:11,78.535,63.702,35742.73454
2020/8/18 15:22:11,88.349,64.147,35722.91516
2020/8/18 15:23:11,98.194,63.792,35739.64227
2020/8/18 15:24:11,107.477,62.672,35792.75989
2020/8/18 15:25:11,115.78,60.879,35881.82964
2020/8/18 15:26:11,122.927,58.537,36006.1386
2020/8/18 15:27:11,128.936,55.768,36164.71182
2020/8/18 15:28:11,133.93,52.679,36356.32902
2020/8/18 15:29:11,138.063,49.354,36579.5448
2020/8/18 15:30:11,141.485,45.861,36832.71154
2020/8/18 15:31:11,144.325,42.248,37114.00431
2020/8/18 15:32:11,146.692,38.553,37421.44653
2020/8/18 15:33:11,148.669,34.805,37752.93646
2020/8/18 15:34:11,150.325,31.025,38106.27273
2020/8/18 15:35:11,151.712,27.23,38479.17946
2020/8/18 15:36:11,152.872,23.434,38869.32942
2020/8/18 15:37:11,153.837,19.645,39274.36602
2020/8/18 15:38:11,154.634,15.872,39691.92272
2020/8/18 15:39:11,155.282,12.12,40119.64091
2020/8/18 15:40:11,155.797,8.395,40555.18528
2020/8/18 15:41:11,156.191,4.699,40996.25735
2020/8/18 15:42:11,156.473,1.035,41440.60684
2020/8/18 15:43:11,156.65,-2.594,41886.04149
2020/8/18 15:44:11,156.725,-6.187,42330.43491
2020/8/18 15:45:11,156.701,-9.743,42771.73318
2020/8/18 15:46:11,156.577,-13.26,43207.95994
2020/8/18 15:47:11,156.352,-16.737,43637.22054
2020/8/18 15:48:11,156.023,-20.173,44057.70501
2020/8/18 15:49:11,155.583,-23.568,44467.69035
2020/8/18 15:49:29,155.427,-24.583,44589.02056
2020/8/18 16:26:02,26.693,-24.686,44615.30732
2020/8/18 16:27:02,26.293,-21.36,44215.98193
2020/8/18 16:28:02,26.01,-17.989,43805.50403
2020/8/18 16:29:02,25.839,-14.582,43386.39297
2020/8/18 16:30:02,25.777,-11.141,42960.43114
2020/8/18 16:31:02,25.822,-7.668,42529.48055
2020/8/18 16:32:02,25.974,-4.164,42095.47941
2020/8/18 16:33:02,26.237,-0.632,41660.43797
2020/8/18 16:34:02,26.614,2.926,41226.43313
2020/8/18 16:35:02,27.112,6.508,40795.60192
2020/8/18 16:36:02,27.74,10.109,40370.1335
2020/8/18 16:37:02,28.512,13.724,39952.2596
2020/8/18 16:38:02,29.441,17.348,39544.24331
2020/8/18 16:39:02,30.547,20.973,39148.36599
2020/8/18 16:40:02,31.856,24.589,38766.91241
2020/8/18 16:41:02,33.395,28.186,38402.1537
2020/8/18 16:42:02,35.203,31.747,38056.32879
2020/8/18 16:43:02,37.322,35.256,37731.62372
2020/8/18 16:44:02,39.808,38.687,37430.14972
2020/8/18 16:45:02,42.723,42.012,37153.91975
2020/8/18 16:46:02,46.141,45.192,36904.82457
2020/8/18 16:47:02,50.144,48.183,36684.60818
2020/8/18 16:48:02,54.811,50.927,36494.84396
2020/8/18 16:49:02,60.21,53.354,36336.91157
2020/8/18 16:50:02,66.373,55.389,36211.97582
2020/8/18 16:51:02,73.263,56.947,36120.96795
2020/8/18 16:52:02,80.745,57.951,36064.57023
2020/8/18 16:53:02,88.581,58.346,36043.20432
2020/8/18 16:54:02,96.456,58.105,36057.02392
2020/8/18 16:55:02,104.046,57.245,36105.91207
2020/8/18 16:56:02,111.09,55.816,36189.4832
2020/8/18 16:57:02,117.428,53.893,36307.08972
2020/8/18 16:58:02,123.002,51.556,36457.8331
2020/8/18 16:59:02,127.83,48.887,36640.57876
2020/8/18 17:00:02,131.974,45.956,36853.97433
2020/8/18 17:01:02,135.513,42.823,37096.47056
2020/8/18 17:02:02,138.528,39.537,37366.34417
2020/8/18 17:03:02,141.095,36.138,37661.72165
2020/8/18 17:04:02,143.28,32.655,37980.60391
2020/8/18 17:05:02,145.139,29.115,38320.89029
2020/8/18 17:06:02,146.718,25.538,38680.40231
2020/8/18 17:07:02,148.055,21.938,39056.90576
2020/8/18 17:08:02,149.182,18.328,39448.13182
2020/8/18 17:09:02,150.124,14.719,39851.79591
2020/8/18 17:10:02,150.9,11.118,40265.61509
2020/8/18 17:11:02,151.528,7.531,40687.3233
2020/8/18 17:12:02,152.019,3.965,41114.68483
2020/8/18 17:13:02,152.383,0.422,41545.5057
2020/8/18 17:14:02,152.628,-3.093,41977.64379
2020/8/18 17:15:02,152.758,-6.578,42409.01687
2020/8/18 17:16:02,152.776,-10.031,42837.60953
2020/8/18 17:17:02,152.681,-13.449,43261.47871
2020/8/18 17:18:02,152.473,-16.83,43678.75811
2020/8/18 17:19:02,152.148,-20.172,44087.66167
2020/8/18 17:20:02,151.7,-23.473,44486.48617
2020/8/18 17:20:22,151.52,-24.571,44617.66601
2020/8/18 17:56:34,28.742,-24.679,44643.16742
2020/8/18 17:57:34,28.258,-21.415,44251.55568
2020/8/18 17:58:34,27.897,-18.099,43847.8629
2020/8/18 17:59:34,27.657,-14.743,43435.25063
2020/8/18 18:00:34,27.531,-11.352,43015.4701
2020/8/18 18:01:34,27.518,-7.925,42590.35273
2020/8/18 18:02:34,27.617,-4.466,42161.80693
2020/8/18 18:03:34,27.831,-0.977,41731.81406
2020/8/18 18:04:34,28.164,2.539,41302.42333
2020/8/18 18:05:34,28.621,6.079,40875.74545
2020/8/18 18:06:34,29.211,9.64,40453.945
2020/8/18 18:07:34,29.946,13.216,40039.2312
2020/8/18 18:08:34,30.84,16.801,39633.84708
2020/8/18 18:09:34,31.912,20.387,39240.05683
2020/8/18 18:10:34,33.186,23.966,38860.1313
2020/8/18 18:11:34,34.688,27.526,38496.33174
2020/8/18 18:12:34,36.455,31.052,38150.8913
2020/8/18 18:13:34,38.528,34.526,37825.99525
2020/8/18 18:14:34,40.959,37.924,37523.75915
2020/8/18 18:15:34,43.807,41.219,37246.2062
2020/8/18 18:16:34,47.14,44.373,36995.24323
2020/8/18 18:17:34,51.036,47.343,36772.63676
2020/8/18 18:18:34,55.568,50.074,36579.98891
2020/8/18 18:19:34,60.801,52.5,36418.71451
2020/8/18 18:20:34,66.764,54.548,36290.01953
2020/8/18 18:21:34,73.429,56.137,36194.88213
2020/8/18 18:22:34,80.677,57.194,36134.03653
2020/8/18 18:23:34,88.295,57.662,36107.96069
2020/8/18 18:24:34,95.994,57.511,36116.86803
2020/8/18 18:25:34,103.468,56.751,36160.70375
2020/8/18 18:26:34,110.459,55.426,36239.14571
2020/8/18 18:27:34,116.799,53.602,36351.60998
2020/8/18 18:28:34,122.415,51.358,36497.26074
2020/8/18 18:29:34,127.31,48.771,36675.02419
2020/8/18 18:30:34,131.533,45.911,36883.60584
2020/8/18 18:31:34,135.156,42.838,37121.51053
2020/8/18 18:32:34,138.254,39.603,37387.06467
2020/8/18 18:33:34,140.902,36.245,37678.4395
2020/8/18 18:34:34,143.164,32.797,37993.67538
2020/8/18 18:35:34,145.094,29.284,38330.70556
2020/8/18 18:36:34,146.741,25.727,38687.37987
2020/8/18 18:37:34,148.142,22.143,39061.4869
2020/8/18 18:38:34,149.33,18.545,39450.77518
2020/8/18 18:39:34,150.329,14.943,39852.97231
2020/8/18 18:40:34,151.162,11.345,40265.80268
2020/8/18 18:41:34,151.844,7.759,40687.00296
2020/8/18 18:42:34,152.389,4.189,41114.33595
2020/8/18 18:43:34,152.807,0.64,41545.60234
2020/8/18 18:44:34,153.106,-2.885,41978.65114
2020/8/18 18:45:34,153.29,-6.382,42411.38812
2020/8/18 18:46:34,153.364,-9.849,42841.78303
2020/8/18 18:47:34,153.327,-13.284,43267.87542
2020/8/18 18:48:34,153.18,-16.686,43687.77937
2020/8/18 18:49:34,152.918,-20.051,44099.6872
2020/8/18 18:50:34,152.537,-23.38,44501.87232
2020/8/18 18:50:58,152.35,-24.701,44659.83596
2020/8/18 19:27:18,26.001,-24.788,44679.58925
2020/8/18 19:28:18,25.508,-21.458,44280.1367
2020/8/18 19:29:18,25.132,-18.074,43868.28351
2020/8/18 19:30:18,24.866,-14.649,43447.09492
2020/8/18 19:31:18,24.707,-11.185,43018.33412
2020/8/18 19:32:18,24.652,-7.683,42583.84817
2020/8/18 19:33:18,24.701,-4.145,42145.56505
2020/8/18 19:34:18,24.854,-0.572,41705.49005
2020/8/18 19:35:18,25.116,3.035,41265.70093
2020/8/18 19:36:18,25.492,6.672,40828.34195
2020/8/18 19:37:18,25.99,10.337,40395.61654
2020/8/18 19:38:18,26.621,14.027,39969.77831
2020/8/18 19:39:18,27.4,17.736,39553.12046
2020/8/18 19:40:18,28.344,21.458,39147.96322
2020/8/18 19:41:18,29.477,25.187,38756.63934
2020/8/18 19:42:18,30.829,28.912,38381.47776
2020/8/18 19:43:18,32.436,32.621,38024.78478
2020/8/18 19:44:18,34.346,36.298,37688.82387
2020/8/18 19:45:18,36.615,39.922,37375.79316
2020/8/18 19:46:18,39.317,43.467,37087.8019
2020/8/18 19:47:18,42.541,46.898,36826.84539
2020/8/18 19:48:18,46.393,50.172,36594.77983
2020/8/18 19:49:18,50.994,53.228,36393.29668
2020/8/18 19:50:18,56.467,55.996,36223.89825
2020/8/18 19:51:18,62.914,58.382,36087.87448
2020/8/18 19:52:18,70.364,60.285,35986.28226
2020/8/18 19:53:18,78.717,61.594,35919.92769
2020/8/18 19:54:18,87.691,62.22,35889.35225
2020/8/18 19:55:18,96.845,62.113,35894.82326
2020/8/18 19:56:18,105.687,61.281,35936.32909
2020/8/18 19:57:18,113.814,59.786,36013.57933
2020/8/18 19:58:18,120.996,57.727,36126.00996
2020/8/18 19:59:18,127.175,55.212,36272.79321
2020/8/18 20:00:18,132.408,52.342,36452.85166
2020/8/18 20:01:18,136.805,49.202,36664.87621
2020/8/18 20:02:18,140.491,45.862,36907.34691
2020/8/18 20:03:18,143.584,42.375,37178.55621
2020/8/18 20:04:18,146.186,38.782,37476.63341
2020/8/18 20:05:18,148.38,35.116,37799.57016
2020/8/18 20:06:18,150.236,31.402,38145.24555
2020/8/18 20:07:18,151.808,27.658,38511.45097
2020/8/18 20:08:18,153.14,23.9,38895.91347
2020/8/18 20:09:18,154.267,20.138,39296.31796
2020/8/18 20:10:18,155.218,16.382,39710.32731
2020/8/18 20:11:18,156.014,12.639,40135.60081
2020/8/18 20:12:18,156.673,8.914,40569.81035
2020/8/18 20:13:18,157.208,5.211,41010.65468
2020/8/18 20:14:18,157.631,1.533,41455.87188
2020/8/18 20:15:18,157.949,-2.116,41903.24972
2020/8/18 20:16:18,158.169,-5.736,42350.63449
2020/8/18 20:17:18,158.293,-9.324,42795.93832
2020/8/18 20:18:18,158.324,-12.88,43237.14502
2020/8/18 20:19:18,158.261,-16.403,43672.31484
2020/8/18 20:20:18,158.104,-19.893,44099.5881
2020/8/18 20:21:18,157.846,-23.348,44517.18803
2020/8/18 20:21:45,157.696,-24.892,44701.62336
2020/8/18 20:58:35,19.101,-24.913,44708.9483
2020/8/18 20:59:35,18.684,-21.448,44293.39825
2020/8/18 21:00:35,18.356,-17.918,43863.63122
2020/8/18 21:01:35,18.115,-14.348,43424.2371
2020/8/18 21:02:35,17.956,-10.736,42977.02695
2020/8/18 21:03:35,17.877,-7.084,42523.90011
2020/8/18 21:04:35,17.876,-3.392,42066.84164
2020/8/18 21:05:35,17.954,0.342,41607.91892
2020/8/18 21:06:35,18.115,4.115,41149.27717
2020/8/18 21:07:35,18.363,7.929,40693.13368
2020/8/18 21:08:35,18.703,11.781,40241.77057
2020/8/18 21:09:35,19.145,15.671,39797.52592
2020/8/18 21:10:35,19.702,19.597,39362.783
2020/8/18 21:11:35,20.389,23.554,38939.95756
2020/8/18 21:12:35,21.228,27.539,38531.48284
2020/8/18 21:13:35,22.245,31.547,38139.79259
2020/8/18 21:14:35,23.477,35.57,37767.30136
2020/8/18 21:15:35,24.972,39.596,37416.38316
2020/8/18 21:16:35,26.795,43.614,37089.34752
2020/8/18 21:17:35,29.032,47.602,36788.41433
2020/8/18 21:18:35,31.805,51.535,36515.68684
2020/8/18 21:19:35,35.279,55.376,36273.12438
2020/8/18 21:20:35,39.683,59.069,36062.51465
2020/8/18 21:21:35,45.323,62.537,35885.44686
2020/8/18 21:22:35,52.586,65.662,35743.28647
2020/8/18 21:23:35,61.869,68.277,35637.15241
2020/8/18 21:24:35,73.358,70.165,35567.89762
2020/8/18 21:25:35,86.638,71.094,35536.09378
2020/8/18 21:26:35,100.471,70.919,35542.02088
2020/8/18 21:27:35,113.301,69.667,35585.66199
2020/8/18 21:28:35,124.129,67.524,35666.70359
2020/8/18 21:29:35,132.767,64.722,35784.54139
2020/8/18 21:30:35,139.505,61.467,35938.29132
2020/8/18 21:31:35,144.751,57.907,36126.80532
2020/8/18 21:32:35,148.867,54.146,36348.6911
2020/8/18 21:33:35,152.138,50.256,36602.33528
2020/8/18 21:34:35,154.769,46.284,36885.92871
2020/8/18 21:35:35,156.911,42.263,37197.49351
2020/8/18 21:36:35,158.675,38.218,37534.91039
2020/8/18 21:37:35,160.138,34.166,37895.9462
2020/8/18 21:38:35,161.362,30.119,38278.28018
2020/8/18 21:39:35,162.39,26.087,38679.52933
2020/8/18 21:40:35,163.256,22.078,39097.27153
2020/8/18 21:41:35,163.985,18.095,39529.06698
2020/8/18 21:42:35,164.599,14.142,39972.47721
2020/8/18 21:43:35,165.112,10.223,40425.08182
2020/8/18 21:44:35,165.537,6.338,40884.49325
2020/8/18 21:45:35,165.883,2.49,41348.36908
2020/8/18 21:46:35,166.156,-1.322,41814.4226
2020/8/18 21:47:35,166.362,-5.098,42280.43145
2020/8/18 21:48:35,166.506,-8.837,42744.24463
2020/8/18 21:49:35,166.588,-12.541,43203.78818
2020/8/18 21:50:35,166.609,-16.209,43657.06948
2020/8/18 21:51:35,166.57,-19.843,44102.1806
2020/8/18 21:52:35,166.469,-23.444,44537.30073
2020/8/18 21:53:01,166.404,-25.009,44724.07769
2020/8/18 22:30:23,9.423,-24.982,44720.18593
2020/8/18 22:31:22,9.15,-21.398,44290.35504
2020/8/18 22:32:22,8.923,-17.735,43844.03202
2020/8/18 22:33:22,8.741,-14.032,43388.05737
2020/8/18 22:34:22,8.601,-10.289,42924.29569
2020/8/18 22:35:22,8.501,-6.505,42454.70268
2020/8/18 22:36:22,8.44,-2.677,41981.32269
2020/8/18 22:37:22,8.417,1.195,41506.2854
2020/8/18 22:38:22,8.432,5.112,41031.80144
2020/8/18 22:39:22,8.488,9.076,40560.15656
2020/8/18 22:40:22,8.587,13.088,40093.70432
2020/8/18 22:41:22,8.732,17.147,39634.85701
2020/8/18 22:42:22,8.928,21.254,39186.0746
2020/8/18 22:43:22,9.184,25.409,38749.85147
2020/8/18 22:44:22,9.508,29.611,38328.70093
2020/8/18 22:45:22,9.915,33.86,37925.13729
2020/8/18 22:46:22,10.423,38.152,37541.65528
2020/8/18 22:47:22,11.058,42.485,37180.70743
2020/8/18 22:48:22,11.857,46.855,36844.67887
2020/8/18 22:49:22,12.874,51.256,36535.86053
2020/8/18 22:50:22,14.194,55.679,36256.42061
2020/8/18 22:51:22,15.949,60.113,36008.37554
2020/8/18 22:52:22,18.364,64.539,35793.56056
2020/8/18 22:53:22,21.845,68.925,35613.60129
2020/8/18 22:54:22,27.196,73.211,35469.88703
2020/8/18 22:55:22,36.153,77.263,35363.54675
2020/8/18 22:56:22,52.645,80.735,35295.42886
2020/8/18 22:57:22,82.51,82.714,35266.08548
2020/8/18 22:58:22,117.714,81.991,35275.76205
2020/8/18 22:59:22,140.321,79.092,35324.39265
2020/8/18 23:00:22,152.329,75.257,35411.60128
2020/8/18 23:01:22,159.17,71.06,35536.70903
2020/8/18 23:02:22,163.46,66.71,35698.74686
2020/8/18 23:03:22,166.363,62.294,35896.47333
2020/8/18 23:04:22,168.442,57.856,36128.39657
2020/8/18 23:05:22,169.995,53.419,36392.79949
2020/8/18 23:06:22,171.195,48.999,36687.76735
2020/8/18 23:07:22,172.146,44.605,37011.21673
2020/8/18 23:08:22,172.916,40.244,37360.92467
2020/8/18 23:09:22,173.55,35.921,37734.55776
2020/8/18 23:10:22,174.078,31.64,38129.69968
2020/8/18 23:11:22,174.524,27.403,38543.87755
2020/8/18 23:12:22,174.905,23.212,38974.58576
2020/8/18 23:13:22,175.231,19.068,39419.30786
2020/8/18 23:14:22,175.514,14.97,39875.53586
2020/8/18 23:15:22,175.76,10.919,40340.78695
2020/8/18 23:16:22,175.974,6.915,40812.61819
2020/8/18 23:17:22,176.162,2.956,41288.63857
2020/8/18 23:18:22,176.326,-0.959,41766.51925
2020/8/18 23:19:22,176.47,-4.831,42244.00178
2020/8/18 23:20:22,176.597,-8.661,42718.90474
2020/8/18 23:21:22,176.707,-12.45,43189.12886
2020/8/18 23:22:22,176.803,-16.202,43652.66099
2020/8/18 23:23:22,176.885,-19.917,44107.5769
2020/8/18 23:24:22,176.955,-23.597,44552.04332
2020/8/18 23:24:45,176.979,-25.005,44719.98754
2020/8/19 0:02:22,358.498,-24.963,44708.77389
2020/8/19 0:03:21,358.407,-21.331,44272.98455
2020/8/19 0:04:21,358.31,-17.622,43820.9452
2020/8/19 0:05:21,358.208,-13.877,43359.5183
2020/8/19 0:06:21,358.098,-10.094,42890.59726
2020/8/19 0:07:21,357.98,-6.27,42416.16611
2020/8/19 0:08:21,357.851,-2.405,41938.29686
2020/8/19 0:09:21,357.71,1.503,41459.14603
2020/8/19 0:10:21,357.554,5.456,40980.94997
2020/8/19 0:11:21,357.381,9.454,40506.01877
2020/8/19 0:12:21,357.187,13.5,40036.72866
2020/8/19 0:13:21,356.968,17.593,39575.5125
2020/8/19 0:14:21,356.719,21.735,39124.84834
2020/8/19 0:15:21,356.433,25.924,38687.24571
2020/8/19 0:16:21,356.101,30.162,38265.22966
2020/8/19 0:17:21,355.713,34.446,37861.32215
2020/8/19 0:18:21,355.252,38.776,37478.02127
2020/8/19 0:19:21,354.697,43.149,37117.77773
2020/8/19 0:20:21,354.016,47.561,36782.96952
2020/8/19 0:21:21,353.166,52.008,36475.87436
2020/8/19 0:22:21,352.074,56.485,36198.64121
2020/8/19 0:23:21,350.627,60.98,35953.26066
2020/8/19 0:24:21,348.627,65.482,35741.53573
2020/8/19 0:25:21,345.702,69.966,35565.05347
2020/8/19 0:26:21,341.067,74.389,35425.15858
2020/8/19 0:27:21,332.82,78.644,35322.92998
2020/8/19 0:28:21,315.593,82.405,35259.16127
2020/8/19 0:29:21,277.777,84.501,35234.34597
2020/8/19 0:30:21,234.824,83.165,35248.66815
2020/8/19 0:31:21,213.646,79.654,35301.99897
2020/8/19 0:32:21,203.906,75.478,35393.89911
2020/8/19 0:33:21,198.64,71.087,35523.62727
2020/8/19 0:34:21,195.41,66.617,35690.15404
2020/8/19 0:35:21,193.253,62.123,35892.18076
2020/8/19 0:36:21,191.726,57.632,36128.16235
2020/8/19 0:37:21,190.599,53.158,36396.33335
2020/8/19 0:38:21,189.743,48.712,36694.73599
2020/8/19 0:39:21,189.079,44.301,37021.24959
2020/8/19 0:40:21,188.556,39.929,37373.61986
2020/8/19 0:41:21,188.142,35.601,37749.48805
2020/8/19 0:42:21,187.813,31.318,38146.41838
2020/8/19 0:43:21,187.553,27.083,38561.92412
2020/8/19 0:44:21,187.351,22.897,38993.49115
2020/8/19 0:45:21,187.197,18.76,39438.59948
2020/8/19 0:46:21,187.086,14.672,39894.74209
2020/8/19 0:47:21,187.014,10.633,40359.44127
2020/8/19 0:48:21,186.977,6.642,40830.2628
2020/8/19 0:49:21,186.973,2.699,41304.82771
2020/8/19 0:50:21,187,-1.198,41780.82198
2020/8/19 0:51:21,187.059,-5.049,42256.00449
2020/8/19 0:52:21,187.15,-8.857,42728.21326
2020/8/19 0:53:21,187.274,-12.623,43195.37031
2020/8/19 0:54:21,187.433,-16.348,43655.48528
2020/8/19 0:55:21,187.628,-20.035,44106.65808
2020/8/19 0:56:21,187.865,-23.683,44547.08063
2020/8/19 0:56:41,187.955,-24.913,44693.84858
2020/8/19 1:34:11,347.781,-24.849,44675.3876
2020/8/19 1:35:10,347.881,-21.289,44247.92814
2020/8/19 1:36:10,347.926,-17.648,43804.03374
2020/8/19 1:37:10,347.915,-13.972,43351.16874
2020/8/19 1:38:10,347.849,-10.261,42891.21517
2020/8/19 1:39:10,347.728,-6.514,42426.1421
2020/8/19 1:40:10,347.551,-2.73,41958.00258
2020/8/19 1:41:10,347.313,1.092,41488.92975
2020/8/19 1:42:10,347.011,4.952,41021.1318
2020/8/19 1:43:10,346.639,8.849,40556.88541
2020/8/19 1:44:10,346.188,12.784,40098.52778
2020/8/19 1:45:10,345.649,16.754,39648.4468
2020/8/19 1:46:10,345.007,20.759,39209.06929
2020/8/19 1:47:10,344.246,24.795,38782.84712
2020/8/19 1:48:10,343.343,28.859,38372.24118
2020/8/19 1:49:10,342.268,32.945,37979.70284
2020/8/19 1:50:10,340.983,37.046,37607.65347
2020/8/19 1:51:10,339.436,41.15,37258.46136
2020/8/19 1:52:10,337.556,45.246,36934.41715
2020/8/19 1:53:10,335.246,49.313,36637.70722
2020/8/19 1:54:10,332.371,53.323,36370.38644
2020/8/19 1:55:10,328.739,57.239,36134.35003
2020/8/19 1:56:10,324.078,61.001,35931.30601
2020/8/19 1:57:10,318.009,64.522,35762.7487
2020/8/19 1:58:10,310.045,67.668,35629.93419
2020/8/19 1:59:10,299.682,70.241,35533.85895
2020/8/19 2:00:10,286.742,71.981,35475.24209
2020/8/19 2:01:10,271.956,72.627,35454.51236
2020/8/19 2:02:10,257.11,72.059,35471.80015
2020/8/19 2:03:10,244.032,70.384,35526.93517
2020/8/19 2:04:10,233.523,67.861,35619.44965
2020/8/19 2:05:10,225.443,64.753,35748.58708
2020/8/19 2:06:10,219.295,61.263,35913.31599
2020/8/19 2:07:10,214.586,57.527,36112.34834
2020/8/19 2:08:10,210.93,53.637,36344.1615
2020/8/19 2:09:10,208.051,49.65,36607.02317
2020/8/19 2:10:10,205.753,45.608,36899.01819
2020/8/19 2:11:10,203.897,41.538,37218.07649
2020/8/19 2:12:10,202.385,37.46,37562.00089
2020/8/19 2:13:10,201.145,33.389,37928.49487
2020/8/19 2:14:10,200.125,29.334,38315.18857
2020/8/19 2:15:10,199.286,25.303,38719.66366
2020/8/19 2:16:10,198.598,21.302,39139.47575
2020/8/19 2:17:10,198.04,17.335,39572.175
2020/8/19 2:18:10,197.594,13.404,40015.32411
2020/8/19 2:19:10,197.249,9.513,40466.51408
2020/8/19 2:20:10,196.993,5.662,40923.37789
2020/8/19 2:21:10,196.82,1.852,41383.60188
2020/8/19 2:22:10,196.726,-1.916,41844.93524
2020/8/19 2:23:10,196.707,-5.643,42305.19778
2020/8/19 2:24:10,196.762,-9.328,42762.28614
2020/8/19 2:25:10,196.892,-12.972,43214.17863
2020/8/19 2:26:10,197.098,-16.575,43658.93889
2020/8/19 2:27:10,197.383,-20.137,44094.71865
2020/8/19 2:28:10,197.753,-23.659,44519.75953
2020/8/19 2:28:29,197.893,-24.792,44654.91769
2020/8/19 3:05:32,338.731,-24.683,44628.56164
2020/8/19 3:06:32,339.006,-21.233,44214.00153
2020/8/19 3:07:32,339.184,-17.734,43787.3098
2020/8/19 3:08:32,339.27,-14.2,43351.99732
2020/8/19 3:09:32,339.265,-10.633,42909.90232
2020/8/19 3:10:32,339.171,-7.032,42462.94548
2020/8/19 3:11:32,338.985,-3.4,42013.12657
2020/8/19 3:12:32,338.705,0.264,41562.52021
2020/8/19 3:13:32,338.326,3.958,41113.27037
2020/8/19 3:14:32,337.841,7.68,40667.58369
2020/8/19 3:15:32,337.24,11.427,40227.72117
2020/8/19 3:16:32,336.51,15.195,39795.98826
2020/8/19 3:17:32,335.636,18.98,39374.7231
2020/8/19 3:18:32,334.597,22.777,38966.28286
2020/8/19 3:19:32,333.367,26.576,38573.02802
2020/8/19 3:20:32,331.913,30.368,38197.30449
2020/8/19 3:21:32,330.195,34.14,37841.42387
2020/8/19 3:22:32,328.161,37.876,37507.64161
2020/8/19 3:23:32,325.744,41.552,37198.13379
2020/8/19 3:24:32,322.864,45.14,36914.97217
2020/8/19 3:25:32,319.419,48.603,36660.09889
2020/8/19 3:26:32,315.288,51.891,36435.30043
2020/8/19 3:27:32,310.334,54.94,36242.18239
2020/8/19 3:28:32,304.42,57.668,36082.14521
2020/8/19 3:29:32,297.443,59.973,35956.36202
2020/8/19 3:30:32,289.397,61.742,35865.75926
2020/8/19 3:31:32,280.449,62.859,35811.00087
2020/8/19 3:32:32,270.976,63.24,35792.47665
2020/8/19 3:33:32,261.511,62.852,35810.29539
2020/8/19 3:34:32,252.584,61.728,35864.28297
2020/8/19 3:35:32,244.568,59.958,35953.98549
2020/8/19 3:36:32,237.625,57.654,36078.67747
2020/8/19 3:37:32,231.746,54.933,36237.37459
2020/8/19 3:38:32,226.829,51.895,36428.85046
2020/8/19 3:39:32,222.735,48.621,36651.65687
2020/8/19 3:40:32,219.328,45.177,36904.14664
2020/8/19 3:41:32,216.487,41.61,37184.49831
2020/8/19 3:42:32,214.112,37.959,37490.74164
2020/8/19 3:43:32,212.121,34.252,37820.78378
2020/8/19 3:44:32,210.449,30.511,38172.43454
2020/8/19 3:45:32,209.046,26.753,38543.43113
2020/8/19 3:46:32,207.871,22.991,38931.46104
2020/8/19 3:47:32,206.891,19.235,39334.18363
2020/8/19 3:48:32,206.081,15.493,39749.24933
2020/8/19 3:49:32,205.421,11.771,40174.31712
2020/8/19 3:50:32,204.897,8.073,40607.06972
2020/8/19 3:51:32,204.495,4.405,41045.22681
2020/8/19 3:52:32,204.207,0.767,41486.5562
2020/8/19 3:53:32,204.026,-2.836,41928.8835
2020/8/19 3:54:32,203.949,-6.404,42370.09978
2020/8/19 3:55:32,203.973,-9.935,42808.16797
2020/8/19 3:56:32,204.099,-13.428,43241.12795
2020/8/19 3:57:32,204.327,-16.881,43667.10049
2020/8/19 3:58:32,204.662,-20.294,44084.29024
2020/8/19 3:59:32,205.11,-23.665,44490.98787
2020/8/19 3:59:51,205.273,-24.698,44614.3187
