sat_11node/group2-sr5.csv

Time (UTCG),Azimuth (deg),Elevation (deg),Range (km)
2020/8/18 4:00:00,242.004,-19.255,43848.98652
2020/8/18 4:01:00,242.692,-20.643,44017.99237
2020/8/18 4:02:00,243.457,-21.985,44180.42266
2020/8/18 4:03:00,244.297,-23.277,44335.90186
2020/8/18 4:04:00,245.212,-24.516,44484.08366
2020/8/18 4:04:19,245.522,-24.903,44530.14633
2020/8/18 4:37:12,290.247,-24.876,44529.07359
2020/8/18 4:38:11,291,-23.816,44402.82357
2020/8/18 4:39:11,291.693,-22.712,44270.5424
2020/8/18 4:40:11,292.319,-21.578,44133.96357
2020/8/18 4:41:11,292.877,-20.418,43993.45788
2020/8/18 4:42:11,293.368,-19.233,43849.40384
2020/8/18 4:43:11,293.792,-18.028,43702.18702
2020/8/18 4:44:11,294.151,-16.805,43552.19948
2020/8/18 4:45:11,294.445,-15.566,43399.83903
2020/8/18 4:46:11,294.674,-14.314,43245.50874
2020/8/18 4:47:11,294.84,-13.053,43089.61609
2020/8/18 4:48:11,294.942,-11.785,42932.57242
2020/8/18 4:49:11,294.981,-10.512,42774.79216
2020/8/18 4:50:11,294.958,-9.237,42616.69218
2020/8/18 4:51:11,294.873,-7.963,42458.69098
2020/8/18 4:52:11,294.726,-6.693,42301.20799
2020/8/18 4:53:11,294.518,-5.429,42144.66274
2020/8/18 4:54:11,294.248,-4.174,41989.47404
2020/8/18 4:55:11,293.918,-2.931,41836.0592
2020/8/18 4:56:11,293.528,-1.703,41684.83308
2020/8/18 4:57:11,293.077,-0.492,41536.20725
2020/8/18 4:58:11,292.566,0.698,41390.58904
2020/8/18 4:59:11,291.995,1.865,41248.38058
2020/8/18 5:00:11,291.365,3.005,41109.97779
2020/8/18 5:01:11,290.676,4.115,40975.76944
2020/8/18 5:02:11,289.929,5.193,40846.13602
2020/8/18 5:03:11,289.123,6.234,40721.44877
2020/8/18 5:04:11,288.262,7.237,40602.06846
2020/8/18 5:05:11,287.344,8.196,40488.34446
2020/8/18 5:06:11,286.372,9.11,40380.61354
2020/8/18 5:07:11,285.347,9.975,40279.19874
2020/8/18 5:08:11,284.271,10.788,40184.40833
2020/8/18 5:09:11,283.146,11.545,40096.53457
2020/8/18 5:10:11,281.975,12.243,40015.85279
2020/8/18 5:11:11,280.76,12.881,39942.62015
2020/8/18 5:12:11,279.505,13.454,39877.07472
2020/8/18 5:13:11,278.213,13.96,39819.43438
2020/8/18 5:14:11,276.888,14.396,39769.8959
2020/8/18 5:15:11,275.534,14.762,39728.63401
2020/8/18 5:16:11,274.156,15.053,39695.80058
2020/8/18 5:17:11,272.759,15.27,39671.5238
2020/8/18 5:18:11,271.347,15.41,39655.90753
2020/8/18 5:19:11,269.926,15.473,39649.0306
2020/8/18 5:20:11,268.502,15.458,39650.9464
2020/8/18 5:21:11,267.078,15.365,39661.68234
2020/8/18 5:22:11,265.662,15.194,39681.2396
2020/8/18 5:23:11,264.258,14.946,39709.59287
2020/8/18 5:24:11,262.872,14.621,39746.69027
2020/8/18 5:25:11,261.508,14.221,39792.45331
2020/8/18 5:26:11,260.172,13.746,39846.77706
2020/8/18 5:27:11,258.867,13.2,39909.5303
2020/8/18 5:28:11,257.598,12.585,39980.55591
2020/8/18 5:29:11,256.369,11.902,40059.67125
2020/8/18 5:30:11,255.183,11.154,40146.6688
2020/8/18 5:31:11,254.044,10.344,40241.31667
2020/8/18 5:32:11,252.954,9.475,40343.35943
2020/8/18 5:33:11,251.916,8.551,40452.51886
2020/8/18 5:34:11,250.932,7.574,40568.49487
2020/8/18 5:35:11,250.004,6.547,40690.96653
2020/8/18 5:36:11,249.134,5.474,40819.59298
2020/8/18 5:37:11,248.322,4.358,40954.01463
2020/8/18 5:38:11,247.571,3.203,41093.85423
2020/8/18 5:39:11,246.881,2.012,41238.71809
2020/8/18 5:40:11,246.253,0.788,41388.19727
2020/8/18 5:41:11,245.688,-0.465,41541.86893
2020/8/18 5:42:11,245.186,-1.745,41699.29742
2020/8/18 5:43:11,244.749,-3.048,41860.03569
2020/8/18 5:44:11,244.377,-4.37,42023.62652
2020/8/18 5:45:11,244.069,-5.709,42189.60388
2020/8/18 5:46:11,243.828,-7.062,42357.49413
2020/8/18 5:47:11,243.654,-8.425,42526.81739
2020/8/18 5:48:11,243.546,-9.795,42697.08875
2020/8/18 5:49:11,243.507,-11.169,42867.81959
2020/8/18 5:50:11,243.537,-12.544,43038.51879
2020/8/18 5:51:11,243.636,-13.917,43208.69395
2020/8/18 5:52:11,243.806,-15.285,43377.85265
2020/8/18 5:53:11,244.047,-16.644,43545.50358
2020/8/18 5:54:11,244.362,-17.992,43711.15775
2020/8/18 5:55:11,244.75,-19.325,43874.32962
2020/8/18 5:56:11,245.213,-20.64,44034.53821
2020/8/18 5:57:11,245.752,-21.933,44191.30821
2020/8/18 5:58:11,246.369,-23.202,44344.17104
2020/8/18 5:59:11,247.064,-24.441,44492.66594
2020/8/18 5:59:17,247.136,-24.559,44506.76122
2020/8/18 6:33:48,298.406,-24.697,44534.7043
2020/8/18 6:34:47,299.336,-23.275,44365.02565
2020/8/18 6:35:47,300.19,-21.78,44185.30514
2020/8/18 6:36:47,300.957,-20.232,43997.97748
2020/8/18 6:37:47,301.637,-18.635,43803.51556
2020/8/18 6:38:47,302.229,-16.992,43602.42755
2020/8/18 6:39:47,302.734,-15.308,43395.25666
2020/8/18 6:40:47,303.15,-13.585,43182.58097
2020/8/18 6:41:47,303.479,-11.826,42965.01309
2020/8/18 6:42:47,303.718,-10.037,42743.19956
2020/8/18 6:43:47,303.869,-8.219,42517.82022
2020/8/18 6:44:47,303.928,-6.378,42289.58724
2020/8/18 6:45:47,303.897,-4.516,42059.24405
2020/8/18 6:46:47,303.772,-2.638,41827.56391
2020/8/18 6:47:47,303.552,-0.749,41595.34833
2020/8/18 6:48:47,303.235,1.148,41363.42516
2020/8/18 6:49:47,302.819,3.048,41132.64633
2020/8/18 6:50:47,302.3,4.945,40903.8854
2020/8/18 6:51:47,301.676,6.834,40678.03459
2020/8/18 6:52:47,300.942,8.709,40456.00163
2020/8/18 6:53:47,300.097,10.564,40238.70609
2020/8/18 6:54:47,299.135,12.391,40027.07548
2020/8/18 6:55:47,298.052,14.183,39822.04084
2020/8/18 6:56:47,296.846,15.933,39624.53208
2020/8/18 6:57:47,295.512,17.631,39435.47285
2020/8/18 6:58:47,294.048,19.268,39255.77523
2020/8/18 6:59:47,292.45,20.835,39086.33394
2020/8/18 7:00:47,290.717,22.321,38928.02048
2020/8/18 7:01:47,288.849,23.715,38781.6769
2020/8/18 7:02:47,286.848,25.006,38648.10959
2020/8/18 7:03:47,284.715,26.182,38528.08287
2020/8/18 7:04:47,282.458,27.232,38422.31273
2020/8/18 7:05:47,280.084,28.146,38331.46056
2020/8/18 7:06:47,277.604,28.912,38256.12718
2020/8/18 7:07:47,275.031,29.521,38196.84722
2020/8/18 7:08:47,272.383,29.965,38154.08371
2020/8/18 7:09:47,269.679,30.237,38128.22348
2020/8/18 7:10:47,266.939,30.332,38119.57284
2020/8/18 7:11:47,264.185,30.246,38128.35426
2020/8/18 7:12:47,261.439,29.98,38154.70352
2020/8/18 7:13:47,258.725,29.534,38198.6679
2020/8/18 7:14:47,256.063,28.912,38260.205
2020/8/18 7:15:47,253.472,28.119,38339.18268
2020/8/18 7:16:47,250.968,27.162,38435.37952
2020/8/18 7:17:47,248.566,26.049,38548.48656
2020/8/18 7:18:47,246.277,24.791,38678.10935
2020/8/18 7:19:47,244.11,23.396,38823.77126
2020/8/18 7:20:47,242.069,21.876,38984.91695
2020/8/18 7:21:47,240.159,20.24,39160.91697
2020/8/18 7:22:47,238.381,18.501,39351.07241
2020/8/18 7:23:47,236.736,16.667,39554.62022
2020/8/18 7:24:47,235.221,14.75,39770.73893
2020/8/18 7:25:47,233.836,12.758,39998.5543
2020/8/18 7:26:47,232.576,10.7,40237.14535
2020/8/18 7:27:47,231.44,8.585,40485.55048
2020/8/18 7:28:47,230.423,6.422,40742.77331
2020/8/18 7:29:47,229.523,4.216,41007.78871
2020/8/18 7:30:47,228.737,1.975,41279.54849
2020/8/18 7:31:47,228.062,-0.294,41556.98706
2020/8/18 7:32:47,227.495,-2.586,41839.02666
2020/8/18 7:33:47,227.036,-4.895,42124.58246
2020/8/18 7:34:47,226.682,-7.217,42412.56737
2020/8/18 7:35:47,226.433,-9.546,42701.89648
2020/8/18 7:36:47,226.29,-11.878,42991.49124
2020/8/18 7:37:47,226.252,-14.208,43280.28335
2020/8/18 7:38:47,226.32,-16.532,43567.21827
2020/8/18 7:39:47,226.499,-18.846,43851.25858
2020/8/18 7:40:47,226.789,-21.146,44131.38687
2020/8/18 7:41:47,227.195,-23.427,44406.60855
2020/8/18 7:42:18,227.45,-24.587,44545.51086
2020/8/18 8:21:20,321.284,-24.732,44581.25304
2020/8/18 8:22:20,322.074,-22.18,44275.73117
2020/8/18 8:23:20,322.745,-19.575,43960.08305
2020/8/18 8:24:20,323.303,-16.921,43635.53208
2020/8/18 8:25:20,323.752,-14.223,43303.11035
2020/8/18 8:26:20,324.095,-11.482,42963.90692
2020/8/18 8:27:20,324.334,-8.701,42619.06706
2020/8/18 8:28:20,324.471,-5.883,42269.7911
2020/8/18 8:29:20,324.504,-3.031,41917.33297
2020/8/18 8:30:20,324.433,-0.147,41562.99818
2020/8/18 8:31:20,324.255,2.765,41208.14134
2020/8/18 8:32:20,323.965,5.703,40854.16315
2020/8/18 8:33:20,323.56,8.663,40502.5066
2020/8/18 8:34:20,323.031,11.641,40154.65258
2020/8/18 8:35:20,322.37,14.631,39812.11457
2020/8/18 8:36:20,321.565,17.628,39476.43257
2020/8/18 8:37:20,320.604,20.626,39149.16606
2020/8/18 8:38:20,319.471,23.617,38831.88602
2020/8/18 8:39:20,318.146,26.591,38526.16596
2020/8/18 8:40:20,316.608,29.536,38233.57201
2020/8/18 8:41:20,314.83,32.44,37955.65201
2020/8/18 8:42:20,312.782,35.285,37693.92378
2020/8/18 8:43:20,310.43,38.053,37449.86254
2020/8/18 8:44:20,307.738,40.721,37224.88774
2020/8/18 8:45:20,304.665,43.259,37020.34947
2020/8/18 8:46:20,301.173,45.637,36837.51453
2020/8/18 8:47:20,297.228,47.815,36677.55267
2020/8/18 8:48:20,292.808,49.753,36541.52309
2020/8/18 8:49:20,287.909,51.405,36430.36166
2020/8/18 8:50:20,282.562,52.723,36344.86898
2020/8/18 8:51:20,276.833,53.664,36285.70001
2020/8/18 8:52:20,270.83,54.194,36253.35502
2020/8/18 8:53:20,264.698,54.288,36248.1727
2020/8/18 8:54:20,258.598,53.941,36270.32506
2020/8/18 8:55:20,252.686,53.166,36319.81496
2020/8/18 8:56:20,247.091,51.988,36396.47556
2020/8/18 8:57:20,241.905,50.445,36499.97249
2020/8/18 8:58:20,237.176,48.583,36629.80793
2020/8/18 8:59:20,232.918,46.446,36785.32715
2020/8/18 9:00:20,229.119,44.077,36965.72657
2020/8/18 9:01:20,225.75,41.518,37170.06385
2020/8/18 9:02:20,222.774,38.801,37397.26896
2020/8/18 9:03:20,220.151,35.959,37646.15662
2020/8/18 9:04:20,217.842,33.016,37915.43908
2020/8/18 9:05:20,215.811,29.993,38203.73965
2020/8/18 9:06:20,214.025,26.909,38509.60603
2020/8/18 9:07:20,212.456,23.778,38831.5237
2020/8/18 9:08:20,211.078,20.613,39167.92871
2020/8/18 9:09:20,209.871,17.423,39517.2201
2020/8/18 9:10:20,208.816,14.218,39877.77156
2020/8/18 9:11:20,207.898,11.005,40247.94211
2020/8/18 9:12:20,207.104,7.788,40626.08611
2020/8/18 9:13:20,206.423,4.574,41010.56226
2020/8/18 9:14:20,205.846,1.365,41399.74176
2020/8/18 9:15:20,205.367,-1.834,41792.01536
2020/8/18 9:16:20,204.98,-5.022,42185.79987
2020/8/18 9:17:20,204.681,-8.195,42579.54354
2020/8/18 9:18:20,204.467,-11.353,42971.73095
2020/8/18 9:19:20,204.336,-14.493,43360.88699
2020/8/18 9:20:20,204.288,-17.615,43745.5804
2020/8/18 9:21:20,204.325,-20.717,44124.42049
2020/8/18 9:22:20,204.448,-23.798,44496.08428
2020/8/18 9:22:36,204.496,-24.619,44594.23875
2020/8/18 10:03:24,345.078,-24.865,44644.7114
2020/8/18 10:04:23,345.54,-21.67,44261.69016
2020/8/18 10:05:23,345.942,-18.401,43864.23347
2020/8/18 10:06:23,346.285,-15.094,43457.99174
2020/8/18 10:07:23,346.573,-11.749,43044.33812
2020/8/18 10:08:23,346.808,-8.366,42624.71273
2020/8/18 10:09:23,346.995,-4.943,42200.62151
2020/8/18 10:10:23,347.134,-1.481,41773.63461
2020/8/18 10:11:23,347.226,2.022,41345.38416
2020/8/18 10:12:23,347.271,5.566,40917.56135
2020/8/18 10:13:23,347.268,9.152,40491.9126
2020/8/18 10:14:23,347.216,12.779,40070.23496
2020/8/18 10:15:23,347.11,16.448,39654.37027
2020/8/18 10:16:23,346.948,20.159,39246.19826
2020/8/18 10:17:23,346.722,23.912,38847.62834
2020/8/18 10:18:23,346.424,27.705,38460.59001
2020/8/18 10:19:23,346.044,31.538,38087.02178
2020/8/18 10:20:23,345.567,35.408,37728.85867
2020/8/18 10:21:23,344.972,39.313,37388.01816
2020/8/18 10:22:23,344.233,43.25,37066.38475
2020/8/18 10:23:23,343.312,47.214,36765.79322
2020/8/18 10:24:23,342.155,51.199,36488.0107
2020/8/18 10:25:23,340.682,55.195,36234.71797
2020/8/18 10:26:23,338.775,59.191,36007.49021
2020/8/18 10:27:23,336.243,63.166,35807.77771
2020/8/18 10:28:23,332.774,67.091,35636.88685
2020/8/18 10:29:23,327.824,70.913,35495.96214
2020/8/18 10:30:23,320.402,74.531,35385.96963
2020/8/18 10:31:23,308.707,77.741,35307.68239
2020/8/18 10:32:23,290.116,80.114,35261.66842
2020/8/18 10:33:23,264.459,80.95,35248.28161
2020/8/18 10:34:23,239.495,79.854,35267.65596
2020/8/18 10:35:23,221.99,77.32,35319.70328
2020/8/18 10:36:23,211.013,74.024,35404.11459
2020/8/18 10:37:23,203.986,70.355,35520.36499
2020/8/18 10:38:23,199.245,66.498,35667.72191
2020/8/18 10:39:23,195.878,62.544,35845.25642
2020/8/18 10:40:23,193.384,58.541,36051.85711
2020/8/18 10:41:23,191.471,54.517,36286.24615
2020/8/18 10:42:23,189.961,50.492,36546.99683
2020/8/18 10:43:23,188.742,46.476,36832.5523
2020/8/18 10:44:23,187.739,42.479,37141.2446
2020/8/18 10:45:23,186.898,38.506,37471.31394
2020/8/18 10:46:23,186.183,34.563,37820.92734
2020/8/18 10:47:23,185.568,30.651,38188.19675
2020/8/18 10:48:23,185.032,26.775,38571.19585
2020/8/18 10:49:23,184.561,22.935,38967.97586
2020/8/18 10:50:23,184.141,19.132,39376.57975
2020/8/18 10:51:23,183.764,15.368,39795.05511
2020/8/18 10:52:23,183.423,11.641,40221.46557
2020/8/18 10:53:23,183.11,7.953,40653.90069
2020/8/18 10:54:23,182.822,4.303,41090.48449
2020/8/18 10:55:23,182.553,0.69,41529.38278
2020/8/18 10:56:23,182.3,-2.886,41968.80921
2020/8/18 10:57:23,182.06,-6.427,42407.03031
2020/8/18 10:58:23,181.83,-9.933,42842.36953
2020/8/18 10:59:23,181.606,-13.406,43273.21049
2020/8/18 11:00:23,181.387,-16.847,43697.99946
2020/8/18 11:01:23,181.17,-20.257,44115.2473
2020/8/18 11:02:23,180.951,-23.637,44523.53076
2020/8/18 11:02:42,180.883,-24.678,44647.8855
2020/8/18 11:43:49,8.856,-24.933,44697.62071
2020/8/18 11:44:49,8.946,-21.62,44300.53646
2020/8/18 11:45:49,9.069,-18.267,43892.63694
2020/8/18 11:46:49,9.223,-14.887,43477.16027
2020/8/18 11:47:49,9.411,-11.48,43055.5622
2020/8/18 11:48:49,9.635,-8.044,42629.35915
2020/8/18 11:49:49,9.896,-4.579,42200.12622
2020/8/18 11:50:49,10.198,-1.085,41769.49473
2020/8/18 11:51:49,10.544,2.439,41339.14898
2020/8/18 11:52:49,10.941,5.993,40910.82231
2020/8/18 11:53:49,11.393,9.577,40486.29221
2020/8/18 11:54:49,11.909,13.19,40067.37449
2020/8/18 11:55:49,12.498,16.831,39655.91635
2020/8/18 11:56:49,13.171,20.498,39253.78828
2020/8/18 11:57:49,13.942,24.189,38862.87466
2020/8/18 11:58:49,14.829,27.901,38485.06308
2020/8/18 11:59:49,15.854,31.63,38122.23235
2020/8/18 12:00:49,17.047,35.37,37776.23914
2020/8/18 12:01:49,18.445,39.112,37448.90331
2020/8/18 12:02:49,20.095,42.849,37141.9923
2020/8/18 12:03:49,22.063,46.565,36857.20427
2020/8/18 12:04:49,24.433,50.243,36596.15085
2020/8/18 12:05:49,27.322,53.858,36360.33918
2020/8/18 12:06:49,30.886,57.376,36151.15427
2020/8/18 12:07:49,35.338,60.748,35969.84149
2020/8/18 12:08:49,40.957,63.903,35817.49021
2020/8/18 12:09:49,48.081,66.739,35695.01858
2020/8/18 12:10:49,57.046,69.114,35603.16048
2020/8/18 12:11:49,67.995,70.847,35542.45449
2020/8/18 12:12:49,80.571,71.748,35513.23583
2020/8/18 12:13:49,93.735,71.692,35515.63117
2020/8/18 12:14:49,106.137,70.689,35549.55674
2020/8/18 12:15:49,116.818,68.879,35614.71969
2020/8/18 12:16:49,125.501,66.456,35710.62279
2020/8/18 12:17:49,132.373,63.598,35836.57209
2020/8/18 12:18:49,137.776,60.442,35991.6875
2020/8/18 12:19:49,142.041,57.085,36174.91576
2020/8/18 12:20:49,145.439,53.594,36385.04535
2020/8/18 12:21:49,148.174,50.017,36620.72302
2020/8/18 12:22:49,150.396,46.386,36880.47121
2020/8/18 12:23:49,152.216,42.726,37162.70609
2020/8/18 12:24:49,153.716,39.053,37465.75562
2020/8/18 12:25:49,154.958,35.38,37787.87736
2020/8/18 12:26:49,155.986,31.717,38127.27554
2020/8/18 12:27:49,156.837,28.071,38482.11726
2020/8/18 12:28:49,157.537,24.448,38850.54757
2020/8/18 12:29:49,158.107,20.853,39230.70323
2020/8/18 12:30:49,158.563,17.288,39620.72518
2020/8/18 12:31:49,158.917,13.756,40018.76963
2020/8/18 12:32:49,159.179,10.259,40423.01775
2020/8/18 12:33:49,159.356,6.799,40831.68415
2020/8/18 12:34:49,159.454,3.376,41243.02401
2020/8/18 12:35:49,159.475,-0.009,41655.33921
2020/8/18 12:36:49,159.423,-3.355,42066.98327
2020/8/18 12:37:49,159.298,-6.661,42476.36551
2020/8/18 12:38:49,159.1,-9.928,42881.95427
2020/8/18 12:39:49,158.827,-13.156,43282.27948
2020/8/18 12:40:49,158.477,-16.342,43675.93456
2020/8/18 12:41:49,158.045,-19.488,44061.57784
2020/8/18 12:42:49,157.527,-22.593,44437.93347
2020/8/18 12:43:32,157.098,-24.791,44701.24852
2020/8/18 13:23:49,32.299,-24.943,44733.09387
2020/8/18 13:24:49,32.026,-22.118,44394.78518
2020/8/18 13:25:49,31.856,-19.25,44046.8115
2020/8/18 13:26:49,31.789,-16.364,43693.11056
2020/8/18 13:27:49,31.822,-13.461,43334.95042
2020/8/18 13:28:49,31.953,-10.546,42973.63829
2020/8/18 13:29:49,32.182,-7.619,42610.51764
2020/8/18 13:30:49,32.511,-4.685,42246.96496
2020/8/18 13:31:49,32.941,-1.745,41884.38584
2020/8/18 13:32:49,33.478,1.195,41524.21066
2020/8/18 13:33:49,34.124,4.133,41167.88963
2020/8/18 13:34:49,34.887,7.063,40816.88712
2020/8/18 13:35:49,35.774,9.98,40472.67545
2020/8/18 13:36:49,36.794,12.878,40136.7279
2020/8/18 13:37:49,37.958,15.749,39810.51102
2020/8/18 13:38:49,39.277,18.585,39495.47637
2020/8/18 13:39:49,40.766,21.376,39193.05149
2020/8/18 13:40:49,42.439,24.111,38904.63027
2020/8/18 13:41:49,44.312,26.776,38631.56297
2020/8/18 13:42:49,46.405,29.356,38375.1456
2020/8/18 13:43:49,48.733,31.834,38136.60929
2020/8/18 13:44:49,51.316,34.191,37917.10921
2020/8/18 13:45:49,54.168,36.404,37717.71407
2020/8/18 13:46:49,57.302,38.45,37539.39533
2020/8/18 13:47:49,60.724,40.303,37383.01752
2020/8/18 13:48:49,64.432,41.937,37249.32882
2020/8/18 13:49:49,68.41,43.323,37138.95302
2020/8/18 13:50:49,72.63,44.438,37052.38237
2020/8/18 13:51:49,77.048,45.258,36989.97216
2020/8/18 13:52:49,81.604,45.766,36951.93651
2020/8/18 13:53:49,86.229,45.952,36938.34629
2020/8/18 13:54:49,90.846,45.813,36949.12831
2020/8/18 13:55:49,95.378,45.355,36984.06687
2020/8/18 13:56:49,99.755,44.59,37042.80655
2020/8/18 13:57:49,103.921,43.539,37124.85711
2020/8/18 13:58:49,107.833,42.225,37229.59966
2020/8/18 13:59:49,111.464,40.676,37356.29446
2020/8/18 14:00:49,114.801,38.919,37504.08962
2020/8/18 14:01:49,117.843,36.983,37672.03111
2020/8/18 14:02:49,120.595,34.893,37859.07312
2020/8/18 14:03:49,123.072,32.673,38064.08925
2020/8/18 14:04:49,125.288,30.346,38285.88366
2020/8/18 14:05:49,127.261,27.93,38523.20248
2020/8/18 14:06:49,129.009,25.445,38774.74487
2020/8/18 14:07:49,130.549,22.904,39039.17392
2020/8/18 14:08:49,131.897,20.32,39315.12695
2020/8/18 14:09:49,133.068,17.706,39601.2253
2020/8/18 14:10:49,134.075,15.071,39896.08344
2020/8/18 14:11:49,134.93,12.424,40198.31736
2020/8/18 14:12:49,135.643,9.773,40506.55221
2020/8/18 14:13:49,136.223,7.125,40819.42922
2020/8/18 14:14:49,136.677,4.484,41135.6118
2020/8/18 14:15:49,137.01,1.857,41453.791
2020/8/18 14:16:49,137.228,-0.752,41772.6902
2020/8/18 14:17:49,137.335,-3.338,42091.0692
2020/8/18 14:18:49,137.332,-5.898,42407.72773
2020/8/18 14:19:49,137.222,-8.427,42721.50831
2020/8/18 14:20:49,137.006,-10.923,43031.29874
2020/8/18 14:21:49,136.683,-13.381,43336.03402
2020/8/18 14:22:49,136.252,-15.799,43634.69796
2020/8/18 14:23:49,135.712,-18.172,43926.32438
2020/8/18 14:24:49,135.06,-20.497,44209.99802
2020/8/18 14:25:49,134.293,-22.77,44484.85523
2020/8/18 14:26:48,133.417,-24.962,44747.18473
2020/8/18 15:04:26,54.66,-24.935,44749.56655
2020/8/18 15:05:26,54.084,-23.018,44520.28842
2020/8/18 15:06:26,53.618,-21.068,44285.0521
2020/8/18 15:07:26,53.26,-19.1,44045.57448
2020/8/18 15:08:26,53.008,-17.117,43802.68952
2020/8/18 15:09:26,52.858,-15.124,43557.24611
2020/8/18 15:10:26,52.808,-13.125,43310.10579
2020/8/18 15:11:26,52.857,-11.125,43062.14014
2020/8/18 15:12:26,53.004,-9.127,42814.22808
2020/8/18 15:13:26,53.246,-7.137,42567.253
2020/8/18 15:14:26,53.585,-5.159,42322.09967
2020/8/18 15:15:26,54.02,-3.198,42079.65098
2020/8/18 15:16:26,54.551,-1.258,41840.78452
2020/8/18 15:17:26,55.179,0.655,41606.38754
2020/8/18 15:18:26,55.903,2.536,41377.2816
2020/8/18 15:19:26,56.725,4.38,41154.32243
2020/8/18 15:20:26,57.645,6.18,40938.32928
2020/8/18 15:21:26,58.664,7.93,40730.0969
2020/8/18 15:22:26,59.782,9.625,40530.39146
2020/8/18 15:23:26,61,11.257,40339.94648
2020/8/18 15:24:26,62.317,12.82,40159.45864
2020/8/18 15:25:26,63.732,14.307,39989.58392
2020/8/18 15:26:26,65.244,15.711,39830.93367
2020/8/18 15:27:26,66.85,17.024,39684.0708
2020/8/18 15:28:26,68.547,18.24,39549.50651
2020/8/18 15:29:26,70.33,19.353,39427.69699
2020/8/18 15:30:26,72.193,20.355,39319.0405
2020/8/18 15:31:26,74.128,21.24,39223.87506
2020/8/18 15:32:26,76.128,22.003,39142.47632
2020/8/18 15:33:26,78.183,22.64,39075.05591
2020/8/18 15:34:26,80.281,23.147,39021.76052
2020/8/18 15:35:26,82.411,23.52,38982.67123
2020/8/18 15:36:26,84.56,23.759,38957.80341
2020/8/18 15:37:26,86.714,23.862,38947.1074
2020/8/18 15:38:26,88.861,23.831,38950.46944
2020/8/18 15:39:26,90.986,23.666,38967.71311
2020/8/18 15:40:26,93.078,23.372,38998.60161
2020/8/18 15:41:26,95.125,22.951,39042.84007
2020/8/18 15:42:26,97.116,22.41,39100.07845
2020/8/18 15:43:26,99.041,21.753,39169.91493
2020/8/18 15:44:26,100.892,20.987,39251.8994
2020/8/18 15:45:26,102.661,20.118,39345.53732
2020/8/18 15:46:26,104.345,19.155,39450.29381
2020/8/18 15:47:26,105.937,18.104,39565.59779
2020/8/18 15:48:26,107.435,16.974,39690.84628
2020/8/18 15:49:26,108.837,15.771,39825.40873
2020/8/18 15:50:26,110.142,14.502,39968.63129
2020/8/18 15:51:26,111.349,13.176,40119.84108
2020/8/18 15:52:26,112.46,11.799,40278.35032
2020/8/18 15:53:26,113.473,10.378,40443.46028
2020/8/18 15:54:26,114.392,8.919,40614.46519
2020/8/18 15:55:26,115.217,7.429,40790.65583
2020/8/18 15:56:26,115.95,5.913,40971.32294
2020/8/18 15:57:26,116.593,4.376,41155.76049
2020/8/18 15:58:26,117.147,2.824,41343.2686
2020/8/18 15:59:26,117.615,1.262,41533.15625
2020/8/18 16:00:26,117.997,-0.306,41724.7438
2020/8/18 16:01:26,118.297,-1.876,41917.36526
2020/8/18 16:02:26,118.515,-3.442,42110.37024
2020/8/18 16:03:26,118.653,-5.002,42303.1258
2020/8/18 16:04:26,118.712,-6.552,42495.01799
2020/8/18 16:05:26,118.694,-8.088,42685.45325
2020/8/18 16:06:26,118.599,-9.607,42873.85952
2020/8/18 16:07:26,118.428,-11.105,43059.6873
2020/8/18 16:08:26,118.183,-12.579,43242.41043
2020/8/18 16:09:26,117.864,-14.027,43421.52675
2020/8/18 16:10:26,117.472,-15.444,43596.55863
2020/8/18 16:11:26,117.008,-16.829,43767.05336
2020/8/18 16:12:26,116.471,-18.179,43932.58337
2020/8/18 16:13:26,115.864,-19.49,44092.74646
2020/8/18 16:14:26,115.186,-20.76,44247.1658
2020/8/18 16:15:26,114.439,-21.985,44395.48986
2020/8/18 16:16:26,113.624,-23.164,44537.3924
2020/8/18 16:17:26,112.741,-24.294,44672.57226
2020/8/18 16:17:58,112.238,-24.882,44742.59233
2020/8/18 16:49:58,70.89,-24.959,44748.45183
2020/8/18 16:50:58,70.098,-23.971,44630.39771
2020/8/18 16:51:58,69.365,-22.943,44506.99738
2020/8/18 16:52:58,68.694,-21.882,44378.98813
2020/8/18 16:53:58,68.087,-20.791,44246.68869
2020/8/18 16:54:58,67.542,-19.672,44110.42727
2020/8/18 16:55:58,67.059,-18.528,43970.54125
2020/8/18 16:56:58,66.638,-17.361,43827.37674
2020/8/18 16:57:58,66.28,-16.174,43681.28836
2020/8/18 16:58:58,65.983,-14.97,43532.63873
2020/8/18 16:59:58,65.748,-13.751,43381.79812
2020/8/18 17:00:58,65.575,-12.519,43229.14405
2020/8/18 17:01:58,65.462,-11.277,43075.06078
2020/8/18 17:02:58,65.411,-10.029,42919.93891
2020/8/18 17:03:58,65.42,-8.775,42764.17477
2020/8/18 17:04:58,65.49,-7.519,42608.16992
2020/8/18 17:05:58,65.621,-6.263,42452.33053
2020/8/18 17:06:58,65.813,-5.011,42297.06671
2020/8/18 17:07:58,66.066,-3.765,42142.79185
2020/8/18 17:08:58,66.38,-2.527,41989.92185
2020/8/18 17:09:58,66.755,-1.3,41838.87427
2020/8/18 17:10:58,67.192,-0.088,41690.06753
2020/8/18 17:11:58,67.689,1.106,41543.91991
2020/8/18 17:12:58,68.248,2.28,41400.84862
2020/8/18 17:13:58,68.868,3.43,41261.26866
2020/8/18 17:14:58,69.55,4.553,41125.5918
2020/8/18 17:15:58,70.292,5.646,40994.22531
2020/8/18 17:16:58,71.095,6.705,40867.57079
2020/8/18 17:17:58,71.958,7.726,40746.02282
2020/8/18 17:18:58,72.88,8.706,40629.96764
2020/8/18 17:19:58,73.86,9.641,40519.7817
2020/8/18 17:20:58,74.898,10.529,40415.83032
2020/8/18 17:21:58,75.99,11.364,40318.46614
2020/8/18 17:22:58,77.136,12.144,40228.02766
2020/8/18 17:23:58,78.333,12.865,40144.83771
2020/8/18 17:24:58,79.579,13.523,40069.20196
2020/8/18 17:25:58,80.869,14.115,40001.40742
2020/8/18 17:26:58,82.2,14.639,39941.72093
2020/8/18 17:27:58,83.57,15.09,39890.38776
2020/8/18 17:28:58,84.971,15.467,39847.63018
2020/8/18 17:29:58,86.401,15.767,39813.64615
2020/8/18 17:30:58,87.854,15.987,39788.60804
2020/8/18 17:31:58,89.325,16.127,39772.66148
2020/8/18 17:32:58,90.806,16.185,39765.9243
2020/8/18 17:33:58,92.294,16.16,39768.48557
2020/8/18 17:34:58,93.781,16.051,39780.40479
2020/8/18 17:35:58,95.262,15.858,39801.71117
2020/8/18 17:36:58,96.73,15.583,39832.40317
2020/8/18 17:37:58,98.181,15.225,39872.44803
2020/8/18 17:38:58,99.607,14.786,39921.78156
2020/8/18 17:39:58,101.005,14.267,39980.30807
2020/8/18 17:40:58,102.368,13.672,40047.90052
2020/8/18 17:41:58,103.692,13.001,40124.40066
2020/8/18 17:42:58,104.973,12.257,40209.61948
2020/8/18 17:43:58,106.207,11.444,40303.33778
2020/8/18 17:44:58,107.39,10.565,40405.30694
2020/8/18 17:45:58,108.52,9.623,40515.24961
2020/8/18 17:46:58,109.593,8.62,40632.8608
2020/8/18 17:47:58,110.607,7.562,40757.80892
2020/8/18 17:48:58,111.561,6.451,40889.73709
2020/8/18 17:49:58,112.452,5.291,41028.26429
2020/8/18 17:50:58,113.279,4.086,41172.98683
2020/8/18 17:51:58,114.041,2.84,41323.47981
2020/8/18 17:52:58,114.736,1.556,41479.29862
2020/8/18 17:53:58,115.365,0.238,41639.9806
2020/8/18 17:54:58,115.925,-1.111,41805.04649
2020/8/18 17:55:58,116.417,-2.486,41974.00223
2020/8/18 17:56:58,116.84,-3.885,42146.34049
2020/8/18 17:57:58,117.193,-5.303,42321.54242
2020/8/18 17:58:58,117.475,-6.737,42499.0793
2020/8/18 17:59:58,117.686,-8.184,42678.41416
2020/8/18 18:00:58,117.825,-9.641,42859.00342
2020/8/18 18:01:58,117.891,-11.104,43040.29857
2020/8/18 18:02:58,117.883,-12.569,43221.74767
2020/8/18 18:03:58,117.8,-14.033,43402.797
2020/8/18 18:04:58,117.642,-15.493,43582.89252
2020/8/18 18:05:58,117.406,-16.945,43761.48138
2020/8/18 18:06:58,117.092,-18.386,43938.01341
2020/8/18 18:07:58,116.698,-19.813,44111.94248
2020/8/18 18:08:58,116.223,-21.22,44282.72791
2020/8/18 18:09:58,115.664,-22.606,44449.83578
2020/8/18 18:10:58,115.022,-23.966,44612.74027
2020/8/18 18:11:30,114.64,-24.686,44698.54375
2020/8/18 18:46:40,59.082,-24.607,44676.37345
2020/8/18 18:47:39,58.154,-23.04,44488.65781
2020/8/18 18:48:39,57.31,-21.401,44290.70414
2020/8/18 18:49:39,56.561,-19.708,44084.87071
2020/8/18 18:50:39,55.907,-17.966,43871.70446
2020/8/18 18:51:39,55.346,-16.178,43651.79118
2020/8/18 18:52:39,54.879,-14.348,43425.7551
2020/8/18 18:53:39,54.506,-12.479,43194.25863
2020/8/18 18:54:39,54.226,-10.576,42958.00176
2020/8/18 18:55:39,54.041,-8.642,42717.72127
2020/8/18 18:56:39,53.951,-6.681,42474.18978
2020/8/18 18:57:39,53.957,-4.698,42228.21448
2020/8/18 18:58:39,54.061,-2.695,41980.63573
2020/8/18 18:59:39,54.265,-0.678,41732.3251
2020/8/18 19:00:39,54.571,1.348,41484.18344
2020/8/18 19:01:39,54.982,3.38,41237.1383
2020/8/18 19:02:39,55.5,5.411,40992.1412
2020/8/18 19:03:39,56.131,7.435,40750.16438
2020/8/18 19:04:39,56.877,9.448,40512.19721
2020/8/18 19:05:39,57.743,11.441,40279.24214
2020/8/18 19:06:39,58.735,13.407,40052.3103
2020/8/18 19:07:39,59.856,15.339,39832.41653
2020/8/18 19:08:39,61.112,17.228,39620.57418
2020/8/18 19:09:39,62.507,19.064,39417.78931
2020/8/18 19:10:39,64.047,20.837,39225.05464
2020/8/18 19:11:39,65.736,22.537,39043.34313
2020/8/18 19:12:39,67.575,24.15,38873.60126
2020/8/18 19:13:39,69.568,25.666,38716.74207
2020/8/18 19:14:39,71.712,27.072,38573.63812
2020/8/18 19:15:39,74.007,28.353,38445.11434
2020/8/18 19:16:39,76.446,29.498,38331.9409
2020/8/18 19:17:39,79.02,30.493,38234.82636
2020/8/18 19:18:39,81.717,31.325,38154.41089
2020/8/18 19:19:39,84.521,31.984,38091.26013
2020/8/18 19:20:39,87.412,32.46,38045.85929
2020/8/18 19:21:39,90.367,32.745,38018.60814
2020/8/18 19:22:39,93.36,32.833,38009.81645
2020/8/18 19:23:39,96.365,32.722,38019.70059
2020/8/18 19:24:39,99.354,32.411,38048.38058
2020/8/18 19:25:39,102.301,31.902,38095.87864
2020/8/18 19:26:39,105.18,31.2,38162.11814
2020/8/18 19:27:39,107.971,30.313,38246.92411
2020/8/18 19:28:39,110.653,29.249,38350.02425
2020/8/18 19:29:39,113.213,28.019,38471.05133
2020/8/18 19:30:39,115.639,26.635,38609.54605
2020/8/18 19:31:39,117.923,25.108,38764.96116
2020/8/18 19:32:39,120.06,23.45,38936.6659
2020/8/18 19:33:39,122.049,21.675,39123.95144
2020/8/18 19:34:39,123.891,19.795,39326.03653
2020/8/18 19:35:39,125.586,17.82,39542.0737
2020/8/18 19:36:39,127.137,15.762,39771.15591
2020/8/18 19:37:39,128.55,13.632,40012.32298
2020/8/18 19:38:39,129.828,11.438,40264.56844
2020/8/18 19:39:39,130.976,9.19,40526.84634
2020/8/18 19:40:39,131.998,6.896,40798.07772
2020/8/18 19:41:39,132.899,4.563,41077.15718
2020/8/18 19:42:39,133.683,2.199,41362.95907
2020/8/18 19:43:39,134.352,-0.191,41654.34349
2020/8/18 19:44:39,134.911,-2.6,41950.16184
2020/8/18 19:45:39,135.361,-5.023,42249.26221
2020/8/18 19:46:39,135.704,-7.456,42550.49424
2020/8/18 19:47:39,135.942,-9.893,42852.7138
2020/8/18 19:48:39,136.073,-12.33,43154.78711
2020/8/18 19:49:39,136.098,-14.764,43455.59469
2020/8/18 19:50:39,136.014,-17.189,43754.03488
2020/8/18 19:51:39,135.821,-19.602,44049.02698
2020/8/18 19:52:39,135.514,-21.999,44339.51424
2020/8/18 19:53:39,135.089,-24.376,44624.46642
2020/8/18 19:53:48,135.019,-24.713,44664.57965
2020/8/18 20:33:06,36.073,-24.633,44635.9317
2020/8/18 20:34:06,35.321,-21.982,44317.74197
2020/8/18 20:35:06,34.681,-19.27,43988.1445
2020/8/18 20:36:06,34.153,-16.51,43649.63564
2020/8/18 20:37:06,33.732,-13.705,43303.30529
2020/8/18 20:38:06,33.414,-10.859,42950.30237
2020/8/18 20:39:06,33.197,-7.973,42591.83394
2020/8/18 20:40:06,33.081,-5.05,42229.16398
2020/8/18 20:41:06,33.065,-2.092,41863.61163
2020/8/18 20:42:06,33.152,0.899,41496.54904
2020/8/18 20:43:06,33.344,3.919,41129.39859
2020/8/18 20:44:06,33.645,6.966,40763.62947
2020/8/18 20:45:06,34.062,10.037,40400.75359
2020/8/18 20:46:06,34.602,13.127,40042.32062
2020/8/18 20:47:06,35.276,16.232,39689.91226
2020/8/18 20:48:06,36.094,19.346,39345.13547
2020/8/18 20:49:06,37.072,22.463,39009.61475
2020/8/18 20:50:06,38.229,25.575,38684.98345
2020/8/18 20:51:06,39.586,28.673,38372.87397
2020/8/18 20:52:06,41.169,31.744,38074.90691
2020/8/18 20:53:06,43.009,34.774,37792.67928
2020/8/18 20:54:06,45.142,37.748,37527.75177
2020/8/18 20:55:06,47.611,40.642,37281.63526
2020/8/18 20:56:06,50.463,43.433,37055.77666
2020/8/18 20:57:06,53.75,46.088,36851.54441
2020/8/18 20:58:06,57.524,48.572,36670.21388
2020/8/18 20:59:06,61.832,50.839,36512.95275
2020/8/18 21:00:06,66.709,52.84,36380.80721
2020/8/18 21:01:06,72.16,54.521,36274.68865
2020/8/18 21:02:06,78.145,55.825,36195.3619
2020/8/18 21:03:06,84.57,56.7,36143.43473
2020/8/18 21:04:06,91.28,57.107,36119.3495
2020/8/18 21:05:06,98.076,57.025,36123.37666
2020/8/18 21:06:06,104.744,56.456,36155.61087
2020/8/18 21:07:06,111.093,55.423,36215.9693
2020/8/18 21:08:06,116.984,53.969,36304.19281
2020/8/18 21:09:06,122.334,52.146,36419.84911
2020/8/18 21:10:06,127.117,50.007,36562.33882
2020/8/18 21:11:06,131.348,47.607,36730.90315
2020/8/18 21:12:06,135.063,44.994,36924.63392
2020/8/18 21:13:06,138.314,42.209,37142.48475
2020/8/18 21:14:06,141.153,39.287,37383.28386
2020/8/18 21:15:06,143.631,36.259,37645.74739
2020/8/18 21:16:06,145.795,33.148,37928.4936
2020/8/18 21:17:06,147.685,29.974,38230.05696
2020/8/18 21:18:06,149.339,26.753,38548.90242
2020/8/18 21:19:06,150.785,23.499,38883.43913
2020/8/18 21:20:06,152.05,20.222,39232.03373
2020/8/18 21:21:06,153.154,16.932,39593.02281
2020/8/18 21:22:06,154.117,13.636,39964.72457
2020/8/18 21:23:06,154.953,10.339,40345.4496
2020/8/18 21:24:06,155.674,7.046,40733.5105
2020/8/18 21:25:06,156.292,3.761,41127.23067
2020/8/18 21:26:06,156.813,0.488,41524.95206
2020/8/18 21:27:06,157.245,-2.772,41925.042
2020/8/18 21:28:06,157.594,-6.016,42325.89909
2020/8/18 21:29:06,157.862,-9.243,42725.95834
2020/8/18 21:30:06,158.052,-12.451,43123.69547
2020/8/18 21:31:06,158.166,-15.639,43517.6306
2020/8/18 21:32:06,158.204,-18.807,43906.33128
2020/8/18 21:33:06,158.164,-21.955,44288.41502
2020/8/18 21:33:59,158.062,-24.739,44622.01509
2020/8/18 22:14:52,12.295,-24.753,44602.55047
2020/8/18 22:15:52,11.872,-21.492,44210.8772
2020/8/18 22:16:52,11.502,-18.177,43806.93473
2020/8/18 22:17:52,11.182,-14.825,43394.33802
2020/8/18 22:18:52,10.908,-11.435,42974.49088
2020/8/18 22:19:52,10.677,-8.008,42548.86447
2020/8/18 22:20:52,10.487,-4.542,42118.99607
2020/8/18 22:21:52,10.335,-1.036,41686.48731
2020/8/18 22:22:52,10.22,2.51,41253.00166
2020/8/18 22:23:52,10.143,6.098,40820.26133
2020/8/18 22:24:52,10.102,9.727,40390.04316
2020/8/18 22:25:52,10.1,13.399,39964.17368
2020/8/18 22:26:52,10.138,17.114,39544.52301
2020/8/18 22:27:52,10.219,20.871,39132.99752
2020/8/18 22:28:52,10.347,24.672,38731.5312
2020/8/18 22:29:52,10.528,28.515,38342.0757
2020/8/18 22:30:52,10.769,32.399,37966.5887
2020/8/18 22:31:52,11.082,36.324,37607.021
2020/8/18 22:32:52,11.481,40.288,37265.30194
2020/8/18 22:33:52,11.986,44.289,36943.32349
2020/8/18 22:34:52,12.625,48.322,36642.923
2020/8/18 22:35:52,13.441,52.385,36365.86496
2020/8/18 22:36:52,14.495,56.471,36113.82184
2020/8/18 22:37:52,15.885,60.572,35888.35468
2020/8/18 22:38:52,17.772,64.677,35690.89351
2020/8/18 22:39:52,20.439,68.765,35522.71849
2020/8/18 22:40:52,24.426,72.803,35384.94195
2020/8/18 22:41:52,30.88,76.72,35278.49212
2020/8/18 22:42:52,42.509,80.338,35204.09907
2020/8/18 22:43:52,65.577,83.138,35162.28324
2020/8/18 22:44:52,103.673,83.852,35153.34716
2020/8/18 22:45:52,135.197,81.904,35177.37047
2020/8/18 22:46:52,151.525,78.588,35234.20868
2020/8/18 22:47:52,160.097,74.782,35323.49551
2020/8/18 22:48:52,165.153,70.786,35444.64882
2020/8/18 22:49:52,168.436,66.708,35596.87987
2020/8/18 22:50:52,170.724,62.599,35779.20556
2020/8/18 22:51:52,172.405,58.483,35990.46313
2020/8/18 22:52:52,173.691,54.374,36229.32704
2020/8/18 22:53:52,174.707,50.284,36494.32699
2020/8/18 22:54:52,175.53,46.219,36783.86719
2020/8/18 22:55:52,176.212,42.183,37096.24564
2020/8/18 22:56:52,176.789,38.18,37429.67364
2020/8/18 22:57:52,177.284,34.214,37782.29439
2020/8/18 22:58:52,177.717,30.286,38152.20105
2020/8/18 22:59:52,178.099,26.397,38537.45339
2020/8/18 23:00:52,178.443,22.548,38936.09333
2020/8/18 23:01:52,178.756,18.74,39346.15881
2020/8/18 23:02:52,179.044,14.973,39765.69638
2020/8/18 23:03:52,179.312,11.247,40192.77217
2020/8/18 23:04:52,179.565,7.561,40625.48138
2020/8/18 23:05:52,179.808,3.914,41061.95653
2020/8/18 23:06:52,180.042,0.307,41500.3743
2020/8/18 23:07:52,180.271,-3.263,41938.96125
2020/8/18 23:08:52,180.499,-6.796,42375.99854
2020/8/18 23:09:52,180.727,-10.293,42809.82565
2020/8/18 23:10:52,180.958,-13.756,43238.84328
2020/8/18 23:11:52,181.195,-17.186,43661.5157
2020/8/18 23:12:52,181.441,-20.584,44076.37228
2020/8/18 23:13:52,181.7,-23.951,44482.00874
2020/8/18 23:14:07,181.767,-24.792,44582.24526
2020/8/18 23:55:13,348.466,-24.813,44565.95193
2020/8/18 23:56:13,348.416,-21.509,44169.20482
2020/8/18 23:57:13,348.323,-18.177,43763.28829
2020/8/18 23:58:13,348.187,-14.819,43350.04613
2020/8/18 23:59:13,348.008,-11.435,42930.93427
2020/8/19 0:00:13,347.784,-8.025,42507.46759
2020/8/19 0:01:13,347.513,-4.588,42081.21774
2020/8/19 0:02:13,347.191,-1.123,41653.81039
2020/8/19 0:03:13,346.815,2.368,41226.9218
2020/8/19 0:04:13,346.379,5.886,40802.27463
2020/8/19 0:05:13,345.876,9.431,40381.63285
2020/8/19 0:06:13,345.298,13,39966.7957
2020/8/19 0:07:13,344.636,16.592,39559.59058
2020/8/19 0:08:13,343.875,20.205,39161.86476
2020/8/19 0:09:13,343.002,23.835,38775.47594
2020/8/19 0:10:13,341.996,27.479,38402.28148
2020/8/19 0:11:13,340.833,31.131,38044.12641
2020/8/19 0:12:13,339.484,34.783,37702.83018
2020/8/19 0:13:13,337.907,38.426,37380.17218
2020/8/19 0:14:13,336.055,42.049,37077.87636
2020/8/19 0:15:13,333.863,45.633,36797.59478
2020/8/19 0:16:13,331.246,49.16,36540.89083
2020/8/19 0:17:13,328.097,52.598,36309.2219
2020/8/19 0:18:13,324.276,55.911,36103.92237
2020/8/19 0:19:13,319.609,59.044,35926.18689
2020/8/19 0:20:13,313.888,61.927,35777.05487
2020/8/19 0:21:13,306.9,64.461,35657.39618
2020/8/19 0:22:13,298.489,66.526,35567.89892
2020/8/19 0:23:13,288.689,67.981,35509.05931
2020/8/19 0:24:13,277.864,68.697,35481.17448
2020/8/19 0:25:13,266.73,68.598,35484.33799
2020/8/19 0:26:13,256.13,67.699,35518.43858
2020/8/19 0:27:13,246.696,66.094,35583.16205
2020/8/19 0:28:13,238.698,63.923,35677.99623
2020/8/19 0:29:13,232.101,61.322,35802.23897
2020/8/19 0:30:13,226.728,58.407,35955.00857
2020/8/19 0:31:13,222.361,55.27,36135.25675
2020/8/19 0:32:13,218.802,51.977,36341.7832
2020/8/19 0:33:13,215.884,48.575,36573.25178
2020/8/19 0:34:13,213.479,45.102,36828.20742
2020/8/19 0:35:13,211.484,41.583,37105.09359
2020/8/19 0:36:13,209.824,38.039,37402.26981
2020/8/19 0:37:13,208.438,34.484,37718.02876
2020/8/19 0:38:13,207.28,30.931,38050.61277
2020/8/19 0:39:13,206.315,27.387,38398.22939
2020/8/19 0:40:13,205.515,23.859,38759.06588
2020/8/19 0:41:13,204.858,20.353,39131.30246
2020/8/19 0:42:13,204.327,16.874,39513.12425
2020/8/19 0:43:13,203.908,13.424,39902.73192
2020/8/19 0:44:13,203.591,10.005,40298.35104
2020/8/19 0:45:13,203.368,6.621,40698.24015
2020/8/19 0:46:13,203.234,3.272,41100.69768
2020/8/19 0:47:13,203.184,-0.041,41504.06776
2020/8/19 0:48:13,203.215,-3.316,41906.74504
2020/8/19 0:49:13,203.326,-6.553,42307.17864
2020/8/19 0:50:13,203.517,-9.75,42703.87526
2020/8/19 0:51:13,203.789,-12.908,43095.40165
2020/8/19 0:52:13,204.145,-16.025,43480.38647
2020/8/19 0:53:13,204.589,-19.101,43857.5216
2020/8/19 0:54:13,205.126,-22.134,44225.56311
2020/8/19 0:55:08,205.709,-24.896,44556.31398
2020/8/19 1:35:15,324.94,-24.823,44534.86403
2020/8/19 1:36:15,325.248,-22.071,44204.97453
2020/8/19 1:37:15,325.445,-19.29,43867.37872
2020/8/19 1:38:15,325.536,-16.492,43524.36186
2020/8/19 1:39:15,325.522,-13.68,43177.15742
2020/8/19 1:40:15,325.406,-10.855,42827.03463
2020/8/19 1:41:15,325.188,-8.022,42475.29548
2020/8/19 1:42:15,324.867,-5.184,42123.2713
2020/8/19 1:43:15,324.441,-2.344,41772.31887
2020/8/19 1:44:15,323.908,0.494,41423.81601
2020/8/19 1:45:15,323.262,3.325,41079.15662
2020/8/19 1:46:15,322.499,6.145,40739.74517
2020/8/19 1:47:15,321.611,8.947,40406.99056
2020/8/19 1:48:15,320.592,11.725,40082.29937
2020/8/19 1:49:15,319.431,14.472,39767.06855
2020/8/19 1:50:15,318.12,17.178,39462.67747
2020/8/19 1:51:15,316.646,19.835,39170.47951
2020/8/19 1:52:15,314.998,22.43,38891.79291
2020/8/19 1:53:15,313.162,24.952,38627.89163
2020/8/19 1:54:15,311.124,27.386,38379.99554
2020/8/19 1:55:15,308.872,29.716,38149.26044
2020/8/19 1:56:15,306.393,31.924,37936.76842
2020/8/19 1:57:15,303.677,33.991,37743.51783
2020/8/19 1:58:15,300.717,35.895,37570.41412
2020/8/19 1:59:15,297.514,37.616,37418.26068
2020/8/19 2:00:15,294.073,39.129,37287.75094
2020/8/19 2:01:15,290.409,40.414,37179.4609
2020/8/19 2:02:15,286.549,41.45,37093.84327
2020/8/19 2:03:15,282.53,42.219,37031.22242
2020/8/19 2:04:15,278.4,42.707,36991.79119
2020/8/19 2:05:15,274.213,42.906,36975.60888
2020/8/19 2:06:15,270.029,42.814,36982.60115
2020/8/19 2:07:15,265.908,42.434,37012.56115
2020/8/19 2:08:15,261.906,41.778,37065.15266
2020/8/19 2:09:15,258.069,40.861,37139.91433
2020/8/19 2:10:15,254.436,39.7,37236.26563
2020/8/19 2:11:15,251.032,38.32,37353.51375
2020/8/19 2:12:15,247.873,36.741,37490.86184
2020/8/19 2:13:15,244.965,34.989,37647.41784
2020/8/19 2:14:15,242.308,33.085,37822.2042
2020/8/19 2:15:15,239.895,31.052,38014.16784
2020/8/19 2:16:15,237.717,28.909,38222.19049
2020/8/19 2:17:15,235.761,26.675,38445.09903
2020/8/19 2:18:15,234.015,24.365,38681.67567
2020/8/19 2:19:15,232.464,21.995,38930.66789
2020/8/19 2:20:15,231.096,19.578,39190.79799
2020/8/19 2:21:15,229.899,17.124,39460.77212
2020/8/19 2:22:15,228.86,14.644,39739.28867
2020/8/19 2:23:15,227.971,12.147,40025.04616
2020/8/19 2:24:15,227.222,9.641,40316.75036
2020/8/19 2:25:15,226.605,7.133,40613.12073
2020/8/19 2:26:15,226.114,4.628,40912.89627
2020/8/19 2:27:15,225.742,2.133,41214.84066
2020/8/19 2:28:15,225.485,-0.348,41517.74672
2020/8/19 2:29:15,225.34,-2.809,41820.44041
2020/8/19 2:30:15,225.303,-5.248,42121.78415
2020/8/19 2:31:15,225.373,-7.658,42420.67968
2020/8/19 2:32:15,225.548,-10.038,42716.07046
2020/8/19 2:33:15,225.828,-12.383,43006.94365
2020/8/19 2:34:15,226.214,-14.69,43292.33168
2020/8/19 2:35:15,226.707,-16.954,43571.31352
2020/8/19 2:36:15,227.307,-19.173,43843.01566
2020/8/19 2:37:15,228.018,-21.342,44106.61278
2020/8/19 2:38:15,228.842,-23.457,44361.32829
2020/8/19 2:39:01,229.546,-25.025,44548.5227
2020/8/19 3:16:08,302.678,-24.827,44520.53567
2020/8/19 3:17:08,303.274,-23.051,44308.23496
2020/8/19 3:18:08,303.769,-21.236,44089.40039
2020/8/19 3:19:08,304.159,-19.402,43866.50999
2020/8/19 3:20:08,304.448,-17.553,43640.33063
2020/8/19 3:21:08,304.638,-15.693,43411.64134
2020/8/19 3:22:08,304.731,-13.827,43181.23115
2020/8/19 3:23:08,304.73,-11.959,42949.8967
2020/8/19 3:24:08,304.636,-10.093,42718.43976
2020/8/19 3:25:08,304.449,-8.233,42487.66462
2020/8/19 3:26:08,304.172,-6.385,42258.37537
2020/8/19 3:27:08,303.803,-4.552,42031.37296
2020/8/19 3:28:08,303.345,-2.739,41807.45229
2020/8/19 3:29:08,302.796,-0.951,41587.39903
2020/8/19 3:30:08,302.157,0.807,41371.98648
2020/8/19 3:31:08,301.428,2.531,41161.97225
2020/8/19 3:32:08,300.61,4.216,40958.09489
2020/8/19 3:33:08,299.701,5.855,40761.07058
2020/8/19 3:34:08,298.702,7.443,40571.58963
2020/8/19 3:35:08,297.614,8.975,40390.31316
2020/8/19 3:36:08,296.438,10.445,40217.86973
2020/8/19 3:37:08,295.174,11.847,40054.85199
2020/8/19 3:38:08,293.825,13.175,39901.81372
2020/8/19 3:39:08,292.393,14.423,39759.26671
2020/8/19 3:40:08,290.881,15.586,39627.6779
2020/8/19 3:41:08,289.293,16.657,39507.46701
2020/8/19 3:42:08,287.634,17.631,39399.00411
2020/8/19 3:43:08,285.91,18.504,39302.60759
2020/8/19 3:44:08,284.128,19.271,39218.54267
2020/8/19 3:45:08,282.295,19.927,39147.02002
2020/8/19 3:46:08,280.421,20.47,39088.19479
2020/8/19 3:47:08,278.514,20.897,39042.16629
2020/8/19 3:48:08,276.584,21.205,39008.97781
2020/8/19 3:49:08,274.643,21.395,38988.61692
2020/8/19 3:50:08,272.7,21.466,38981.01634
2020/8/19 3:51:08,270.767,21.418,38986.05504
2020/8/19 3:52:08,268.854,21.255,39003.55974
2020/8/19 3:53:08,266.97,20.977,39033.30691
2020/8/19 3:54:08,265.126,20.59,39075.025
2020/8/19 3:55:08,263.33,20.096,39128.39689
2020/8/19 3:56:08,261.59,19.501,39193.06283
2020/8/19 3:57:08,259.912,18.811,39268.62338
2020/8/19 3:58:08,258.304,18.029,39354.64265
2020/8/19 3:59:08,256.768,17.163,39450.65164
2020/8/19 4:00:00,255.499,16.348,39541.60894
