sat_11node/group2-sr2.csv

Time (UTCG),Azimuth (deg),Elevation (deg),Range (km)
2020/8/18 4:00:00,251.569,10.489,40360.48708
2020/8/18 4:01:00,250.598,9.168,40515.51058
2020/8/18 4:02:00,249.724,7.811,40676.10302
2020/8/18 4:03:00,248.948,6.423,40841.45835
2020/8/18 4:04:00,248.267,5.011,41010.77335
2020/8/18 4:05:00,247.679,3.582,41183.25182
2020/8/18 4:06:00,247.184,2.142,41358.10852
2020/8/18 4:07:00,246.779,0.696,41534.57272
2020/8/18 4:08:00,246.462,-0.75,41711.89149
2020/8/18 4:09:00,246.231,-2.192,41889.33262
2020/8/18 4:10:00,246.084,-3.625,42066.18733
2020/8/18 4:11:00,246.02,-5.044,42241.77259
2020/8/18 4:12:00,246.036,-6.445,42415.43321
2020/8/18 4:13:00,246.13,-7.823,42586.54364
2020/8/18 4:14:00,246.3,-9.175,42754.50951
2020/8/18 4:15:00,246.546,-10.498,42918.76894
2020/8/18 4:16:00,246.863,-11.787,43078.7936
2020/8/18 4:17:00,247.252,-13.039,43234.08958
2020/8/18 4:18:00,247.709,-14.252,43384.19804
2020/8/18 4:19:00,248.232,-15.421,43528.69569
2020/8/18 4:20:00,248.819,-16.545,43667.19508
2020/8/18 4:21:00,249.468,-17.62,43799.3448
2020/8/18 4:22:00,250.175,-18.644,43924.82938
2020/8/18 4:23:00,250.939,-19.614,44043.36929
2020/8/18 4:24:00,251.756,-20.528,44154.72053
2020/8/18 4:25:00,252.622,-21.385,44258.67438
2020/8/18 4:26:00,253.534,-22.182,44355.05687
2020/8/18 4:27:00,254.489,-22.917,44443.72824
2020/8/18 4:28:00,255.482,-23.59,44524.58217
2020/8/18 4:29:00,256.509,-24.199,44597.54515
2020/8/18 4:29:52,257.424,-24.675,44654.41566
2020/8/18 4:46:20,274.808,-24.875,44681.61529
2020/8/18 4:47:19,275.633,-24.44,44630.06366
2020/8/18 4:48:19,276.422,-23.965,44573.59759
2020/8/18 4:49:19,277.168,-23.458,44513.03682
2020/8/18 4:50:19,277.867,-22.92,44448.71895
2020/8/18 4:51:19,278.52,-22.356,44380.98426
2020/8/18 4:52:19,279.127,-21.767,44310.17409
2020/8/18 4:53:19,279.686,-21.158,44236.62932
2020/8/18 4:54:19,280.199,-20.53,44160.68883
2020/8/18 4:55:19,280.666,-19.887,44082.68796
2020/8/18 4:56:19,281.086,-19.232,44002.95711
2020/8/18 4:57:19,281.462,-18.566,43921.82028
2020/8/18 4:58:19,281.794,-17.894,43839.59374
2020/8/18 4:59:19,282.082,-17.216,43756.58474
2020/8/18 5:00:19,282.328,-16.535,43673.09029
2020/8/18 5:01:19,282.532,-15.854,43589.396
2020/8/18 5:02:19,282.698,-15.175,43505.77504
2020/8/18 5:03:19,282.825,-14.5,43422.4872
2020/8/18 5:04:19,282.914,-13.83,43339.77796
2020/8/18 5:05:19,282.969,-13.167,43257.8778
2020/8/18 5:06:19,282.99,-12.513,43177.00149
2020/8/18 5:07:19,282.978,-11.87,43097.3476
2020/8/18 5:08:19,282.935,-11.238,43019.09806
2020/8/18 5:09:19,282.863,-10.619,42942.41784
2020/8/18 5:10:19,282.764,-10.015,42867.4548
2020/8/18 5:11:19,282.638,-9.425,42794.33965
2020/8/18 5:12:19,282.488,-8.851,42723.18598
2020/8/18 5:13:19,282.316,-8.294,42654.09047
2020/8/18 5:14:19,282.121,-7.753,42587.13322
2020/8/18 5:15:19,281.908,-7.231,42522.37815
2020/8/18 5:16:19,281.675,-6.726,42459.87356
2020/8/18 5:17:19,281.426,-6.24,42399.65279
2020/8/18 5:18:19,281.162,-5.771,42341.73494
2020/8/18 5:19:19,280.883,-5.322,42286.12572
2020/8/18 5:20:19,280.592,-4.89,42232.81842
2020/8/18 5:21:19,280.289,-4.477,42181.79487
2020/8/18 5:22:19,279.975,-4.082,42133.02653
2020/8/18 5:23:19,279.652,-3.704,42086.47567
2020/8/18 5:24:19,279.32,-3.344,42042.09643
2020/8/18 5:25:19,278.981,-3,41999.83621
2020/8/18 5:26:19,278.635,-2.674,41959.63679
2020/8/18 5:27:19,278.283,-2.363,41921.43566
2020/8/18 5:28:19,277.925,-2.067,41885.16724
2020/8/18 5:29:19,277.562,-1.787,41850.7642
2020/8/18 5:30:19,277.195,-1.52,41818.15866
2020/8/18 5:31:19,276.824,-1.268,41787.28345
2020/8/18 5:32:19,276.448,-1.029,41758.07328
2020/8/18 5:33:19,276.069,-0.803,41730.46586
2020/8/18 5:34:19,275.686,-0.59,41704.40303
2020/8/18 5:35:19,275.3,-0.388,41679.83174
2020/8/18 5:36:19,274.91,-0.199,41656.70504
2020/8/18 5:37:19,274.516,-0.02,41634.98293
2020/8/18 5:38:19,274.119,0.147,41614.63312
2020/8/18 5:39:19,273.717,0.304,41595.63178
2020/8/18 5:40:19,273.31,0.449,41577.9641
2020/8/18 5:41:19,272.9,0.584,41561.62477
2020/8/18 5:42:19,272.484,0.708,41546.61841
2020/8/18 5:43:19,272.063,0.821,41532.9598
2020/8/18 5:44:19,271.636,0.922,41520.67407
2020/8/18 5:45:19,271.204,1.013,41509.79673
2020/8/18 5:46:19,270.765,1.091,41500.37363
2020/8/18 5:47:19,270.32,1.157,41492.46072
2020/8/18 5:48:19,269.869,1.21,41486.12381
2020/8/18 5:49:19,269.411,1.249,41481.43808
2020/8/18 5:50:19,268.947,1.274,41478.48761
2020/8/18 5:51:19,268.475,1.284,41477.3647
2020/8/18 5:52:19,267.998,1.279,41478.16912
2020/8/18 5:53:19,267.513,1.256,41481.00728
2020/8/18 5:54:19,267.022,1.216,41485.99123
2020/8/18 5:55:19,266.526,1.158,41493.23765
2020/8/18 5:56:19,266.024,1.08,41502.86672
2020/8/18 5:57:19,265.517,0.981,41515.00087
2020/8/18 5:58:19,265.006,0.861,41529.76357
2020/8/18 5:59:19,264.491,0.718,41547.27797
2020/8/18 6:00:19,263.974,0.552,41567.66549
2020/8/18 6:01:19,263.456,0.361,41591.0444
2020/8/18 6:02:19,262.937,0.145,41617.52842
2020/8/18 6:03:19,262.419,-0.097,41647.22524
2020/8/18 6:04:19,261.904,-0.366,41680.23502
2020/8/18 6:05:19,261.392,-0.663,41716.649
2020/8/18 6:06:19,260.885,-0.987,41756.548
2020/8/18 6:07:19,260.386,-1.341,41800.00111
2020/8/18 6:08:19,259.895,-1.723,41847.06427
2020/8/18 6:09:19,259.414,-2.135,41897.77911
2020/8/18 6:10:19,258.946,-2.576,41952.17159
2020/8/18 6:11:19,258.492,-3.047,42010.25098
2020/8/18 6:12:19,258.054,-3.547,42072.00884
2020/8/18 6:13:19,257.634,-4.077,42137.41807
2020/8/18 6:14:19,257.235,-4.635,42206.43214
2020/8/18 6:15:19,256.857,-5.221,42278.98442
2020/8/18 6:16:19,256.504,-5.834,42354.9876
2020/8/18 6:17:19,256.178,-6.474,42434.33333
2020/8/18 6:18:19,255.88,-7.14,42516.89197
2020/8/18 6:19:19,255.612,-7.829,42602.51239
2020/8/18 6:20:19,255.377,-8.542,42691.02207
2020/8/18 6:21:19,255.176,-9.277,42782.22722
2020/8/18 6:22:19,255.011,-10.031,42875.91312
2020/8/18 6:23:19,254.885,-10.804,42971.84456
2020/8/18 6:24:19,254.8,-11.593,43069.76645
2020/8/18 6:25:19,254.756,-12.396,43169.40451
2020/8/18 6:26:19,254.756,-13.212,43270.46612
2020/8/18 6:27:19,254.802,-14.037,43372.64132
2020/8/18 6:28:19,254.895,-14.87,43475.60383
2020/8/18 6:29:19,255.037,-15.707,43579.0123
2020/8/18 6:30:19,255.229,-16.547,43682.51153
2020/8/18 6:31:19,255.473,-17.387,43785.73385
2020/8/18 6:32:19,255.771,-18.223,43888.30056
2020/8/18 6:33:19,256.123,-19.052,43989.82343
2020/8/18 6:34:19,256.53,-19.872,44089.90626
2020/8/18 6:35:19,256.994,-20.679,44188.14653
2020/8/18 6:36:19,257.515,-21.471,44284.13697
2020/8/18 6:37:19,258.093,-22.243,44377.46734
2020/8/18 6:38:19,258.73,-22.992,44467.72607
2020/8/18 6:39:19,259.425,-23.715,44554.50199
2020/8/18 6:40:19,260.178,-24.408,44637.38612
2020/8/18 6:40:44,260.508,-24.686,44670.59364
2020/8/18 7:03:09,286.864,-25.035,44712.40654
2020/8/18 7:04:08,287.955,-24.228,44616.17354
2020/8/18 7:05:08,289.005,-23.344,44510.31941
2020/8/18 7:06:08,290.001,-22.392,44395.88235
2020/8/18 7:07:08,290.937,-21.376,44273.07351
2020/8/18 7:08:08,291.812,-20.297,44142.14232
2020/8/18 7:09:08,292.621,-19.159,44003.37683
2020/8/18 7:10:08,293.362,-17.963,43857.10414
2020/8/18 7:11:08,294.033,-16.714,43703.69065
2020/8/18 7:12:08,294.631,-15.414,43543.54213
2020/8/18 7:13:08,295.155,-14.066,43377.10371
2020/8/18 7:14:08,295.601,-12.675,43204.85968
2020/8/18 7:15:08,295.969,-11.243,43027.33315
2020/8/18 7:16:08,296.256,-9.774,42845.08554
2020/8/18 7:17:08,296.462,-8.273,42658.71581
2020/8/18 7:18:08,296.583,-6.743,42468.8596
2020/8/18 7:19:08,296.618,-5.188,42276.18793
2020/8/18 7:20:08,296.565,-3.612,42081.40585
2020/8/18 7:21:08,296.422,-2.021,41885.25071
2020/8/18 7:22:08,296.187,-0.419,41688.49014
2020/8/18 7:23:08,295.858,1.188,41491.91977
2020/8/18 7:24:08,295.433,2.796,41296.36056
2020/8/18 7:25:08,294.908,4.399,41102.65585
2020/8/18 7:26:08,294.282,5.99,40911.66798
2020/8/18 7:27:08,293.553,7.563,40724.2746
2020/8/18 7:28:08,292.717,9.111,40541.36463
2020/8/18 7:29:08,291.773,10.628,40363.83379
2020/8/18 7:30:08,290.719,12.104,40192.57981
2020/8/18 7:31:08,289.553,13.532,40028.49731
2020/8/18 7:32:08,288.275,14.904,39872.4723
2020/8/18 7:33:08,286.883,16.211,39725.37654
2020/8/18 7:34:08,285.38,17.443,39588.06145
2020/8/18 7:35:08,283.766,18.591,39461.35198
2020/8/18 7:36:08,282.044,19.646,39346.04034
2020/8/18 7:37:08,280.22,20.599,39242.87961
2020/8/18 7:38:08,278.298,21.44,39152.57739
2020/8/18 7:39:08,276.288,22.16,39075.78973
2020/8/18 7:40:08,274.198,22.752,39013.11489
2020/8/18 7:41:08,272.04,23.208,38965.08779
2020/8/18 7:42:08,269.827,23.521,38932.17471
2020/8/18 7:43:08,267.574,23.687,38914.76833
2020/8/18 7:44:08,265.295,23.701,38913.18361
2020/8/18 7:45:08,263.008,23.562,38927.6541
2020/8/18 7:46:08,260.728,23.268,38958.32916
2020/8/18 7:47:08,258.47,22.821,39005.27173
2020/8/18 7:48:08,256.252,22.223,39068.45722
2020/8/18 7:49:08,254.087,21.477,39147.77287
2020/8/18 7:50:08,251.987,20.589,39243.01835
2020/8/18 7:51:08,249.964,19.564,39353.90675
2020/8/18 7:52:08,248.028,18.41,39480.0668
2020/8/18 7:53:08,246.187,17.134,39621.04546
2020/8/18 7:54:08,244.446,15.744,39776.31142
2020/8/18 7:55:08,242.811,14.249,39945.25925
2020/8/18 7:56:08,241.284,12.657,40127.21377
2020/8/18 7:57:08,239.868,10.977,40321.43521
2020/8/18 7:58:08,238.563,9.218,40527.12463
2020/8/18 7:59:08,237.371,7.387,40743.42942
2020/8/18 8:00:08,236.29,5.492,40969.44921
2020/8/18 8:01:08,235.321,3.542,41204.2418
2020/8/18 8:02:08,234.462,1.542,41446.82907
2020/8/18 8:03:08,233.712,-0.498,41696.20283
2020/8/18 8:04:08,233.071,-2.574,41951.33067
2020/8/18 8:05:08,232.539,-4.679,42211.16152
2020/8/18 8:06:08,232.114,-6.806,42474.63113
2020/8/18 8:07:08,231.797,-8.95,42740.66719
2020/8/18 8:08:08,231.588,-11.106,43008.19427
2020/8/18 8:09:08,231.488,-13.268,43276.13851
2020/8/18 8:10:08,231.498,-15.431,43543.43191
2020/8/18 8:11:08,231.621,-17.59,43809.01647
2020/8/18 8:12:08,231.859,-19.74,44071.84795
2020/8/18 8:13:08,232.215,-21.875,44330.89934
2020/8/18 8:14:08,232.694,-23.991,44585.16416
2020/8/18 8:14:31,232.91,-24.793,44680.83217
2020/8/18 8:51:24,316.769,-24.872,44686.1333
2020/8/18 8:52:24,317.664,-22.45,44395.91285
2020/8/18 8:53:24,318.434,-19.959,44094.09462
2020/8/18 8:54:24,319.082,-17.413,43782.72624
2020/8/18 8:55:24,319.612,-14.816,43462.83537
2020/8/18 8:56:24,320.026,-12.171,43135.51085
2020/8/18 8:57:24,320.328,-9.483,42801.9019
2020/8/18 8:58:24,320.516,-6.754,42463.2169
2020/8/18 8:59:24,320.593,-3.989,42120.72174
2020/8/18 9:00:24,320.556,-1.19,41775.73772
2020/8/18 9:01:24,320.403,1.639,41429.6389
2020/8/18 9:02:24,320.13,4.493,41083.84879
2020/8/18 9:03:24,319.732,7.368,40739.83645
2020/8/18 9:04:24,319.203,10.259,40399.11171
2020/8/18 9:05:24,318.534,13.16,40063.21968
2020/8/18 9:06:24,317.714,16.065,39733.73425
2020/8/18 9:07:24,316.731,18.965,39412.25072
2020/8/18 9:08:24,315.571,21.853,39100.37738
2020/8/18 9:09:24,314.215,24.717,38799.72618
2020/8/18 9:10:24,312.645,27.545,38511.9022
2020/8/18 9:11:24,310.837,30.322,38238.49232
2020/8/18 9:12:24,308.766,33.032,37981.05298
2020/8/18 9:13:24,306.405,35.654,37741.09693
2020/8/18 9:14:24,303.724,38.164,37520.07964
2020/8/18 9:15:24,300.694,40.535,37319.38498
2020/8/18 9:16:24,297.291,42.736,37140.31092
2020/8/18 9:17:24,293.495,44.732,36984.05505
2020/8/18 9:18:24,289.301,46.486,36851.70075
2020/8/18 9:19:24,284.719,47.958,36744.20382
2020/8/18 9:20:24,279.787,49.109,36662.38035
2020/8/18 9:21:24,274.569,49.906,36606.8958
2020/8/18 9:22:24,269.156,50.322,36578.25601
2020/8/18 9:23:24,263.661,50.34,36576.7999
2020/8/18 9:24:24,258.205,49.958,36602.69466
2020/8/18 9:25:24,252.906,49.186,36655.93298
2020/8/18 9:26:24,247.862,48.046,36736.33306
2020/8/18 9:27:24,243.144,46.57,36843.54065
2020/8/18 9:28:24,238.797,44.793,36977.0338
2020/8/18 9:29:24,234.837,42.754,37136.12942
2020/8/18 9:30:24,231.262,40.49,37319.99218
2020/8/18 9:31:24,228.057,38.035,37527.64469
2020/8/18 9:32:24,225.197,35.423,37757.97942
2020/8/18 9:33:24,222.653,32.68,38009.77129
2020/8/18 9:34:24,220.397,29.83,38281.69131
2020/8/18 9:35:24,218.399,26.896,38572.32028
2020/8/18 9:36:24,216.634,23.893,38880.16282
2020/8/18 9:37:24,215.077,20.838,39203.661
2020/8/18 9:38:24,213.706,17.742,39541.20773
2020/8/18 9:39:24,212.505,14.617,39891.15938
2020/8/18 9:40:24,211.455,11.471,40251.84775
2020/8/18 9:41:24,210.545,8.312,40621.59125
2020/8/18 9:42:24,209.762,5.147,40998.70491
2020/8/18 9:43:24,209.097,1.979,41381.50975
2020/8/18 9:44:24,208.542,-1.185,41768.34102
2020/8/18 9:45:24,208.09,-4.343,42157.55553
2020/8/18 9:46:24,207.738,-7.492,42547.53819
2020/8/18 9:47:24,207.482,-10.628,42936.70758
2020/8/18 9:48:24,207.32,-13.75,43323.52082
2020/8/18 9:49:24,207.251,-16.855,43706.4778
2020/8/18 9:50:24,207.277,-19.942,44084.12462
2020/8/18 9:51:24,207.4,-23.009,44455.05657
2020/8/18 9:52:00,207.524,-24.858,44676.08178
2020/8/18 10:31:54,342.744,-24.748,44654.56641
2020/8/18 10:32:53,343.263,-21.533,44268.48805
2020/8/18 10:33:53,343.713,-18.241,43867.53817
2020/8/18 10:34:53,344.092,-14.908,43457.46141
2020/8/18 10:35:53,344.406,-11.534,43039.69243
2020/8/18 10:36:53,344.659,-8.119,42615.7379
2020/8/18 10:37:53,344.853,-4.662,42187.17524
2020/8/18 10:38:53,344.99,-1.163,41755.65084
2020/8/18 10:39:53,345.07,2.377,41322.87749
2020/8/18 10:40:53,345.094,5.961,40890.63111
2020/8/18 10:41:53,345.059,9.587,40460.7465
2020/8/18 10:42:53,344.962,13.256,40035.11209
2020/8/18 10:43:53,344.8,16.968,39615.66347
2020/8/18 10:44:53,344.566,20.721,39204.37565
2020/8/18 10:45:53,344.251,24.516,38803.25385
2020/8/18 10:46:53,343.846,28.351,38414.3228
2020/8/18 10:47:53,343.334,32.223,38039.61442
2020/8/18 10:48:53,342.696,36.13,37681.15386
2020/8/18 10:49:53,341.905,40.069,37340.94396
2020/8/18 10:50:53,340.925,44.033,37020.94811
2020/8/18 10:51:53,339.704,48.016,36723.07182
2020/8/18 10:52:53,338.169,52.007,36449.14306
2020/8/18 10:53:53,336.213,55.994,36200.8918
2020/8/18 10:54:53,333.676,59.956,35979.92917
2020/8/18 10:55:53,330.305,63.862,35787.72666
2020/8/18 10:56:53,325.692,67.661,35625.59594
2020/8/18 10:57:53,319.166,71.267,35494.66989
2020/8/18 10:58:53,309.634,74.521,35395.88554
2020/8/18 10:59:53,295.589,77.131,35329.9693
2020/8/18 11:00:53,276.215,78.629,35297.42528
2020/8/18 11:01:53,254.267,78.559,35298.5269
2020/8/18 11:02:53,235.278,76.944,35333.31238
2020/8/18 11:03:53,221.633,74.257,35401.58398
2020/8/18 11:04:53,212.366,70.953,35502.91133
2020/8/18 11:05:53,205.986,67.311,35636.63845
2020/8/18 11:06:53,201.441,63.48,35801.89436
2020/8/18 11:07:53,198.085,59.545,35997.60678
2020/8/18 11:08:53,195.526,55.552,36222.51835
2020/8/18 11:09:53,193.52,51.533,36475.20496
2020/8/18 11:10:53,191.912,47.506,36754.09544
2020/8/18 11:11:53,190.598,43.486,37057.49201
2020/8/18 11:12:53,189.505,39.481,37383.59103
2020/8/18 11:13:53,188.584,35.499,37730.50344
2020/8/18 11:14:53,187.797,31.545,38096.27455
2020/8/18 11:15:53,187.117,27.622,38478.9027
2020/8/18 11:16:53,186.525,23.733,38876.35672
2020/8/18 11:17:53,186.002,19.88,39286.59183
2020/8/18 11:18:53,185.539,16.064,39707.56403
2020/8/18 11:19:53,185.124,12.286,40137.24282
2020/8/18 11:20:53,184.749,8.545,40573.62235
2020/8/18 11:21:53,184.408,4.843,41014.73105
2020/8/18 11:22:53,184.095,1.178,41458.63981
2020/8/18 11:23:53,183.806,-2.451,41903.46879
2020/8/18 11:24:53,183.538,-6.043,42347.39314
2020/8/18 11:25:53,183.285,-9.601,42788.64751
2020/8/18 11:26:53,183.045,-13.124,43225.52972
2020/8/18 11:27:53,182.816,-16.616,43656.40357
2020/8/18 11:28:53,182.595,-20.075,44079.70094
2020/8/18 11:29:53,182.378,-23.505,44493.92334
2020/8/18 11:30:17,182.292,-24.88,44658.02429
2020/8/18 12:10:47,8.087,-24.695,44625.07892
2020/8/18 12:11:47,8.209,-21.326,44220.20619
2020/8/18 12:12:47,8.361,-17.903,43802.90473
2020/8/18 12:13:47,8.544,-14.452,43377.88605
2020/8/18 12:14:47,8.758,-10.972,42946.69594
2020/8/18 12:15:47,9.006,-7.463,42510.94588
2020/8/18 12:16:47,9.292,-3.922,42072.31079
2020/8/18 12:17:47,9.619,-0.351,41632.52613
2020/8/18 12:18:47,9.99,3.252,41193.38428
2020/8/18 12:19:47,10.413,6.886,40756.7299
2020/8/18 12:20:47,10.893,10.551,40324.45439
2020/8/18 12:21:47,11.44,14.247,39898.48917
2020/8/18 12:22:47,12.062,17.971,39480.79767
2020/8/18 12:23:47,12.774,21.723,39073.36603
2020/8/18 12:24:47,13.591,25.5,38678.19236
2020/8/18 12:25:47,14.533,29.298,38297.27442
2020/8/18 12:26:47,15.627,33.112,37932.59596
2020/8/18 12:27:47,16.905,36.936,37586.11145
2020/8/18 12:28:47,18.41,40.76,37259.72948
2020/8/18 12:29:47,20.2,44.574,36955.29498
2020/8/18 12:30:47,22.351,48.361,36674.57045
2020/8/18 12:31:47,24.968,52.1,36419.2165
2020/8/18 12:32:47,28.192,55.761,36190.77224
2020/8/18 12:33:47,32.219,59.302,35990.63574
2020/8/18 12:34:47,37.313,62.661,35820.04536
2020/8/18 12:35:47,43.819,65.746,35680.06226
2020/8/18 12:36:47,52.127,68.429,35571.55483
2020/8/18 12:37:47,62.541,70.528,35495.18545
2020/8/18 12:38:47,74.969,71.835,35451.40019
2020/8/18 12:39:47,88.569,72.168,35440.42174
2020/8/18 12:40:47,101.88,71.478,35462.24584
2020/8/18 12:41:47,113.604,69.873,35516.64154
2020/8/18 12:42:47,123.198,67.558,35603.15501
2020/8/18 12:43:47,130.761,64.736,35721.11698
2020/8/18 12:44:47,136.654,61.571,35869.65345
2020/8/18 12:45:47,141.26,58.176,36047.69922
2020/8/18 12:46:47,144.894,54.63,36254.01385
2020/8/18 12:47:47,147.792,50.988,36487.19942
2020/8/18 12:48:47,150.127,47.286,36745.71963
2020/8/18 12:49:47,152.026,43.552,37027.91947
2020/8/18 12:50:47,153.582,39.803,37332.04528
2020/8/18 12:51:47,154.861,36.054,37656.26435
2020/8/18 12:52:47,155.915,32.316,37998.6839
2020/8/18 12:53:47,156.782,28.597,38357.36909
2020/8/18 12:54:47,157.491,24.902,38730.35975
2020/8/18 12:55:47,158.065,21.236,39115.68564
2020/8/18 12:56:47,158.52,17.602,39511.38034
2020/8/18 12:57:47,158.869,14.004,39915.49343
2020/8/18 12:58:47,159.124,10.442,40326.10131
2020/8/18 12:59:47,159.29,6.92,40741.3164
2020/8/18 13:00:47,159.375,3.437,41159.2951
2020/8/18 13:01:47,159.381,-0.006,41578.2443
2020/8/18 13:02:47,159.31,-3.408,41996.42693
2020/8/18 13:03:47,159.164,-6.768,42412.16629
2020/8/18 13:04:47,158.942,-10.086,42823.84959
2020/8/18 13:05:47,158.641,-13.363,43229.93058
2020/8/18 13:06:47,158.26,-16.596,43628.93165
2020/8/18 13:07:47,157.794,-19.787,44019.44517
2020/8/18 13:08:47,157.236,-22.933,44400.13447
2020/8/18 13:09:24,156.846,-24.838,44627.88764
2020/8/18 13:48:55,33.336,-24.685,44598.40098
2020/8/18 13:49:55,33.074,-21.812,44253.55031
2020/8/18 13:50:55,32.923,-18.906,43900.17561
2020/8/18 13:51:55,32.882,-15.983,43541.21858
2020/8/18 13:52:55,32.946,-13.044,43178.03947
2020/8/18 13:53:55,33.115,-10.094,42812.03988
2020/8/18 13:54:55,33.39,-7.136,42444.6593
2020/8/18 13:55:55,33.771,-4.171,42077.37114
2020/8/18 13:56:55,34.262,-1.206,41711.67809
2020/8/18 13:57:55,34.866,1.757,41349.10687
2020/8/18 13:58:55,35.59,4.712,40991.20234
2020/8/18 13:59:55,36.439,7.654,40639.52075
2020/8/18 14:00:55,37.423,10.576,40295.62232
2020/8/18 14:01:55,38.55,13.471,39961.06306
2020/8/18 14:02:55,39.833,16.33,39637.38575
2020/8/18 14:03:55,41.283,19.143,39326.11026
2020/8/18 14:04:55,42.915,21.898,39028.72312
2020/8/18 14:05:55,44.744,24.583,38746.66658
2020/8/18 14:06:55,46.786,27.182,38481.32708
2020/8/18 14:07:55,49.058,29.677,38234.02356
2020/8/18 14:08:55,51.574,32.05,38005.99534
2020/8/18 14:09:55,54.351,34.279,37798.39047
2020/8/18 14:10:55,57.397,36.34,37612.25387
2020/8/18 14:11:55,60.717,38.208,37448.51656
2020/8/18 14:12:55,64.308,39.858,37307.98522
2020/8/18 14:13:55,68.155,41.262,37191.33323
2020/8/18 14:14:55,72.231,42.397,37099.09269
2020/8/18 14:15:55,76.496,43.241,37031.64838
2020/8/18 14:16:55,80.893,43.777,36989.23304
2020/8/18 14:17:55,85.359,43.995,36971.92497
2020/8/18 14:18:55,89.821,43.892,36979.64726
2020/8/18 14:19:55,94.208,43.472,37012.16933
2020/8/18 14:20:55,98.456,42.747,37069.11013
2020/8/18 14:21:55,102.508,41.737,37149.94364
2020/8/18 14:22:55,106.324,40.465,37254.00562
2020/8/18 14:23:55,109.875,38.956,37380.50242
2020/8/18 14:24:55,113.146,37.237,37528.52057
2020/8/18 14:25:55,116.133,35.337,37697.03792
2020/8/18 14:26:55,118.841,33.28,37884.93515
2020/8/18 14:27:55,121.28,31.092,38091.0081
2020/8/18 14:28:55,123.463,28.793,38313.98008
2020/8/18 14:29:55,125.406,26.405,38552.51441
2020/8/18 14:30:55,127.125,23.945,38805.22658
2020/8/18 14:31:55,128.636,21.428,39070.69612
2020/8/18 14:32:55,129.955,18.869,39347.47785
2020/8/18 14:33:55,131.094,16.278,39634.11245
2020/8/18 14:34:55,132.066,13.667,39929.13636
2020/8/18 14:35:55,132.883,11.046,40231.0908
2020/8/18 14:36:55,133.555,8.421,40538.52991
2020/8/18 14:37:55,134.088,5.8,40850.02819
2020/8/18 14:38:55,134.491,3.19,41164.18692
2020/8/18 14:39:55,134.768,0.596,41479.63996
2020/8/18 14:40:55,134.925,-1.977,41795.05868
2020/8/18 14:41:55,134.965,-4.523,42109.15621
2020/8/18 14:42:55,134.89,-7.039,42420.69108
2020/8/18 14:43:55,134.701,-9.52,42728.47022
2020/8/18 14:44:55,134.399,-11.962,43031.35142
2020/8/18 14:45:55,133.984,-14.361,43328.24539
2020/8/18 14:46:55,133.454,-16.713,43618.11725
2020/8/18 14:47:55,132.809,-19.014,43899.98786
2020/8/18 14:48:55,132.045,-21.259,44172.93459
2020/8/18 14:49:55,131.159,-23.443,44436.09199
2020/8/18 14:50:31,130.566,-24.729,44589.62235
2020/8/18 15:26:05,58.951,-24.718,44579.36927
2020/8/18 15:27:04,58.371,-22.932,44365.3709
2020/8/18 15:28:04,57.897,-21.092,44143.10351
2020/8/18 15:29:04,57.535,-19.235,43917.02245
2020/8/18 15:30:04,57.284,-17.365,43688.01866
2020/8/18 15:31:04,57.14,-15.489,43456.99547
2020/8/18 15:32:04,57.101,-13.612,43224.86537
2020/8/18 15:33:04,57.164,-11.738,42992.54669
2020/8/18 15:34:04,57.328,-9.872,42760.96007
2020/8/18 15:35:04,57.591,-8.021,42531.02467
2020/8/18 15:36:04,57.952,-6.189,42303.65427
2020/8/18 15:37:04,58.41,-4.381,42079.75321
2020/8/18 15:38:04,58.965,-2.604,41860.21214
2020/8/18 15:39:04,59.615,-0.863,41645.90367
2020/8/18 15:40:04,60.359,0.837,41437.67794
2020/8/18 15:41:04,61.197,2.489,41236.35808
2020/8/18 15:42:04,62.127,4.088,41042.73572
2020/8/18 15:43:04,63.148,5.626,40857.56643
2020/8/18 15:44:04,64.259,7.099,40681.56535
2020/8/18 15:45:04,65.457,8.5,40515.40275
2020/8/18 15:46:04,66.74,9.823,40359.70001
2020/8/18 15:47:04,68.104,11.061,40215.02568
2020/8/18 15:48:04,69.544,12.209,40081.89177
2020/8/18 15:49:04,71.057,13.261,39960.75061
2020/8/18 15:50:04,72.635,14.212,39851.99195
2020/8/18 15:51:04,74.272,15.058,39755.94044
2020/8/18 15:52:04,75.961,15.793,39672.85386
2020/8/18 15:53:04,77.693,16.415,39602.92171
2020/8/18 15:54:04,79.459,16.92,39546.26424
2020/8/18 15:55:04,81.248,17.308,39502.93245
2020/8/18 15:56:04,83.051,17.577,39472.90833
2020/8/18 15:57:04,84.857,17.726,39456.10571
2020/8/18 15:58:04,86.656,17.758,39452.37198
2020/8/18 15:59:04,88.436,17.673,39461.49006
2020/8/18 16:00:04,90.189,17.475,39483.18092
2020/8/18 16:01:04,91.903,17.166,39517.10682
2020/8/18 16:02:04,93.572,16.753,39562.87473
2020/8/18 16:03:04,95.186,16.239,39620.04011
2020/8/18 16:04:04,96.738,15.63,39688.11128
2020/8/18 16:05:04,98.223,14.933,39766.55377
2020/8/18 16:06:04,99.636,14.153,39854.79486
2020/8/18 16:07:04,100.971,13.297,39952.22849
2020/8/18 16:08:04,102.227,12.372,40058.22
2020/8/18 16:09:04,103.399,11.385,40172.11094
2020/8/18 16:10:04,104.488,10.343,40293.22385
2020/8/18 16:11:04,105.492,9.252,40420.86699
2020/8/18 16:12:04,106.41,8.118,40554.33885
2020/8/18 16:13:04,107.242,6.948,40692.93255
2020/8/18 16:14:04,107.989,5.749,40835.93998
2020/8/18 16:15:04,108.653,4.526,40982.65579
2020/8/18 16:16:04,109.233,3.284,41132.38108
2020/8/18 16:17:04,109.731,2.03,41284.42685
2020/8/18 16:18:04,110.149,0.768,41438.11715
2020/8/18 16:19:04,110.488,-0.497,41592.79206
2020/8/18 16:20:04,110.75,-1.761,41747.81024
2020/8/18 16:21:04,110.937,-3.018,41902.55138
2020/8/18 16:22:04,111.05,-4.265,42056.41826
2020/8/18 16:23:04,111.092,-5.498,42208.83862
2020/8/18 16:24:04,111.064,-6.712,42359.26679
2020/8/18 16:25:04,110.968,-7.905,42507.18502
2020/8/18 16:26:04,110.807,-9.074,42652.10471
2020/8/18 16:27:04,110.581,-10.214,42793.56727
2020/8/18 16:28:04,110.294,-11.324,42931.14491
2020/8/18 16:29:04,109.948,-12.4,43064.44124
2020/8/18 16:30:04,109.544,-13.439,43193.09159
2020/8/18 16:31:04,109.085,-14.44,43316.76325
2020/8/18 16:32:04,108.574,-15.399,43435.15562
2020/8/18 16:33:04,108.013,-16.316,43548.00001
2020/8/18 16:34:04,107.405,-17.187,43655.05959
2020/8/18 16:35:04,106.752,-18.012,43756.129
2020/8/18 16:36:04,106.058,-18.789,43851.03396
2020/8/18 16:37:04,105.325,-19.515,43939.63073
2020/8/18 16:38:04,104.558,-20.191,44021.80541
2020/8/18 16:39:04,103.759,-20.815,44097.47341
2020/8/18 16:40:04,102.931,-21.386,44166.57849
2020/8/18 16:41:04,102.079,-21.905,44229.09197
2020/8/18 16:42:04,101.207,-22.369,44285.01179
2020/8/18 16:43:04,100.317,-22.781,44334.36142
2020/8/18 16:44:04,99.414,-23.138,44377.18894
2020/8/18 16:45:04,98.501,-23.443,44413.56578
2020/8/18 16:46:04,97.583,-23.695,44443.58562
2020/8/18 16:47:04,96.663,-23.895,44467.36317
2020/8/18 16:48:04,95.745,-24.044,44485.03282
2020/8/18 16:49:04,94.832,-24.144,44496.74742
2020/8/18 16:50:04,93.929,-24.195,44502.67694
2020/8/18 16:51:04,93.037,-24.2,44503.00702
2020/8/18 16:52:04,92.16,-24.159,44497.93766
2020/8/18 16:53:04,91.302,-24.075,44487.68173
2020/8/18 16:54:04,90.464,-23.949,44472.46351
2020/8/18 16:55:04,89.65,-23.784,44452.51734
2020/8/18 16:56:04,88.86,-23.581,44428.08607
2020/8/18 16:57:04,88.098,-23.344,44399.41961
2020/8/18 16:58:04,87.365,-23.074,44366.77347
2020/8/18 16:59:04,86.661,-22.773,44330.40733
2020/8/18 17:00:04,85.989,-22.443,44290.58355
2020/8/18 17:01:04,85.349,-22.088,44247.56579
2020/8/18 17:02:04,84.742,-21.709,44201.61758
2020/8/18 17:03:04,84.169,-21.309,44153.001
2020/8/18 17:04:04,83.629,-20.889,44101.97532
2020/8/18 17:05:04,83.122,-20.452,44048.79576
2020/8/18 17:06:04,82.649,-20.001,43993.71222
2020/8/18 17:07:04,82.21,-19.536,43936.96818
2020/8/18 17:08:04,81.803,-19.06,43878.79954
2020/8/18 17:09:04,81.428,-18.576,43819.43364
2020/8/18 17:10:04,81.085,-18.084,43759.08831
2020/8/18 17:11:04,80.772,-17.586,43697.97099
2020/8/18 17:12:04,80.49,-17.085,43636.278
2020/8/18 17:13:04,80.236,-16.581,43574.19382
2020/8/18 17:14:04,80.011,-16.076,43511.89055
2020/8/18 17:15:04,79.812,-15.57,43449.52743
2020/8/18 17:16:04,79.639,-15.067,43387.25048
2020/8/18 17:17:04,79.491,-14.565,43325.19225
2020/8/18 17:18:04,79.366,-14.066,43263.47167
2020/8/18 17:19:04,79.264,-13.572,43202.19399
2020/8/18 17:20:04,79.184,-13.082,43141.45095
2020/8/18 17:21:04,79.123,-12.597,43081.32084
2020/8/18 17:22:04,79.082,-12.118,43021.8689
2020/8/18 17:23:04,79.059,-11.645,42963.14769
2020/8/18 17:24:04,79.053,-11.178,42905.19758
2020/8/18 17:25:04,79.063,-10.719,42848.04737
2020/8/18 17:26:04,79.088,-10.265,42791.71498
2020/8/18 17:27:04,79.128,-9.819,42736.2082
2020/8/18 17:28:04,79.181,-9.379,42681.52561
2020/8/18 17:29:04,79.248,-8.946,42627.65746
2020/8/18 17:30:04,79.326,-8.519,42574.58666
2020/8/18 17:31:04,79.416,-8.098,42522.28985
2020/8/18 17:32:04,79.518,-7.683,42470.73852
2020/8/18 17:33:04,79.63,-7.274,42419.90006
2020/8/18 17:34:04,79.753,-6.871,42369.739
2020/8/18 17:35:04,79.886,-6.472,42320.21815
2020/8/18 17:36:04,80.03,-6.078,42271.2998
2020/8/18 17:37:04,80.183,-5.689,42222.94687
2020/8/18 17:38:04,80.347,-5.303,42175.12412
2020/8/18 17:39:04,80.521,-4.922,42127.79932
2020/8/18 17:40:04,80.705,-4.544,42080.94431
2020/8/18 17:41:04,80.901,-4.169,42034.53613
2020/8/18 17:42:04,81.107,-3.798,41988.55807
2020/8/18 17:43:04,81.325,-3.43,41943.00059
2020/8/18 17:44:04,81.555,-3.065,41897.86232
2020/8/18 17:45:04,81.797,-2.704,41853.15082
2020/8/18 17:46:04,82.053,-2.345,41808.88343
2020/8/18 17:47:04,82.322,-1.991,41765.08788
2020/8/18 17:48:04,82.606,-1.64,41721.80292
2020/8/18 17:49:04,82.904,-1.293,41679.07878
2020/8/18 17:50:04,83.218,-0.951,41636.97759
2020/8/18 17:51:04,83.548,-0.615,41595.57362
2020/8/18 17:52:04,83.895,-0.285,41554.95346
2020/8/18 17:53:04,84.26,0.039,41515.21609
2020/8/18 17:54:04,84.642,0.354,41476.47274
2020/8/18 17:55:04,85.043,0.661,41438.84677
2020/8/18 17:56:04,85.464,0.958,41402.4733
2020/8/18 17:57:04,85.903,1.243,41367.49878
2020/8/18 17:58:04,86.362,1.517,41334.08041
2020/8/18 17:59:04,86.841,1.776,41302.38546
2020/8/18 18:00:04,87.34,2.02,41272.59045
2020/8/18 18:01:04,87.859,2.247,41244.88017
2020/8/18 18:02:04,88.398,2.455,41219.44668
2020/8/18 18:03:04,88.956,2.643,41196.48811
2020/8/18 18:04:04,89.533,2.809,41176.20738
2020/8/18 18:05:04,90.129,2.952,41158.81081
2020/8/18 18:06:04,90.743,3.069,41144.50667
2020/8/18 18:07:04,91.374,3.159,41133.50366
2020/8/18 18:08:04,92.02,3.221,41126.00918
2020/8/18 18:09:04,92.68,3.251,41122.22773
2020/8/18 18:10:04,93.354,3.25,41122.35914
2020/8/18 18:11:04,94.039,3.214,41126.59678
2020/8/18 18:12:04,94.734,3.143,41135.12575
2020/8/18 18:13:04,95.437,3.035,41148.12114
2020/8/18 18:14:04,96.145,2.89,41165.74608
2020/8/18 18:15:04,96.856,2.705,41188.15021
2020/8/18 18:16:04,97.569,2.479,41215.46766
2020/8/18 18:17:04,98.28,2.213,41247.81557
2020/8/18 18:18:04,98.987,1.905,41285.29238
2020/8/18 18:19:04,99.688,1.554,41327.97636
2020/8/18 18:20:04,100.379,1.161,41375.92416
2020/8/18 18:21:04,101.058,0.724,41429.16961
2020/8/18 18:22:04,101.722,0.245,41487.72241
2020/8/18 18:23:04,102.369,-0.276,41551.56718
2020/8/18 18:24:04,102.995,-0.839,41620.66263
2020/8/18 18:25:04,103.597,-1.444,41694.94082
2020/8/18 18:26:04,104.173,-2.089,41774.30659
2020/8/18 18:27:04,104.721,-2.773,41858.63738
2020/8/18 18:28:04,105.237,-3.496,41947.78283
2020/8/18 18:29:04,105.719,-4.255,42041.56493
2020/8/18 18:30:04,106.164,-5.048,42139.7782
2020/8/18 18:31:04,106.57,-5.875,42242.19006
2020/8/18 18:32:04,106.934,-6.733,42348.54135
2020/8/18 18:33:04,107.254,-7.62,42458.54709
2020/8/18 18:34:04,107.528,-8.533,42571.8974
2020/8/18 18:35:04,107.754,-9.471,42688.25843
2020/8/18 18:36:04,107.929,-10.43,42807.27365
2020/8/18 18:37:04,108.051,-11.408,42928.56515
2020/8/18 18:38:04,108.119,-12.401,43051.73504
2020/8/18 18:39:04,108.13,-13.408,43176.36706
2020/8/18 18:40:04,108.082,-14.424,43302.02821
2020/8/18 18:41:04,107.974,-15.448,43428.27052
2020/8/18 18:42:04,107.804,-16.474,43554.63281
2020/8/18 18:43:04,107.57,-17.5,43680.64262
2020/8/18 18:44:04,107.271,-18.522,43805.81812
2020/8/18 18:45:04,106.904,-19.537,43929.67007
2020/8/18 18:46:04,106.47,-20.541,44051.70382
2020/8/18 18:47:04,105.967,-21.529,44171.42131
2020/8/18 18:48:04,105.393,-22.498,44288.32312
2020/8/18 18:49:04,104.747,-23.445,44401.91041
2020/8/18 18:50:04,104.03,-24.363,44511.68703
2020/8/18 18:50:21,103.819,-24.612,44541.32475
2020/8/18 19:17:14,68.204,-24.975,44584.75347
2020/8/18 19:18:14,67.102,-23.86,44451.78132
2020/8/18 19:19:14,66.072,-22.672,44309.42572
2020/8/18 19:20:14,65.119,-21.417,44158.08463
2020/8/18 19:21:14,64.244,-20.099,43998.12555
2020/8/18 19:22:14,63.45,-18.719,43829.95899
2020/8/18 19:23:14,62.739,-17.283,43654.03851
2020/8/18 19:24:14,62.113,-15.793,43470.86072
2020/8/18 19:25:14,61.572,-14.254,43280.9651
2020/8/18 19:26:14,61.118,-12.67,43084.93359
2020/8/18 19:27:14,60.754,-11.044,42883.39012
2020/8/18 19:28:14,60.479,-9.381,42676.99982
2020/8/18 19:29:14,60.296,-7.685,42466.46804
2020/8/18 19:30:14,60.206,-5.96,42252.53918
2020/8/18 19:31:14,60.211,-4.211,42035.99519
2020/8/18 19:32:14,60.314,-2.443,41817.65379
2020/8/18 19:33:14,60.515,-0.66,41598.3664
2020/8/18 19:34:14,60.818,1.133,41379.01568
2020/8/18 19:35:14,61.226,2.928,41160.5128
2020/8/18 19:36:14,61.74,4.722,40943.79417
2020/8/18 19:37:14,62.365,6.507,40729.81799
2020/8/18 19:38:14,63.103,8.276,40519.56014
2020/8/18 19:39:14,63.957,10.023,40314.00983
2020/8/18 19:40:14,64.931,11.738,40114.16477
2020/8/18 19:41:14,66.028,13.416,39921.02582
2020/8/18 19:42:14,67.251,15.045,39735.5914
2020/8/18 19:43:14,68.602,16.617,39558.85136
2020/8/18 19:44:14,70.083,18.122,39391.78057
2020/8/18 19:45:14,71.695,19.549,39235.33222
2020/8/18 19:46:14,73.438,20.887,39090.43079
2020/8/18 19:47:14,75.309,22.126,38957.96489
2020/8/18 19:48:14,77.304,23.255,38838.78009
2020/8/18 19:49:14,79.419,24.261,38733.67156
2020/8/18 19:50:14,81.645,25.134,38643.37694
2020/8/18 19:51:14,83.971,25.864,38568.56956
2020/8/18 19:52:14,86.385,26.441,38509.85162
2020/8/18 19:53:14,88.87,26.858,38467.74822
2020/8/18 19:54:14,91.409,27.107,38442.70169
2020/8/18 19:55:14,93.984,27.184,38435.06678
2020/8/18 19:56:14,96.573,27.085,38445.10641
2020/8/18 19:57:14,99.155,26.81,38472.9886
2020/8/18 19:58:14,101.711,26.359,38518.78389
2020/8/18 19:59:14,104.221,25.735,38582.46423
2020/8/18 20:00:14,106.667,24.944,38663.90237
2020/8/18 20:01:14,109.033,23.991,38762.87269
2020/8/18 20:02:14,111.306,22.884,38879.05262
2020/8/18 20:03:14,113.473,21.633,39012.02538
2020/8/18 20:04:14,115.528,20.246,39161.28318
2020/8/18 20:05:14,117.463,18.733,39326.23157
2020/8/18 20:06:14,119.275,17.106,39506.19422
2020/8/18 20:07:14,120.96,15.374,39700.41854
2020/8/18 20:08:14,122.519,13.547,39908.08148
2020/8/18 20:09:14,123.95,11.636,40128.29598
2020/8/18 20:10:14,125.256,9.649,40360.11762
2020/8/18 20:11:14,126.437,7.596,40602.55125
2020/8/18 20:12:14,127.497,5.485,40854.55786
2020/8/18 20:13:14,128.437,3.324,41115.06146
2020/8/18 20:14:14,129.259,1.121,41382.95561
2020/8/18 20:15:14,129.966,-1.117,41657.11005
2020/8/18 20:16:14,130.559,-3.383,41936.37687
2020/8/18 20:17:14,131.039,-5.672,42219.5966
2020/8/18 20:18:14,131.408,-7.978,42505.6038
2020/8/18 20:19:14,131.665,-10.295,42793.23252
2020/8/18 20:20:14,131.81,-12.617,43081.32121
2020/8/18 20:21:14,131.843,-14.941,43368.71742
2020/8/18 20:22:14,131.76,-17.26,43654.28213
2020/8/18 20:23:14,131.561,-19.569,43936.89368
2020/8/18 20:24:14,131.24,-21.865,44215.45145
2020/8/18 20:25:14,130.795,-24.141,44488.87912
2020/8/18 20:25:29,130.659,-24.726,44558.55148
2020/8/18 21:03:03,39.51,-24.845,44577.4916
2020/8/18 21:04:02,38.673,-22.302,44273.04976
2020/8/18 21:05:02,37.948,-19.66,43952.98472
2020/8/18 21:06:02,37.343,-16.966,43623.37043
2020/8/18 21:07:02,36.854,-14.223,43285.30895
2020/8/18 21:08:02,36.477,-11.434,42939.96528
2020/8/18 21:09:02,36.211,-8.602,42588.5665
2020/8/18 21:10:02,36.053,-5.73,42232.40041
2020/8/18 21:11:02,36.005,-2.822,41872.81376
2020/8/18 21:12:02,36.067,0.121,41511.20998
2020/8/18 21:13:02,36.243,3.094,41149.04629
2020/8/18 21:14:02,36.536,6.094,40787.83018
2020/8/18 21:15:02,36.953,9.118,40429.11507
2020/8/18 21:16:02,37.502,12.159,40074.49521
2020/8/18 21:17:02,38.191,15.214,39725.5996
2020/8/18 21:18:02,39.033,18.275,39384.08499
2020/8/18 21:19:02,40.042,21.335,39051.62775
2020/8/18 21:20:02,41.237,24.386,38729.9147
2020/8/18 21:21:02,42.639,27.417,38420.63285
2020/8/18 21:22:02,44.271,30.415,38125.45796
2020/8/18 21:23:02,46.163,33.364,37846.04213
2020/8/18 21:24:02,48.349,36.247,37584.00034
2020/8/18 21:25:02,50.865,39.042,37340.8962
2020/8/18 21:26:02,53.753,41.721,37118.22701
2020/8/18 21:27:02,57.055,44.253,36917.40843
2020/8/18 21:28:02,60.811,46.602,36739.75894
2020/8/18 21:29:02,65.052,48.725,36586.48464
2020/8/18 21:30:02,69.794,50.575,36458.6643
2020/8/18 21:31:02,75.026,52.102,36357.23573
2020/8/18 21:32:02,80.698,53.259,36282.98299
2020/8/18 21:33:02,86.715,54.001,36236.52573
2020/8/18 21:34:02,92.94,54.299,36218.31011
2020/8/18 21:35:02,99.207,54.136,36228.60242
2020/8/18 21:36:02,105.344,53.519,36267.48476
2020/8/18 21:37:02,111.199,52.468,36334.85386
2020/8/18 21:38:02,116.658,51.021,36430.42199
2020/8/18 21:39:02,121.654,49.224,36553.72111
2020/8/18 21:40:02,126.159,47.124,36704.10891
2020/8/18 21:41:02,130.179,44.769,36880.77762
2020/8/18 21:42:02,133.742,42.203,37082.76434
2020/8/18 21:43:02,136.884,39.465,37308.96342
2020/8/18 21:44:02,139.647,36.587,37558.13969
2020/8/18 21:45:02,142.075,33.599,37828.943
2020/8/18 21:46:02,144.206,30.524,38119.92289
2020/8/18 21:47:02,146.075,27.381,38429.54375
2020/8/18 21:48:02,147.715,24.187,38756.19958
2020/8/18 21:49:02,149.153,20.956,39098.2286
2020/8/18 21:50:02,150.41,17.698,39453.92699
2020/8/18 21:51:02,151.509,14.423,39821.56197
2020/8/18 21:52:02,152.464,11.138,40199.38401
2020/8/18 21:53:02,153.29,7.85,40585.63782
2020/8/18 21:54:02,153.998,4.564,40978.57256
2020/8/18 21:55:02,154.599,1.283,41376.45078
2020/8/18 21:56:02,155.099,-1.988,41777.55649
2020/8/18 21:57:02,155.504,-5.247,42180.2022
2020/8/18 21:58:02,155.82,-8.492,42582.73497
2020/8/18 21:59:02,156.049,-11.721,42983.54171
2020/8/18 22:00:02,156.192,-14.932,43381.0536
2020/8/18 22:01:02,156.251,-18.124,43773.74991
2020/8/18 22:02:02,156.224,-21.296,44160.16112
2020/8/18 22:03:02,156.108,-24.447,44538.8715
2020/8/18 22:03:08,156.09,-24.785,44579.14275
2020/8/18 22:43:12,13.588,-24.754,44584.25228
2020/8/18 22:44:11,13.125,-21.486,44192.14037
2020/8/18 22:45:11,12.718,-18.136,43784.46178
2020/8/18 22:46:11,12.369,-14.748,43367.79029
2020/8/18 22:47:11,12.072,-11.321,42943.59193
2020/8/18 22:48:11,11.823,-7.854,42513.40436
2020/8/18 22:49:11,11.62,-4.346,42078.83554
2020/8/18 22:50:11,11.461,-0.798,41641.56178
2020/8/18 22:51:11,11.345,2.793,41203.32516
2020/8/18 22:52:11,11.271,6.427,40765.93007
2020/8/18 22:53:11,11.24,10.104,40331.23887
2020/8/18 22:54:11,11.254,13.825,39901.16645
2020/8/18 22:55:11,11.314,17.591,39477.67359
2020/8/18 22:56:11,11.425,21.4,39062.759
2020/8/18 22:57:11,11.591,25.253,38658.44985
2020/8/18 22:58:11,11.821,29.15,38266.79087
2020/8/18 22:59:11,12.124,33.089,37889.83163
2020/8/18 23:00:11,12.513,37.068,37529.61232
2020/8/18 23:01:11,13.008,41.087,37188.14785
2020/8/18 23:02:11,13.633,45.141,36867.41037
2020/8/18 23:03:11,14.426,49.226,36569.31042
2020/8/18 23:04:11,15.441,53.337,36295.67701
2020/8/18 23:05:11,16.761,57.466,36048.23681
2020/8/18 23:06:11,18.514,61.602,35828.59305
2020/8/18 23:07:11,20.92,65.728,35638.20456
2020/8/18 23:08:11,24.365,69.814,35478.36544
2020/8/18 23:09:11,29.605,73.805,35350.1862
2020/8/18 23:10:11,38.227,77.584,35254.57672
2020/8/18 23:11:11,53.722,80.853,35192.23182
2020/8/18 23:12:11,81.463,82.848,35163.61992
2020/8/18 23:13:11,115.911,82.463,35168.97521
2020/8/18 23:14:11,139.675,79.969,35208.29366
2020/8/18 23:15:11,152.635,76.493,35281.33307
2020/8/18 23:16:11,160.044,72.623,35387.61705
2020/8/18 23:17:11,164.685,68.584,35526.44288
2020/8/18 23:18:11,167.823,64.468,35696.89288
2020/8/18 23:19:11,170.072,60.32,35897.84882
2020/8/18 23:20:11,171.759,56.165,36128.00885
2020/8/18 23:21:11,173.068,52.018,36385.90642
2020/8/18 23:22:11,174.115,47.889,36669.93044
2020/8/18 23:23:11,174.971,43.786,36978.34614
2020/8/18 23:24:11,175.686,39.712,37309.31611
2020/8/18 23:25:11,176.294,35.673,37660.9209
2020/8/18 23:26:11,176.818,31.67,38031.17887
2020/8/18 23:27:11,177.278,27.706,38418.06492
2020/8/18 23:28:11,177.687,23.782,38819.52782
2020/8/18 23:29:11,178.054,19.899,39233.50599
2020/8/18 23:30:11,178.39,16.058,39657.94173
2020/8/18 23:31:11,178.699,12.258,40090.79371
2020/8/18 23:32:11,178.988,8.498,40530.04798
2020/8/18 23:33:11,179.261,4.78,40973.72729
2020/8/18 23:34:11,179.522,1.101,41419.89908
2020/8/18 23:35:11,179.776,-2.54,41866.68215
2020/8/18 23:36:11,180.024,-6.142,42312.25204
2020/8/18 23:37:11,180.271,-9.708,42754.8455
2020/8/18 23:38:11,180.519,-13.238,43192.76392
2020/8/18 23:39:11,180.771,-16.734,43624.37603
2020/8/18 23:40:11,181.03,-20.197,44048.11985
2020/8/18 23:41:11,181.301,-23.629,44462.50419
2020/8/18 23:41:31,181.396,-24.793,44601.43643
2020/8/19 0:21:57,348.225,-24.719,44603.71733
2020/8/19 0:22:57,348.161,-21.385,44203.63548
2020/8/19 0:23:57,348.052,-18.002,43791.72043
2020/8/19 0:24:57,347.899,-14.593,43372.36769
2020/8/19 0:25:57,347.699,-11.158,42947.11195
2020/8/19 0:26:57,347.452,-7.695,42517.55025
2020/8/19 0:27:57,347.156,-4.206,42085.33958
2020/8/19 0:28:57,346.805,-0.689,41652.19381
2020/8/19 0:29:57,346.395,2.854,41219.87987
2020/8/19 0:30:57,345.921,6.424,40790.21305
2020/8/19 0:31:57,345.375,10.02,40365.05135
2020/8/19 0:32:57,344.748,13.641,39946.2887
2020/8/19 0:33:57,344.028,17.283,39535.84701
2020/8/19 0:34:57,343.201,20.944,39135.66698
2020/8/19 0:35:57,342.25,24.622,38747.69746
2020/8/19 0:36:57,341.152,28.309,38373.88353
2020/8/19 0:37:57,339.882,32.001,38016.15313
2020/8/19 0:38:57,338.402,35.687,37676.40227
2020/8/19 0:39:57,336.671,39.358,37356.47916
2020/8/19 0:40:57,334.63,42.998,37058.16707
2020/8/19 0:41:57,332.207,46.589,36783.16646
2020/8/19 0:42:57,329.308,50.103,36533.07646
2020/8/19 0:43:57,325.81,53.508,36309.37634
2020/8/19 0:44:57,321.562,56.756,36113.407
2020/8/19 0:45:57,316.378,59.784,35946.35353
2020/8/19 0:46:57,310.054,62.506,35809.22871
2020/8/19 0:47:57,302.412,64.815,35702.85859
2020/8/19 0:48:57,293.393,66.576,35627.87014
2020/8/19 0:49:57,283.191,67.656,35584.68175
2020/8/19 0:50:57,272.341,67.951,35573.49677
2020/8/19 0:51:57,261.619,67.432,35594.30035
2020/8/19 0:52:57,251.753,66.155,35646.85985
2020/8/19 0:53:57,243.174,64.241,35730.72859
2020/8/19 0:54:57,235.985,61.827,35845.25297
2020/8/19 0:55:57,230.078,59.041,35989.58268
2020/8/19 0:56:57,225.259,55.985,36162.68356
2020/8/19 0:57:57,221.328,52.738,36363.35269
2020/8/19 0:58:57,218.11,49.357,36590.23526
2020/8/19 0:59:57,215.461,45.884,36841.84258
2020/8/19 1:00:57,213.27,42.352,37116.57094
2020/8/19 1:01:57,211.451,38.784,37412.72044
2020/8/19 1:02:57,209.935,35.197,37728.51384
2020/8/19 1:03:57,208.673,31.605,38062.11462
2020/8/19 1:04:57,207.622,28.019,38411.64422
2020/8/19 1:05:57,206.753,24.447,38775.19808
2020/8/19 1:06:57,206.04,20.895,39150.86045
2020/8/19 1:07:57,205.465,17.368,39536.71773
2020/8/19 1:08:57,205.012,13.869,39930.87037
2020/8/19 1:09:57,204.67,10.402,40331.44343
2020/8/19 1:10:57,204.43,6.97,40736.59562
2020/8/19 1:11:57,204.286,3.573,41144.52715
2020/8/19 1:12:57,204.233,0.215,41553.48628
2020/8/19 1:13:57,204.267,-3.105,41961.77481
2020/8/19 1:14:57,204.387,-6.385,42367.75254
2020/8/19 1:15:57,204.594,-9.624,42769.8409
2020/8/19 1:16:57,204.889,-12.821,43166.5257
2020/8/19 1:17:57,205.274,-15.975,43556.35936
2020/8/19 1:18:57,205.753,-19.085,43937.96241
2020/8/19 1:19:57,206.333,-22.15,44310.02464
2020/8/19 1:20:48,206.913,-24.731,44619.46463
2020/8/19 1:59:59,322.961,-24.719,44629.14357
2020/8/19 2:00:58,323.275,-21.99,44302.18763
2020/8/19 2:01:58,323.474,-19.211,43965.06633
2020/8/19 2:02:58,323.559,-16.416,43622.65335
2020/8/19 2:03:58,323.531,-13.607,43276.25427
2020/8/19 2:04:58,323.394,-10.79,42927.21108
2020/8/19 2:05:58,323.148,-7.966,42576.89862
2020/8/19 2:06:58,322.791,-5.141,42226.72063
2020/8/19 2:07:58,322.322,-2.317,41878.10515
2020/8/19 2:08:58,321.738,0.499,41532.49941
2020/8/19 2:09:58,321.034,3.303,41191.3641
2020/8/19 2:10:58,320.205,6.089,40856.16702
2020/8/19 2:11:58,319.244,8.85,40528.37606
2020/8/19 2:12:58,318.144,11.579,40209.45153
2020/8/19 2:13:58,316.896,14.267,39900.83789
2020/8/19 2:14:58,315.49,16.904,39603.95484
2020/8/19 2:15:58,313.916,19.48,39320.1878
2020/8/19 2:16:58,312.163,21.982,39050.87812
2020/8/19 2:17:58,310.219,24.396,38797.31276
2020/8/19 2:18:58,308.074,26.706,38560.71369
2020/8/19 2:19:58,305.718,28.896,38342.22749
2020/8/19 2:20:58,303.142,30.948,38142.91472
2020/8/19 2:21:58,300.343,32.841,37963.73994
2020/8/19 2:22:58,297.322,34.555,37805.56188
2020/8/19 2:23:58,294.084,36.07,37669.12481
2020/8/19 2:24:58,290.644,37.365,37555.05035
2020/8/19 2:25:58,287.026,38.42,37463.83101
2020/8/19 2:26:58,283.261,39.22,37395.82454
2020/8/19 2:27:58,279.39,39.751,37351.25028
2020/8/19 2:28:58,275.462,40.006,37330.18673
2020/8/19 2:29:58,271.528,39.982,37332.57122
2020/8/19 2:30:58,267.64,39.681,37358.20088
2020/8/19 2:31:58,263.848,39.111,37406.73577
2020/8/19 2:32:58,260.197,38.286,37477.70321
2020/8/19 2:33:58,256.721,37.222,37570.50405
2020/8/19 2:34:58,253.447,35.939,37684.41984
2020/8/19 2:35:58,250.394,34.459,37818.62161
2020/8/19 2:36:58,247.57,32.803,37972.17921
2020/8/19 2:37:58,244.979,30.992,38144.07171
2020/8/19 2:38:58,242.618,29.049,38333.19804
2020/8/19 2:39:58,240.481,26.992,38538.38808
2020/8/19 2:40:58,238.558,24.839,38758.41371
2020/8/19 2:41:58,236.839,22.608,38991.99983
2020/8/19 2:42:58,235.313,20.313,39237.83502
2020/8/19 2:43:58,233.969,17.967,39494.58183
2020/8/19 2:44:58,232.796,15.582,39760.88653
2020/8/19 2:45:58,231.783,13.17,40035.38821
2020/8/19 2:46:58,230.923,10.739,40316.72725
2020/8/19 2:47:58,230.206,8.298,40603.55304
2020/8/19 2:48:58,229.626,5.855,40894.53101
2020/8/19 2:49:58,229.176,3.416,41188.34893
2020/8/19 2:50:58,228.85,0.988,41483.72247
2020/8/19 2:51:58,228.646,-1.424,41779.40014
2020/8/19 2:52:58,228.558,-3.814,42074.16757
2020/8/19 2:53:58,228.585,-6.177,42366.85115
2020/8/19 2:54:58,228.725,-8.509,42656.32123
2020/8/19 2:55:58,228.976,-10.806,42941.49471
2020/8/19 2:56:58,229.339,-13.062,43221.3372
2020/8/19 2:57:58,229.813,-15.274,43494.86485
2020/8/19 2:58:58,230.399,-17.437,43761.14569
2020/8/19 2:59:58,231.099,-19.546,44019.30078
2020/8/19 3:00:58,231.914,-21.598,44268.50499
2020/8/19 3:01:58,232.846,-23.587,44507.98754
2020/8/19 3:02:29,233.378,-24.597,44628.69092
2020/8/19 3:36:52,297.249,-24.758,44656.37565
2020/8/19 3:37:51,297.874,-23.152,44464.7123
2020/8/19 3:38:51,298.398,-21.505,44266.34775
2020/8/19 3:39:51,298.815,-19.838,44064.28739
2020/8/19 3:40:51,299.128,-18.158,43859.3355
2020/8/19 3:41:51,299.34,-16.47,43652.30521
2020/8/19 3:42:51,299.454,-14.779,43444.01561
2020/8/19 3:43:51,299.471,-13.09,43235.2887
2020/8/19 3:44:51,299.393,-11.408,43026.94615
2020/8/19 3:45:51,299.223,-9.738,42819.80602
2020/8/19 3:46:51,298.962,-8.084,42614.67929
2020/8/19 3:47:51,298.612,-6.452,42412.36637
2020/8/19 3:48:51,298.174,-4.847,42213.65347
2020/8/19 3:49:51,297.649,-3.274,42019.30891
2020/8/19 3:50:51,297.039,-1.738,41830.07942
2020/8/19 3:51:51,296.346,-0.244,41646.68643
2020/8/19 3:52:51,295.572,1.204,41469.82235
2020/8/19 3:53:51,294.717,2.599,41300.14694
2020/8/19 3:54:51,293.786,3.937,41138.28373
2020/8/19 3:55:51,292.779,5.212,40984.81667
2020/8/19 3:56:51,291.699,6.42,40840.28673
2020/8/19 3:57:51,290.551,7.556,40705.18906
2020/8/19 3:58:51,289.339,8.615,40579.97008
2020/8/19 3:59:51,288.065,9.593,40465.02505
2020/8/19 4:00:00,287.87,9.732,40448.67773
