sat_11node/group1-sr1.csv

Time (UTCG),Azimuth (deg),Elevation (deg),Range (km)
2020/8/18 4:00:00,176.122,-21.67,44253.85809
2020/8/18 4:00:28,176.203,-23.296,44449.87967
2020/8/18 4:00:55,176.282,-24.916,44643.54922
2020/8/18 4:39:57,354.299,-24.793,44612.50886
2020/8/18 4:40:57,354.158,-21.272,44189.21483
2020/8/18 4:41:57,353.995,-17.697,43752.97303
2020/8/18 4:42:57,353.809,-14.089,43308.26597
2020/8/18 4:43:57,353.598,-10.448,42856.83367
2020/8/18 4:44:57,353.361,-6.773,42400.49398
2020/8/18 4:45:57,353.092,-3.062,41941.13974
2020/8/18 4:46:57,352.79,0.686,41480.73527
2020/8/18 4:47:57,352.449,4.471,41021.31177
2020/8/18 4:48:57,352.063,8.294,40564.96168
2020/8/18 4:49:57,351.626,12.154,40113.83175
2020/8/18 4:50:57,351.129,16.052,39670.1147
2020/8/18 4:51:57,350.561,19.986,39236.03929
2020/8/18 4:52:57,349.909,23.955,38813.85864
2020/8/18 4:53:57,349.155,27.957,38405.83679
2020/8/18 4:54:57,348.278,31.988,38014.23332
2020/8/18 4:55:57,347.248,36.044,37641.28608
2020/8/18 4:56:57,346.027,40.119,37289.19205
2020/8/18 4:57:57,344.562,44.203,36960.08648
2020/8/18 4:58:57,342.782,48.286,36656.02064
2020/8/18 4:59:57,340.583,52.35,36378.93837
2020/8/18 5:00:57,337.818,56.371,36130.65199
2020/8/18 5:01:57,334.268,60.315,35912.81819
2020/8/18 5:02:57,329.604,64.126,35726.91442
2020/8/18 5:03:57,323.33,67.718,35574.21665
2020/8/18 5:04:57,314.737,70.946,35455.7791
2020/8/18 5:05:57,302.98,73.577,35372.41689
2020/8/18 5:06:57,287.643,75.276,35324.69202
2020/8/18 5:07:57,269.942,75.7,35312.90355
2020/8/18 5:08:57,252.903,74.742,35337.08217
2020/8/18 5:09:57,238.994,72.635,35396.98953
2020/8/18 5:10:57,228.629,69.745,35492.12233
2020/8/18 5:11:57,221.103,66.369,35621.72101
2020/8/18 5:12:57,215.595,62.7,35784.78268
2020/8/18 5:13:57,211.486,58.857,35980.07781
2020/8/18 5:14:57,208.354,54.911,36206.16989
2020/8/18 5:15:57,205.92,50.909,36461.43755
2020/8/18 5:16:57,203.998,46.879,36744.09823
2020/8/18 5:17:57,202.462,42.843,37052.23258
2020/8/18 5:18:57,201.224,38.815,37383.80924
2020/8/18 5:19:57,200.22,34.806,37736.70883
2020/8/18 5:20:57,199.406,30.824,38108.7473
2020/8/18 5:21:57,198.749,26.873,38497.69756
2020/8/18 5:22:57,198.223,22.958,38901.30975
2020/8/18 5:23:57,197.81,19.083,39317.32932
2020/8/18 5:24:57,197.497,15.248,39743.51345
2020/8/18 5:25:57,197.272,11.457,40177.64525
2020/8/18 5:26:57,197.128,7.709,40617.54615
2020/8/18 5:27:57,197.06,4.005,41061.08639
2020/8/18 5:28:57,197.063,0.346,41506.19383
2020/8/18 5:29:57,197.136,-3.269,41950.86116
2020/8/18 5:30:57,197.279,-6.84,42393.15174
2020/8/18 5:31:57,197.491,-10.366,42831.20409
2020/8/18 5:32:57,197.776,-13.848,43263.23546
2020/8/18 5:33:57,198.137,-17.286,43687.54428
2020/8/18 5:34:57,198.578,-20.68,44102.51197
2020/8/18 5:35:57,199.107,-24.031,44506.60393
2020/8/18 5:36:12,199.258,-24.885,44608.56762
2020/8/18 6:14:22,331.609,-24.721,44574.68607
2020/8/18 6:15:22,331.837,-21.547,44193.16899
2020/8/18 6:16:22,331.954,-18.342,43802.68757
2020/8/18 6:17:22,331.964,-15.114,43405.43502
2020/8/18 6:18:22,331.868,-11.865,43003.04429
2020/8/18 6:19:22,331.667,-8.597,42597.2082
2020/8/18 6:20:22,331.359,-5.313,42189.67532
2020/8/18 6:21:22,330.941,-2.015,41782.24502
2020/8/18 6:22:22,330.409,1.293,41376.76163
2020/8/18 6:23:22,329.756,4.606,40975.10768
2020/8/18 6:24:22,328.974,7.921,40579.19603
2020/8/18 6:25:22,328.052,11.23,40190.96085
2020/8/18 6:26:22,326.976,14.526,39812.34745
2020/8/18 6:27:22,325.732,17.802,39445.30086
2020/8/18 6:28:22,324.301,21.047,39091.75311
2020/8/18 6:29:22,322.66,24.248,38753.6094
2020/8/18 6:30:22,320.786,27.39,38432.733
2020/8/18 6:31:22,318.65,30.457,38130.92928
2020/8/18 6:32:22,316.22,33.425,37849.92881
2020/8/18 6:33:22,313.463,36.272,37591.36992
2020/8/18 6:34:22,310.344,38.966,37356.78103
2020/8/18 6:35:22,306.831,41.474,37147.56305
2020/8/18 6:36:22,302.898,43.757,36964.97226
2020/8/18 6:37:22,298.532,45.773,36810.10434
2020/8/18 6:38:22,293.741,47.478,36683.87954
2020/8/18 6:39:22,288.559,48.826,36587.0301
2020/8/18 6:40:22,283.059,49.779,36520.0896
2020/8/18 6:41:22,277.343,50.306,36483.38536
2020/8/18 6:42:22,271.542,50.39,36477.03356
2020/8/18 6:43:22,265.801,50.03,36500.93758
2020/8/18 6:44:22,260.254,49.241,36554.78962
2020/8/18 6:45:22,255.013,48.053,36638.07549
2020/8/18 6:46:22,250.158,46.505,36750.08225
2020/8/18 6:47:22,245.732,44.641,36889.90898
2020/8/18 6:48:22,241.748,42.508,37056.47947
2020/8/18 6:49:22,238.2,40.149,37248.55745
2020/8/18 6:50:22,235.063,37.605,37464.76277
2020/8/18 6:51:22,232.306,34.911,37703.5892
2020/8/18 6:52:22,229.896,32.098,37963.42234
2020/8/18 6:53:22,227.799,29.193,38242.55811
2020/8/18 6:54:22,225.983,26.219,38539.22064
2020/8/18 6:55:22,224.421,23.193,38851.57991
2020/8/18 6:56:22,223.085,20.133,39177.7683
2020/8/18 6:57:22,221.955,17.051,39515.8963
2020/8/18 6:58:22,221.013,13.959,39864.0669
2020/8/18 6:59:22,220.241,10.865,40220.38861
2020/8/18 7:00:22,219.629,7.779,40582.98748
2020/8/18 7:01:22,219.164,4.708,40950.01738
2020/8/18 7:02:22,218.84,1.656,41319.66927
2020/8/18 7:03:22,218.649,-1.37,41690.17911
2020/8/18 7:04:22,218.587,-4.366,42059.83462
2020/8/18 7:05:22,218.652,-7.327,42426.98103
2020/8/18 7:06:22,218.843,-10.249,42790.02575
2020/8/18 7:07:22,219.159,-13.129,43147.44225
2020/8/18 7:08:22,219.603,-15.961,43497.77314
2020/8/18 7:09:22,220.177,-18.743,43839.63254
2020/8/18 7:10:22,220.887,-21.47,44171.70786
2020/8/18 7:11:22,221.737,-24.137,44492.76108
2020/8/18 7:11:39,222.001,-24.871,44580.30855
2020/8/18 7:46:30,309.968,-24.702,44550.65352
2020/8/18 7:47:29,310.536,-22.311,44263.60546
2020/8/18 7:48:29,310.965,-19.863,43966.47127
2020/8/18 7:49:29,311.252,-17.39,43663.65406
2020/8/18 7:50:29,311.401,-14.899,43356.49589
2020/8/18 7:51:29,311.416,-12.395,43046.37835
2020/8/18 7:52:29,311.298,-9.885,42734.71799
2020/8/18 7:53:29,311.048,-7.375,42422.961
2020/8/18 7:54:29,310.665,-4.873,42112.57738
2020/8/18 7:55:29,310.15,-2.384,41805.05447
2020/8/18 7:56:29,309.499,0.084,41501.88972
2020/8/18 7:57:29,308.711,2.521,41204.58293
2020/8/18 7:58:29,307.782,4.921,40914.62772
2020/8/18 7:59:29,306.709,7.272,40633.50249
2020/8/18 8:00:29,305.487,9.565,40362.66068
2020/8/18 8:01:29,304.113,11.789,40103.52064
2020/8/18 8:02:29,302.583,13.932,39857.45499
2020/8/18 8:03:29,300.894,15.98,39625.7798
2020/8/18 8:04:29,299.043,17.921,39409.74348
2020/8/18 8:05:29,297.032,19.74,39210.51575
2020/8/18 8:06:29,294.861,21.423,39029.17687
2020/8/18 8:07:29,292.536,22.954,38866.70711
2020/8/18 8:08:29,290.063,24.319,38723.97701
2020/8/18 8:09:29,287.455,25.504,38601.73826
2020/8/18 8:10:29,284.727,26.496,38500.61587
2020/8/18 8:11:29,281.9,27.283,38421.10129
2020/8/18 8:12:29,278.996,27.857,38363.54722
2020/8/18 8:13:29,276.042,28.21,38328.16366
2020/8/18 8:14:29,273.067,28.34,38315.016
2020/8/18 8:15:29,270.102,28.247,38324.02438
2020/8/18 8:16:29,267.176,27.932,38354.9653
2020/8/18 8:17:29,264.318,27.403,38407.47438
2020/8/18 8:18:29,261.553,26.669,38481.05132
2020/8/18 8:19:29,258.902,25.74,38575.06583
2020/8/18 8:20:29,256.385,24.63,38688.76537
2020/8/18 8:21:29,254.014,23.353,38821.2837
2020/8/18 8:22:29,251.801,21.926,38971.65071
2020/8/18 8:23:29,249.751,20.362,39138.80261
2020/8/18 8:24:29,247.868,18.679,39321.59313
2020/8/18 8:25:29,246.152,16.892,39518.80449
2020/8/18 8:26:29,244.602,15.014,39729.15901
2020/8/18 8:27:29,243.216,13.06,39951.33025
2020/8/18 8:28:29,241.99,11.044,40183.954
2020/8/18 8:29:29,240.92,8.976,40425.63915
2020/8/18 8:30:29,240.002,6.869,40674.97774
2020/8/18 8:31:29,239.231,4.732,40930.55464
2020/8/18 8:32:29,238.602,2.577,41190.95649
2020/8/18 8:33:29,238.113,0.411,41454.78012
2020/8/18 8:34:29,237.76,-1.756,41720.64013
2020/8/18 8:35:29,237.54,-3.917,41987.17582
2020/8/18 8:36:29,237.45,-6.065,42253.05747
2020/8/18 8:37:29,237.488,-8.191,42516.99191
2020/8/18 8:38:29,237.654,-10.29,42777.72747
2020/8/18 8:39:29,237.945,-12.355,43034.05834
2020/8/18 8:40:29,238.363,-14.379,43284.82832
2020/8/18 8:41:29,238.906,-16.356,43528.93409
2020/8/18 8:42:29,239.574,-18.279,43765.328
2020/8/18 8:43:29,240.368,-20.142,43993.02036
2020/8/18 8:44:29,241.289,-21.939,44211.08146
2020/8/18 8:45:29,242.335,-23.662,44418.64303
2020/8/18 8:46:12,243.161,-24.848,44560.43084
2020/8/18 9:12:51,291.609,-24.992,44573.98858
2020/8/18 9:13:50,292.54,-23.484,44393.59945
2020/8/18 9:14:50,293.358,-21.899,44202.48292
2020/8/18 9:15:50,294.051,-20.266,44004.24203
2020/8/18 9:16:50,294.619,-18.593,43799.84992
2020/8/18 9:17:50,295.063,-16.887,43590.31741
2020/8/18 9:18:50,295.385,-15.156,43376.68975
2020/8/18 9:19:50,295.585,-13.406,43160.04276
2020/8/18 9:20:50,295.666,-11.644,42941.47868
2020/8/18 9:21:50,295.627,-9.878,42722.12155
2020/8/18 9:22:50,295.471,-8.116,42503.11225
2020/8/18 9:23:50,295.197,-6.365,42285.60298
2020/8/18 9:24:50,294.807,-4.631,42070.7514
2020/8/18 9:25:50,294.301,-2.924,41859.71429
2020/8/18 9:26:50,293.68,-1.251,41653.6409
2020/8/18 9:27:50,292.945,0.379,41453.66582
2020/8/18 9:28:50,292.097,1.96,41260.81533
2020/8/18 9:29:50,291.138,3.48,41076.34928
2020/8/18 9:30:50,290.07,4.932,40901.22302
2020/8/18 9:31:50,288.896,6.308,40736.43674
2020/8/18 9:32:50,287.619,7.598,40582.93741
2020/8/18 9:33:50,286.245,8.794,40441.61102
2020/8/18 9:34:50,284.778,9.887,40313.27514
2020/8/18 9:35:50,283.226,10.869,40198.67168
2020/8/18 9:36:50,281.596,11.734,40098.46027
2020/8/18 9:37:50,279.897,12.474,40013.2122
2020/8/18 9:38:50,278.141,13.082,39943.40508
2020/8/18 9:39:50,276.339,13.555,39889.41831
2020/8/18 9:40:50,274.502,13.888,39851.5296
2020/8/18 9:41:50,272.646,14.079,39829.9123
2020/8/18 9:42:50,270.782,14.126,39824.63394
2020/8/18 9:43:50,268.925,14.03,39835.65577
2020/8/18 9:44:50,267.09,13.792,39862.83349
2020/8/18 9:45:50,265.288,13.415,39905.9189
2020/8/18 9:46:50,263.533,12.903,39964.56274
2020/8/18 9:47:50,261.836,12.262,40038.31842
2020/8/18 9:48:50,260.208,11.498,40126.64668
2020/8/18 9:49:50,258.658,10.617,40228.92102
2020/8/18 9:50:50,257.194,9.629,40344.43375
2020/8/18 9:51:50,255.823,8.54,40472.40279
2020/8/18 9:52:50,254.551,7.36,40611.97874
2020/8/18 9:53:50,253.381,6.098,40762.25226
2020/8/18 9:54:50,252.318,4.762,40922.26188
2020/8/18 9:55:50,251.364,3.362,41091.00164
2020/8/18 9:56:50,250.521,1.906,41267.4289
2020/8/18 9:57:50,249.791,0.404,41450.47188
2020/8/18 9:58:50,249.173,-1.135,41639.03731
2020/8/18 9:59:50,248.668,-2.705,41832.01756
2020/8/18 10:00:50,248.278,-4.295,42028.29762
2020/8/18 10:01:50,248.001,-5.899,42226.76171
2020/8/18 10:02:50,247.837,-7.509,42426.29955
2020/8/18 10:03:50,247.787,-9.117,42625.81222
2020/8/18 10:04:50,247.85,-10.715,42824.21763
2020/8/18 10:05:50,248.026,-12.297,43020.45565
2020/8/18 10:06:50,248.314,-13.855,43213.49274
2020/8/18 10:07:50,248.714,-15.382,43402.32633
2020/8/18 10:08:50,249.225,-16.872,43585.98869
2020/8/18 10:09:50,249.848,-18.318,43763.55055
2020/8/18 10:10:50,250.579,-19.713,43934.12434
2020/8/18 10:11:50,251.419,-21.05,44096.86708
2020/8/18 10:12:50,252.365,-22.322,44250.98302
2020/8/18 10:13:50,253.415,-23.524,44395.72595
2020/8/18 10:14:50,254.565,-24.648,44530.40133
2020/8/18 10:14:57,254.703,-24.771,44545.08491
2020/8/18 10:34:28,285.597,-25.17,44594.10598
2020/8/18 10:35:28,286.813,-24.082,44464.2016
2020/8/18 10:36:28,287.936,-22.906,44323.0137
2020/8/18 10:37:28,288.959,-21.653,44171.72345
2020/8/18 10:38:28,289.877,-20.33,44011.02044
2020/8/18 10:39:28,290.689,-18.942,43841.64638
2020/8/18 10:40:28,291.392,-17.497,43664.39336
2020/8/18 10:41:28,291.986,-16,43480.10184
2020/8/18 10:42:28,292.469,-14.459,43289.65845
2020/8/18 10:43:28,292.839,-12.88,43093.99354
2020/8/18 10:44:28,293.098,-11.269,42894.07831
2020/8/18 10:45:28,293.243,-9.634,42690.92167
2020/8/18 10:46:28,293.274,-7.982,42485.56662
2020/8/18 10:47:28,293.191,-6.319,42279.08637
2020/8/18 10:48:28,292.992,-4.653,42072.57988
2020/8/18 10:49:28,292.677,-2.992,41867.167
2020/8/18 10:50:28,292.247,-1.343,41663.9832
2020/8/18 10:51:28,291.699,0.285,41464.17371
2020/8/18 10:52:28,291.033,1.884,41268.88721
2020/8/18 10:53:28,290.251,3.446,41079.26918
2020/8/18 10:54:28,289.35,4.961,40896.46819
2020/8/18 10:55:28,288.334,6.421,40721.57403
2020/8/18 10:56:28,287.201,7.815,40555.69119
2020/8/18 10:57:28,285.956,9.135,40399.87649
2020/8/18 10:58:28,284.6,10.37,40255.14425
2020/8/18 10:59:28,283.137,11.511,40122.45769
2020/8/18 11:00:28,281.574,12.549,40002.72064
2020/8/18 11:01:28,279.917,13.474,39896.76931
2020/8/18 11:02:28,278.174,14.277,39805.36418
2020/8/18 11:03:28,276.355,14.95,39729.18263
2020/8/18 11:04:28,274.471,15.487,39668.81207
2020/8/18 11:05:28,272.535,15.881,39624.74361
2020/8/18 11:06:28,270.559,16.128,39597.36692
2020/8/18 11:07:28,268.56,16.223,39586.96577
2020/8/18 11:08:28,266.552,16.166,39593.71484
2020/8/18 11:09:28,264.55,15.955,39617.67761
2020/8/18 11:10:28,262.57,15.592,39658.80541
2020/8/18 11:11:28,260.626,15.079,39716.93775
2020/8/18 11:12:28,258.731,14.421,39791.8038
2020/8/18 11:13:28,256.9,13.623,39883.02506
2020/8/18 11:14:28,255.142,12.691,39990.1191
2020/8/18 11:15:28,253.468,11.633,40112.5043
2020/8/18 11:16:28,251.887,10.457,40249.50554
2020/8/18 11:17:28,250.404,9.171,40400.36059
2020/8/18 11:18:28,249.026,7.785,40564.22716
2020/8/18 11:19:28,247.758,6.307,40740.19042
2020/8/18 11:20:28,246.602,4.748,40927.27092
2020/8/18 11:21:28,245.561,3.115,41124.43274
2020/8/18 11:22:28,244.637,1.419,41330.59156
2020/8/18 11:23:28,243.831,-0.332,41544.62301
2020/8/18 11:24:28,243.145,-2.129,41765.37057
2020/8/18 11:25:28,242.577,-3.964,41991.65348
2020/8/18 11:26:28,242.131,-5.828,42222.27429
2020/8/18 11:27:28,241.805,-7.713,42456.02596
2020/8/18 11:28:28,241.6,-9.613,42691.69879
2020/8/18 11:29:28,241.518,-11.518,42928.08678
2020/8/18 11:30:28,241.559,-13.422,43163.99354
2020/8/18 11:31:28,241.726,-15.318,43398.23792
2020/8/18 11:32:28,242.018,-17.198,43629.65903
2020/8/18 11:33:28,242.439,-19.055,43857.12097
2020/8/18 11:34:28,242.99,-20.882,44079.51711
2020/8/18 11:35:28,243.673,-22.671,44295.77398
2020/8/18 11:36:28,244.492,-24.414,44504.85484
2020/8/18 11:36:44,244.731,-24.867,44558.88588
2020/8/18 12:05:38,301.202,-25.092,44593.93408
2020/8/18 12:06:37,302.299,-23.233,44371.61528
2020/8/18 12:07:37,303.275,-21.275,44135.31498
2020/8/18 12:08:37,304.118,-19.249,43888.68919
2020/8/18 12:09:37,304.829,-17.161,43632.70493
2020/8/18 12:10:37,305.409,-15.017,43368.3907
2020/8/18 12:11:37,305.859,-12.824,43096.83478
2020/8/18 12:12:37,306.18,-10.587,42819.18332
2020/8/18 12:13:37,306.373,-8.314,42536.63801
2020/8/18 12:14:37,306.435,-6.009,42250.45323
2020/8/18 12:15:37,306.367,-3.68,41961.93294
2020/8/18 12:16:37,306.166,-1.333,41672.4268
2020/8/18 12:17:37,305.829,1.025,41383.32581
2020/8/18 12:18:37,305.352,3.387,41096.05726
2020/8/18 12:19:37,304.732,5.744,40812.07893
2020/8/18 12:20:37,303.964,8.087,40532.87258
2020/8/18 12:21:37,303.04,10.407,40259.93662
2020/8/18 12:22:37,301.956,12.694,39994.77788
2020/8/18 12:23:37,300.704,14.936,39738.90262
2020/8/18 12:24:37,299.278,17.12,39493.80674
2020/8/18 12:25:37,297.669,19.233,39260.96502
2020/8/18 12:26:37,295.873,21.259,39041.81983
2020/8/18 12:27:37,293.883,23.183,38837.76926
2020/8/18 12:28:37,291.697,24.986,38650.15448
2020/8/18 12:29:37,289.313,26.652,38480.24718
2020/8/18 12:30:37,286.736,28.16,38329.23655
2020/8/18 12:31:37,283.972,29.492,38198.21679
2020/8/18 12:32:37,281.034,30.628,38088.17455
2020/8/18 12:33:37,277.941,31.553,37999.97754
2020/8/18 12:34:37,274.719,32.25,37934.36366
2020/8/18 12:35:37,271.397,32.706,37891.93174
2020/8/18 12:36:37,268.011,32.911,37873.13339
2020/8/18 12:37:37,264.601,32.861,37878.26698
2020/8/18 12:38:37,261.205,32.555,37907.47302
2020/8/18 12:39:37,257.863,31.995,37960.7321
2020/8/18 12:40:37,254.61,31.19,38037.86443
2020/8/18 12:41:37,251.479,30.15,38138.53179
2020/8/18 12:42:37,248.493,28.889,38262.24132
2020/8/18 12:43:37,245.672,27.425,38408.35138
2020/8/18 12:44:37,243.03,25.773,38576.10165
2020/8/18 12:45:37,240.575,23.953,38764.53235
2020/8/18 12:46:37,238.31,21.982,38972.62775
2020/8/18 12:47:37,236.234,19.878,39199.23978
2020/8/18 12:48:37,234.345,17.658,39443.12164
2020/8/18 12:49:37,232.638,15.337,39702.94022
2020/8/18 12:50:37,231.105,12.931,39977.28879
2020/8/18 12:51:37,229.741,10.452,40264.69954
2020/8/18 12:52:37,228.539,7.913,40563.65593
2020/8/18 12:53:37,227.491,5.324,40872.60462
2020/8/18 12:54:37,226.592,2.696,41189.96675
2020/8/18 12:55:37,225.837,0.039,41514.14866
2020/8/18 12:56:37,225.221,-2.641,41843.55168
2020/8/18 12:57:37,224.74,-5.336,42176.58132
2020/8/18 12:58:37,224.393,-8.038,42511.65549
2020/8/18 12:59:37,224.176,-10.741,42847.21194
2020/8/18 13:00:37,224.091,-13.44,43181.71495
2020/8/18 13:01:37,224.138,-16.128,43513.66114
2020/8/18 13:02:37,224.32,-18.801,43841.58472
2020/8/18 13:03:37,224.64,-21.453,44164.06193
2020/8/18 13:04:37,225.104,-24.078,44479.71495
2020/8/18 13:04:53,225.253,-24.776,44563.00226
2020/8/18 13:40:38,323.091,-25.078,44612.62565
2020/8/18 13:41:37,323.911,-22.279,44277.25113
2020/8/18 13:42:37,324.605,-19.384,43925.77392
2020/8/18 13:43:37,325.169,-16.436,43564.1534
2020/8/18 13:44:37,325.608,-13.439,43193.76008
2020/8/18 13:45:37,325.926,-10.395,42816.03794
2020/8/18 13:46:37,326.126,-7.309,42432.5027
2020/8/18 13:47:37,326.208,-4.182,42044.7397
2020/8/18 13:48:37,326.172,-1.018,41654.40107
2020/8/18 13:49:37,326.016,2.18,41263.20228
2020/8/18 13:50:37,325.734,5.408,40872.91782
2020/8/18 13:51:37,325.322,8.662,40485.37594
2020/8/18 13:52:37,324.769,11.938,40102.45235
2020/8/18 13:53:37,324.066,15.229,39726.06272
2020/8/18 13:54:37,323.198,18.529,39358.15392
2020/8/18 13:55:37,322.149,21.83,39000.69381
2020/8/18 13:56:37,320.896,25.123,38655.65964
2020/8/18 13:57:37,319.414,28.395,38325.02492
2020/8/18 13:58:37,317.672,31.631,38010.74483
2020/8/18 13:59:37,315.634,34.815,37714.74011
2020/8/18 14:00:37,313.255,37.924,37438.87978
2020/8/18 14:01:37,310.487,40.931,37184.96257
2020/8/18 14:02:37,307.274,43.804,36954.69779
2020/8/18 14:03:37,303.559,46.501,36749.68532
2020/8/18 14:04:37,299.288,48.977,36571.39602
2020/8/18 14:05:37,294.418,51.176,36421.15205
2020/8/18 14:06:37,288.936,53.037,36300.10869
2020/8/18 14:07:37,282.874,54.495,36209.23714
2020/8/18 14:08:37,276.325,55.492,36149.3099
2020/8/18 14:09:37,269.45,55.979,36120.88829
2020/8/18 14:10:37,262.464,55.931,36124.31326
2020/8/18 14:11:37,255.6,55.347,36159.69946
2020/8/18 14:12:37,249.071,54.254,36226.93293
2020/8/18 14:13:37,243.03,52.7,36325.67244
2020/8/18 14:14:37,237.566,50.742,36455.35443
2020/8/18 14:15:37,232.704,48.444,36615.20143
2020/8/18 14:16:37,228.428,45.866,36804.23351
2020/8/18 14:17:37,224.693,43.062,37021.28249
2020/8/18 14:18:37,221.445,40.077,37265.00826
2020/8/18 14:19:37,218.625,36.951,37533.9168
2020/8/18 14:20:37,216.178,33.716,37826.3793
2020/8/18 14:21:37,214.055,30.398,38140.65179
2020/8/18 14:22:37,212.213,27.019,38474.89497
2020/8/18 14:23:37,210.614,23.596,38827.19353
2020/8/18 14:24:37,209.228,20.142,39195.57484
2020/8/18 14:25:37,208.028,16.67,39578.0266
2020/8/18 14:26:37,206.992,13.189,39972.51324
2020/8/18 14:27:37,206.103,9.705,40376.99099
2020/8/18 14:28:37,205.346,6.226,40789.42134
2020/8/18 14:29:37,204.709,2.755,41207.78325
2020/8/18 14:30:37,204.182,-0.703,41630.08365
2020/8/18 14:31:37,203.758,-4.145,42054.36673
2020/8/18 14:32:37,203.431,-7.569,42478.7217
2020/8/18 14:33:37,203.198,-10.973,42901.28951
2020/8/18 14:34:37,203.056,-14.355,43320.26831
2020/8/18 14:35:37,203.004,-17.714,43733.91801
2020/8/18 14:36:37,203.045,-21.049,44140.56383
2020/8/18 14:37:37,203.18,-24.358,44538.59921
2020/8/18 14:37:43,203.197,-24.67,44575.83525
2020/8/18 15:16:09,346.032,-25.044,44637.05681
2020/8/18 15:17:08,346.498,-21.658,44230.77772
2020/8/18 15:18:08,346.901,-18.189,43808.12877
2020/8/18 15:19:08,347.241,-14.679,43375.88701
2020/8/18 15:20:08,347.524,-11.128,42935.69476
2020/8/18 15:21:08,347.753,-7.535,42489.27472
2020/8/18 15:22:08,347.932,-3.899,42038.42819
2020/8/18 15:23:08,348.061,-0.219,41585.0325
2020/8/18 15:24:08,348.142,3.505,41131.03778
2020/8/18 15:25:08,348.174,7.275,40678.46263
2020/8/18 15:26:08,348.155,11.09,40229.38873
2020/8/18 15:27:08,348.085,14.951,39785.9542
2020/8/18 15:28:08,347.957,18.859,39350.34538
2020/8/18 15:29:08,347.767,22.813,38924.78713
2020/8/18 15:30:08,347.507,26.812,38511.5312
2020/8/18 15:31:08,347.166,30.856,38112.84283
2020/8/18 15:32:08,346.728,34.943,37730.9853
2020/8/18 15:33:08,346.175,39.071,37368.20242
2020/8/18 15:34:08,345.477,43.235,37026.69924
2020/8/18 15:35:08,344.595,47.432,36708.62069
2020/8/18 15:36:08,343.469,51.655,36416.02891
2020/8/18 15:37:08,342.013,55.894,36150.87919
2020/8/18 15:38:08,340.087,60.136,35914.99531
2020/8/18 15:39:08,337.464,64.361,35710.04464
2020/8/18 15:40:08,333.746,68.532,35537.51391
2020/8/18 15:41:08,328.189,72.586,35398.68616
2020/8/18 15:42:08,319.313,76.389,35294.61994
2020/8/18 15:43:08,304.189,79.63,35226.13123
2020/8/18 15:44:08,279.062,81.603,35193.7791
2020/8/18 15:45:08,248.314,81.374,35197.85539
2020/8/18 15:46:08,225.183,79.079,35238.37918
2020/8/18 15:47:08,211.526,75.685,35315.09599
2020/8/18 15:48:08,203.414,71.807,35427.48198
2020/8/18 15:49:08,198.245,67.708,35574.75281
2020/8/18 15:50:08,194.724,63.503,35755.87689
2020/8/18 15:51:08,192.192,59.25,35969.5924
2020/8/18 15:52:08,190.293,54.98,36214.42743
2020/8/18 15:53:08,188.82,50.714,36488.7225
2020/8/18 15:54:08,187.646,46.462,36790.65467
2020/8/18 15:55:08,186.689,42.235,37118.26234
2020/8/18 15:56:08,185.894,38.038,37469.47042
2020/8/18 15:57:08,185.222,33.876,37842.1146
2020/8/18 15:58:08,184.646,29.752,38233.96499
2020/8/18 15:59:08,184.145,25.668,38642.74796
2020/8/18 16:00:08,183.705,21.626,39066.16648
2020/8/18 16:01:08,183.314,17.627,39501.91846
2020/8/18 16:02:08,182.961,13.671,39947.71306
2020/8/18 16:03:08,182.641,9.758,40401.28506
2020/8/18 16:04:08,182.346,5.888,40860.40722
2020/8/18 16:05:08,182.072,2.06,41322.90073
2020/8/18 16:06:08,181.814,-1.727,41786.64409
2020/8/18 16:07:08,181.569,-5.473,42249.58025
2020/8/18 16:08:08,181.333,-9.181,42709.72243
2020/8/18 16:09:08,181.103,-12.852,43165.15868
2020/8/18 16:10:08,180.876,-16.486,43614.05537
2020/8/18 16:11:08,180.65,-20.085,44054.65973
2020/8/18 16:12:08,180.42,-23.652,44485.3016
2020/8/18 16:12:24,180.356,-24.622,44601.17639
2020/8/18 16:51:23,9.076,-24.962,44658.69568
2020/8/18 16:52:23,9.161,-21.473,44239.89649
2020/8/18 16:53:23,9.283,-17.938,43808.89341
2020/8/18 16:54:23,9.441,-14.372,43369.59889
2020/8/18 16:55:23,9.638,-10.776,42923.73251
2020/8/18 16:56:23,9.875,-7.149,42473.08786
2020/8/18 16:57:23,10.155,-3.489,42019.52965
2020/8/18 16:58:23,10.483,0.203,41564.99019
2020/8/18 16:59:23,10.863,3.929,41111.46484
2020/8/18 17:00:23,11.302,7.688,40661.00651
2020/8/18 17:01:23,11.807,11.479,40215.71885
2020/8/18 17:02:23,12.388,15.303,39777.7482
2020/8/18 17:03:23,13.057,19.157,39349.27394
2020/8/18 17:04:23,13.829,23.038,38932.49733
2020/8/18 17:05:23,14.725,26.944,38529.62853
2020/8/18 17:06:23,15.767,30.87,38142.87191
2020/8/18 17:07:23,16.989,34.81,37774.40951
2020/8/18 17:08:23,18.432,38.755,37426.38281
2020/8/18 17:09:23,20.151,42.694,37100.87284
2020/8/18 17:10:23,22.22,46.611,36799.87894
2020/8/18 17:11:23,24.738,50.487,36525.29648
2020/8/18 17:12:23,27.845,54.29,36278.89393
2020/8/18 17:13:23,31.729,57.98,36062.28986
2020/8/18 17:14:23,36.653,61.496,35876.93041
2020/8/18 17:15:23,42.958,64.747,35724.06802
2020/8/18 17:16:23,51.053,67.604,35604.74202
2020/8/18 17:17:23,61.289,69.882,35519.76179
2020/8/18 17:18:23,73.657,71.358,35469.69318
2020/8/18 17:19:23,87.393,71.831,35454.8487
2020/8/18 17:20:23,101.014,71.224,35475.2819
2020/8/18 17:21:23,113.101,69.636,35530.78617
2020/8/18 17:22:23,123.007,67.282,35620.8981
2020/8/18 17:23:23,130.798,64.381,35744.90511
2020/8/18 17:24:23,136.845,61.11,35901.85725
2020/8/18 17:25:23,141.551,57.594,36090.58252
2020/8/18 17:26:23,145.247,53.917,36309.70518
2020/8/18 17:27:23,148.183,50.138,36557.66657
2020/8/18 17:28:23,150.54,46.297,36832.74723
2020/8/18 17:29:23,152.45,42.422,37133.09042
2020/8/18 17:30:23,154.009,38.533,37456.72542
2020/8/18 17:31:23,155.286,34.644,37801.59094
2020/8/18 17:32:23,156.333,30.767,38165.55745
2020/8/18 17:33:23,157.19,26.911,38546.44847
2020/8/18 17:34:23,157.886,23.08,38942.06018
2020/8/18 17:35:23,158.443,19.281,39350.17951
2020/8/18 17:36:23,158.879,15.516,39768.60034
2020/8/18 17:37:23,159.207,11.787,40195.16175
2020/8/18 17:38:23,159.437,8.098,40627.66406
2020/8/18 17:39:23,159.575,4.45,41064.02486
2020/8/18 17:40:23,159.627,0.843,41502.191
2020/8/18 17:41:23,159.596,-2.722,41940.17047
2020/8/18 17:42:23,159.483,-6.243,42376.0386
2020/8/18 17:43:23,159.289,-9.722,42807.94301
2020/8/18 17:44:23,159.01,-13.157,43234.10752
2020/8/18 17:45:23,158.645,-16.548,43652.8351
2020/8/18 17:46:23,158.189,-19.893,44062.50999
2020/8/18 17:47:23,157.634,-23.194,44461.59919
2020/8/18 17:47:49,157.361,-24.611,44631.0785
2020/8/18 18:25:38,31.722,-24.834,44672.18124
2020/8/18 18:26:38,31.437,-21.764,44303.88952
2020/8/18 18:27:38,31.271,-18.664,43926.80752
2020/8/18 18:28:38,31.222,-15.542,43543.1469
2020/8/18 18:29:38,31.286,-12.402,43154.49383
2020/8/18 18:30:38,31.462,-9.245,42762.48928
2020/8/18 18:31:38,31.751,-6.075,42368.82473
2020/8/18 18:32:38,32.155,-2.895,41975.23735
2020/8/18 18:33:38,32.678,0.289,41583.5042
2020/8/18 18:34:38,33.326,3.475,41195.43564
2020/8/18 18:35:38,34.106,6.656,40812.86776
2020/8/18 18:36:38,35.027,9.826,40437.65376
2020/8/18 18:37:38,36.102,12.978,40071.65436
2020/8/18 18:38:38,37.342,16.102,39716.727
2020/8/18 18:39:38,38.764,19.188,39374.714
2020/8/18 18:40:38,40.386,22.225,39047.42971
2020/8/18 18:41:38,42.228,25.197,38736.64657
2020/8/18 18:42:38,44.312,28.086,38444.0804
2020/8/18 18:43:38,46.663,30.875,38171.37491
2020/8/18 18:44:38,49.306,33.539,37920.08584
2020/8/18 18:45:38,52.263,36.051,37691.66479
2020/8/18 18:46:38,55.557,38.383,37487.44326
2020/8/18 18:47:38,59.2,40.501,37308.61708
2020/8/18 18:48:38,63.196,42.371,37156.23189
2020/8/18 18:49:38,67.534,43.955,37031.16964
2020/8/18 18:50:38,72.18,45.22,36934.13709
2020/8/18 18:51:38,77.079,46.134,36865.65598
2020/8/18 18:52:38,82.152,46.673,36826.05597
2020/8/18 18:53:38,87.305,46.822,36815.4698
2020/8/18 18:54:38,92.432,46.579,36833.83163
2020/8/18 18:55:38,97.431,45.954,36880.87784
2020/8/18 18:56:38,102.212,44.966,36956.15114
2020/8/18 18:57:38,106.705,43.644,37059.0069
2020/8/18 18:58:38,110.865,42.022,37188.62249
2020/8/18 18:59:38,114.667,40.138,37344.00835
2020/8/18 19:00:38,118.106,38.028,37524.02143
2020/8/18 19:01:38,121.189,35.727,37727.37963
2020/8/18 19:02:38,123.935,33.267,37952.67778
2020/8/18 19:03:38,126.364,30.678,38198.40382
2020/8/18 19:04:38,128.501,27.984,38462.95576
2020/8/18 19:05:38,130.369,25.209,38744.65809
2020/8/18 19:06:38,131.993,22.37,39041.7782
2020/8/18 19:07:38,133.393,19.485,39352.54189
2020/8/18 19:08:38,134.588,16.568,39675.14823
2020/8/18 19:09:38,135.594,13.631,40007.78334
2020/8/18 19:10:38,136.426,10.684,40348.63297
2020/8/18 19:11:38,137.096,7.736,40695.89422
2020/8/18 19:12:38,137.613,4.795,41047.78574
2020/8/18 19:13:38,137.986,1.868,41402.55703
2020/8/18 19:14:38,138.221,-1.039,41758.49649
2020/8/18 19:15:38,138.322,-3.921,42113.93845
2020/8/18 19:16:38,138.292,-6.772,42467.26914
2020/8/18 19:17:38,138.133,-9.587,42816.93186
2020/8/18 19:18:38,137.845,-12.362,43161.4312
2020/8/18 19:19:38,137.426,-15.092,43499.33655
2020/8/18 19:20:38,136.875,-17.773,43829.28496
2020/8/18 19:21:38,136.187,-20.4,44149.98337
2020/8/18 19:22:38,135.357,-22.967,44460.21032
2020/8/18 19:23:17,134.732,-24.619,44657.87811
2020/8/18 19:57:18,53.11,-24.728,44680.04982
2020/8/18 19:58:17,52.491,-22.476,44410.43399
2020/8/18 19:59:17,52.01,-20.165,44130.77369
2020/8/18 20:00:17,51.671,-17.829,43845.4397
2020/8/18 20:01:17,51.469,-15.473,43555.71482
2020/8/18 20:02:17,51.402,-13.105,43262.91788
2020/8/18 20:03:17,51.466,-10.731,42968.3991
2020/8/18 20:04:17,51.662,-8.357,42673.53507
2020/8/18 20:05:17,51.987,-5.99,42379.72306
2020/8/18 20:06:17,52.444,-3.638,42088.37488
2020/8/18 20:07:17,53.031,-1.308,41800.9101
2020/8/18 20:08:17,53.751,0.993,41518.74872
2020/8/18 20:09:17,54.606,3.256,41243.30331
2020/8/18 20:10:17,55.598,5.471,40975.97061
2020/8/18 20:11:17,56.73,7.63,40718.12264
2020/8/18 20:12:17,58.003,9.722,40471.09743
2020/8/18 20:13:17,59.419,11.735,40236.18938
2020/8/18 20:14:17,60.98,13.659,40014.63945
2020/8/18 20:15:17,62.687,15.482,39807.62517
2020/8/18 20:16:17,64.538,17.19,39616.25075
2020/8/18 20:17:17,66.53,18.771,39441.53736
2020/8/18 20:18:17,68.658,20.213,39284.41378
2020/8/18 20:19:17,70.916,21.502,39145.70757
2020/8/18 20:20:17,73.291,22.627,39026.13706
2020/8/18 20:21:17,75.771,23.577,38926.30405
2020/8/18 20:22:17,78.338,24.342,38846.68787
2020/8/18 20:23:17,80.974,24.913,38787.64029
2020/8/18 20:24:17,83.656,25.287,38749.38218
2020/8/18 20:25:17,86.36,25.458,38732.00123
2020/8/18 20:26:17,89.062,25.427,38735.45144
2020/8/18 20:27:17,91.737,25.196,38759.55394
2020/8/18 20:28:17,94.36,24.768,38803.99947
2020/8/18 20:29:17,96.911,24.151,38868.35207
2020/8/18 20:30:17,99.368,23.353,38952.05447
2020/8/18 20:31:17,101.715,22.386,39054.43419
2020/8/18 20:32:17,103.94,21.261,39174.71134
2020/8/18 20:33:17,106.03,19.992,39312.00666
2020/8/18 20:34:17,107.978,18.591,39465.35092
2020/8/18 20:35:17,109.78,17.072,39633.6943
2020/8/18 20:36:17,111.432,15.449,39815.91654
2020/8/18 20:37:17,112.934,13.736,40010.83711
2020/8/18 20:38:17,114.286,11.944,40217.22526
2020/8/18 20:39:17,115.489,10.086,40433.81029
2020/8/18 20:40:17,116.547,8.173,40659.29128
2020/8/18 20:41:17,117.461,6.217,40892.34661
2020/8/18 20:42:17,118.236,4.228,41131.64288
2020/8/18 20:43:17,118.873,2.215,41375.84364
2020/8/18 20:44:17,119.376,0.187,41623.61727
2020/8/18 20:45:17,119.747,-1.847,41873.64441
2020/8/18 20:46:17,119.989,-3.879,42124.62479
2020/8/18 20:47:17,120.103,-5.902,42375.28351
2020/8/18 20:48:17,120.093,-7.908,42624.3766
2020/8/18 20:49:17,119.957,-9.891,42870.69624
2020/8/18 20:50:17,119.699,-11.843,43113.07519
2020/8/18 20:51:17,119.317,-13.757,43350.3909
2020/8/18 20:52:17,118.814,-15.627,43581.51544
2020/8/18 20:53:17,118.189,-17.448,43805.53438
2020/8/18 20:54:17,117.442,-19.211,44021.4239
2020/8/18 20:55:17,116.574,-20.911,44228.27126
2020/8/18 20:56:17,115.586,-22.541,44425.22198
2020/8/18 20:57:17,114.478,-24.095,44611.48138
2020/8/18 20:57:39,114.051,-24.633,44675.63676
2020/8/18 21:22:38,70.623,-24.852,44703.39858
2020/8/18 21:23:38,69.638,-23.455,44536.76758
2020/8/18 21:24:38,68.767,-21.989,44360.75703
2020/8/18 21:25:38,68.017,-20.472,44177.26171
2020/8/18 21:26:38,67.387,-18.91,43987.20042
2020/8/18 21:27:38,66.877,-17.311,43791.53022
2020/8/18 21:28:38,66.487,-15.682,43591.24339
2020/8/18 21:29:38,66.214,-14.03,43387.36374
2020/8/18 21:30:38,66.059,-12.362,43180.94264
2020/8/18 21:31:38,66.02,-10.686,42973.05478
2020/8/18 21:32:38,66.096,-9.008,42764.7934
2020/8/18 21:33:38,66.287,-7.337,42557.26521
2020/8/18 21:34:38,66.592,-5.679,42351.58487
2020/8/18 21:35:38,67.01,-4.042,42148.8691
2020/8/18 21:36:38,67.539,-2.435,41950.23047
2020/8/18 21:37:38,68.18,-0.864,41756.77074
2020/8/18 21:38:38,68.929,0.663,41569.57405
2020/8/18 21:39:38,69.787,2.136,41389.69974
2020/8/18 21:40:38,70.751,3.548,41218.17501
2020/8/18 21:41:38,71.817,4.89,41055.98755
2020/8/18 21:42:38,72.983,6.155,40904.07811
2020/8/18 21:43:38,74.244,7.333,40763.33302
2020/8/18 21:44:38,75.596,8.418,40634.57707
2020/8/18 21:45:38,77.032,9.401,40518.56661
2020/8/18 21:46:38,78.545,10.274,40415.98298
2020/8/18 21:47:38,80.127,11.032,40327.4265
2020/8/18 21:48:38,81.768,11.669,40253.41114
2020/8/18 21:49:38,83.458,12.178,40194.35981
2020/8/18 21:50:38,85.187,12.557,40150.60048
2020/8/18 21:51:38,86.941,12.802,40122.36325
2020/8/18 21:52:38,88.708,12.912,40109.7783
2020/8/18 21:53:38,90.476,12.885,40112.87484
2020/8/18 21:54:38,92.232,12.723,40131.58109
2020/8/18 21:55:38,93.963,12.427,40165.72527
2020/8/18 21:56:38,95.657,12.001,40215.03749
2020/8/18 21:57:38,97.304,11.449,40279.15268
2020/8/18 21:58:38,98.891,10.775,40357.61433
2020/8/18 21:59:38,100.411,9.987,40449.87905
2020/8/18 22:00:38,101.854,9.091,40555.32173
2020/8/18 22:01:38,103.214,8.094,40673.24154
2020/8/18 22:02:38,104.484,7.004,40802.86816
2020/8/18 22:03:38,105.659,5.83,40943.36843
2020/8/18 22:04:38,106.735,4.579,41093.85353
2020/8/18 22:05:38,107.709,3.26,41253.38598
2020/8/18 22:06:38,108.578,1.882,41420.98698
2020/8/18 22:07:38,109.341,0.453,41595.64349
2020/8/18 22:08:38,109.995,-1.019,41776.31553
2020/8/18 22:09:38,110.54,-2.526,41961.94301
2020/8/18 22:10:38,110.975,-4.059,42151.45254
2020/8/18 22:11:38,111.3,-5.611,42343.76389
2020/8/18 22:12:38,111.514,-7.174,42537.79616
2020/8/18 22:13:38,111.617,-8.741,42732.47368
2020/8/18 22:14:38,111.61,-10.304,42926.73148
2020/8/18 22:15:38,111.491,-11.856,43119.52054
2020/8/18 22:16:38,111.261,-13.391,43309.81252
2020/8/18 22:17:38,110.921,-14.901,43496.60434
2020/8/18 22:18:38,110.47,-16.379,43678.92226
2020/8/18 22:19:38,109.909,-17.818,43855.82573
2020/8/18 22:20:38,109.239,-19.212,44026.41086
2020/8/18 22:21:38,108.461,-20.554,44189.81369
2020/8/18 22:22:38,107.575,-21.836,44345.21302
2020/8/18 22:23:38,106.584,-23.054,44491.83316
2020/8/18 22:24:38,105.492,-24.199,44628.94623
2020/8/18 22:25:07,104.92,-24.732,44692.46789
2020/8/18 22:44:57,73.638,-24.86,44704.29376
2020/8/18 22:45:56,72.437,-23.744,44571.10694
2020/8/18 22:46:56,71.323,-22.535,44426.04534
2020/8/18 22:47:56,70.311,-21.249,44270.84214
2020/8/18 22:48:56,69.404,-19.893,44106.19046
2020/8/18 22:49:56,68.605,-18.472,43932.83689
2020/8/18 22:50:56,67.915,-16.993,43751.57969
2020/8/18 22:51:56,67.335,-15.462,43563.26682
2020/8/18 22:52:56,66.867,-13.886,43368.79359
2020/8/18 22:53:56,66.512,-12.273,43169.10019
2020/8/18 22:54:56,66.271,-10.628,42965.16875
2020/8/18 22:55:56,66.144,-8.958,42758.02005
2020/8/18 22:56:56,66.133,-7.271,42548.70994
2020/8/18 22:57:56,66.237,-5.574,42338.32522
2020/8/18 22:58:56,66.458,-3.874,42127.97922
2020/8/18 22:59:56,66.797,-2.179,41918.80677
2020/8/18 23:00:56,67.254,-0.496,41711.9588
2020/8/18 23:01:56,67.83,1.165,41508.59646
2020/8/18 23:02:56,68.526,2.797,41309.88467
2020/8/18 23:03:56,69.342,4.391,41116.98531
2020/8/18 23:04:56,70.278,5.937,40931.04989
2020/8/18 23:05:56,71.334,7.426,40753.21189
2020/8/18 23:06:56,72.509,8.848,40584.57865
2020/8/18 23:07:56,73.801,10.194,40426.22313
2020/8/18 23:08:56,75.206,11.453,40279.17544
2020/8/18 23:09:56,76.721,12.616,40144.41413
2020/8/18 23:10:56,78.341,13.672,40022.85778
2020/8/18 23:11:56,80.058,14.612,39915.35668
2020/8/18 23:12:56,81.864,15.427,39822.68461
2020/8/18 23:13:56,83.749,16.11,39745.53139
2020/8/18 23:14:56,85.702,16.651,39684.4959
2020/8/18 23:15:56,87.708,17.046,39640.0797
2020/8/18 23:16:56,89.755,17.289,39612.68183
2020/8/18 23:17:56,91.826,17.377,39602.59424
2020/8/18 23:18:56,93.906,17.307,39609.99871
2020/8/18 23:19:56,95.979,17.08,39634.96449
2020/8/18 23:20:56,98.028,16.697,39677.44759
2020/8/18 23:21:56,100.039,16.161,39737.29089
2020/8/18 23:22:56,101.998,15.475,39814.22583
2020/8/18 23:23:56,103.892,14.646,39907.87493
2020/8/18 23:24:56,105.708,13.681,40017.7557
2020/8/18 23:25:56,107.437,12.586,40143.28538
2020/8/18 23:26:56,109.071,11.371,40283.78664
2020/8/18 23:27:56,110.603,10.045,40438.49405
2020/8/18 23:28:56,112.027,8.616,40606.56116
2020/8/18 23:29:56,113.34,7.094,40787.0681
2020/8/18 23:30:56,114.537,5.489,40979.02952
2020/8/18 23:31:56,115.618,3.81,41181.40271
2020/8/18 23:32:56,116.58,2.066,41393.0958
2020/8/18 23:33:56,117.423,0.266,41612.97602
2020/8/18 23:34:56,118.145,-1.582,41839.87769
2020/8/18 23:35:56,118.747,-3.468,42072.61005
2020/8/18 23:36:56,119.229,-5.385,42309.96481
2020/8/18 23:37:56,119.589,-7.325,42550.72325
2020/8/18 23:38:56,119.827,-9.28,42793.6631
2020/8/18 23:39:56,119.943,-11.243,43037.56479
2020/8/18 23:40:56,119.936,-13.207,43281.21743
2020/8/18 23:41:56,119.803,-15.165,43523.42426
2020/8/18 23:42:56,119.543,-17.109,43763.00768
2020/8/18 23:43:56,119.155,-19.033,43998.81391
2020/8/18 23:44:56,118.635,-20.929,44229.71718
2020/8/18 23:45:56,117.982,-22.79,44454.62361
2020/8/18 23:46:56,117.191,-24.609,44672.47467
2020/8/18 23:47:12,116.954,-25.092,44729.899
2020/8/19 0:17:08,56.419,-24.829,44690.37135
2020/8/19 0:18:08,55.348,-22.822,44450.11939
2020/8/19 0:19:08,54.414,-20.739,44198.37206
2020/8/19 0:20:08,53.617,-18.59,43936.42465
2020/8/19 0:21:08,52.955,-16.38,43665.30266
2020/8/19 0:22:08,52.425,-14.117,43386.09491
2020/8/19 0:23:08,52.027,-11.806,43099.95181
2020/8/19 0:24:08,51.76,-9.454,42808.08314
2020/8/19 0:25:08,51.625,-7.066,42511.75551
2020/8/19 0:26:08,51.621,-4.649,42212.2892
2020/8/19 0:27:08,51.751,-2.208,41911.05469
2020/8/19 0:28:08,52.017,0.249,41609.46838
2020/8/19 0:29:08,52.422,2.714,41308.98772
2020/8/19 0:30:08,52.972,5.182,41011.10565
2020/8/19 0:31:08,53.671,7.642,40717.34418
2020/8/19 0:32:08,54.525,10.086,40429.24724
2020/8/19 0:33:08,55.543,12.504,40148.37258
2020/8/19 0:34:08,56.73,14.885,39876.28282
2020/8/19 0:35:08,58.097,17.216,39614.53559
2020/8/19 0:36:08,59.651,19.483,39364.67294
2020/8/19 0:37:08,61.402,21.672,39128.20969
2020/8/19 0:38:08,63.356,23.767,38906.62128
2020/8/19 0:39:08,65.521,25.748,38701.33107
2020/8/19 0:40:08,67.902,27.598,38513.69691
2020/8/19 0:41:08,70.498,29.295,38344.99797
2020/8/19 0:42:08,73.306,30.819,38196.42104
2020/8/19 0:43:08,76.317,32.149,38069.04766
2020/8/19 0:44:08,79.515,33.265,37963.84132
2020/8/19 0:45:08,82.876,34.147,37881.63602
2020/8/19 0:46:08,86.369,34.779,37823.12547
2020/8/19 0:47:08,89.957,35.149,37788.85431
2020/8/19 0:48:08,93.597,35.248,37779.21046
2020/8/19 0:49:08,97.243,35.072,37794.42
2020/8/19 0:50:08,100.848,34.624,37834.54353
2020/8/19 0:51:08,104.371,33.908,37899.47527
2020/8/19 0:52:08,107.773,32.938,37988.94388
2020/8/19 0:53:08,111.022,31.727,38102.51594
2020/8/19 0:54:08,114.093,30.292,38239.60102
2020/8/19 0:55:08,116.972,28.654,38399.45911
2020/8/19 0:56:08,119.646,26.831,38581.20936
2020/8/19 0:57:08,122.114,24.845,38783.84053
2020/8/19 0:58:08,124.374,22.714,39006.22241
2020/8/19 0:59:08,126.432,20.458,39247.11816
2020/8/19 1:00:08,128.294,18.094,39505.19725
2020/8/19 1:01:08,129.968,15.637,39779.04854
2020/8/19 1:02:08,131.462,13.103,40067.19351
2020/8/19 1:03:08,132.785,10.504,40368.09919
2020/8/19 1:04:08,133.946,7.853,40680.19068
2020/8/19 1:05:08,134.952,5.159,41001.86307
2020/8/19 1:06:08,135.811,2.433,41331.49276
2020/8/19 1:07:08,136.528,-0.317,41667.44783
2020/8/19 1:08:08,137.109,-3.084,42008.09763
2020/8/19 1:09:08,137.557,-5.86,42351.82155
2020/8/19 1:10:08,137.875,-8.64,42697.01683
2020/8/19 1:11:08,138.065,-11.418,43042.10555
2020/8/19 1:12:08,138.126,-14.188,43385.54076
2020/8/19 1:13:08,138.057,-16.946,43725.81192
2020/8/19 1:14:08,137.857,-19.686,44061.44953
2020/8/19 1:15:08,137.52,-22.403,44391.02916
2020/8/19 1:16:07,137.05,-25.053,44708.40722
2020/8/19 1:52:20,34.32,-24.841,44670.07067
2020/8/19 1:53:20,33.54,-21.921,44319.64407
2020/8/19 1:54:20,32.887,-18.924,43955.40246
2020/8/19 1:55:20,32.361,-15.876,43581.14967
2020/8/19 1:56:20,31.955,-12.779,43198.31049
2020/8/19 1:57:20,31.666,-9.636,42808.38554
2020/8/19 1:58:20,31.49,-6.45,42412.94944
2020/8/19 1:59:20,31.429,-3.222,42013.64834
2020/8/19 2:00:20,31.481,0.043,41612.19692
2020/8/19 2:01:20,31.651,3.343,41210.3745
2020/8/19 2:02:20,31.943,6.675,40810.02032
2020/8/19 2:03:20,32.364,10.035,40413.02774
2020/8/19 2:04:20,32.924,13.418,40021.33732
2020/8/19 2:05:20,33.633,16.82,39636.92864
2020/8/19 2:06:20,34.508,20.233,39261.81071
2020/8/19 2:07:20,35.568,23.651,38898.01091
2020/8/19 2:08:20,36.836,27.063,38547.5624
2020/8/19 2:09:20,38.342,30.457,38212.48998
2020/8/19 2:10:20,40.121,33.819,37894.79425
2020/8/19 2:11:20,42.218,37.13,37596.43461
2020/8/19 2:12:20,44.683,40.367,37319.31057
2020/8/19 2:13:20,47.579,43.502,37065.24237
2020/8/19 2:14:20,50.975,46.499,36835.9505
2020/8/19 2:15:20,54.946,49.312,36633.03521
2020/8/19 2:16:20,59.568,51.888,36457.95576
2020/8/19 2:17:20,64.901,54.163,36312.01075
2020/8/19 2:18:20,70.968,56.063,36196.31925
2020/8/19 2:19:20,77.728,57.513,36111.8042
2020/8/19 2:20:20,85.051,58.441,36059.1778
2020/8/19 2:21:20,92.711,58.794,36038.93009
2020/8/19 2:22:20,100.413,58.55,36051.32074
2020/8/19 2:23:20,107.854,57.721,36096.37455
2020/8/19 2:24:20,114.789,56.353,36173.88072
2020/8/19 2:25:20,121.062,54.51,36283.39605
2020/8/19 2:26:20,126.614,52.27,36424.25179
2020/8/19 2:27:20,131.456,49.704,36595.56401
2020/8/19 2:28:20,135.642,46.879,36796.247
2020/8/19 2:29:20,139.244,43.852,37025.02919
2020/8/19 2:30:20,142.34,40.668,37280.47123
2020/8/19 2:31:20,145.001,37.366,37560.98533
2020/8/19 2:32:20,147.292,33.976,37864.8556
2020/8/19 2:33:20,149.267,30.521,38190.25858
2020/8/19 2:34:20,150.972,27.021,38535.28369
2020/8/19 2:35:20,152.447,23.492,38897.95299
2020/8/19 2:36:20,153.721,19.945,39276.23999
2020/8/19 2:37:20,154.822,16.391,39668.08725
2020/8/19 2:38:20,155.771,12.837,40071.42259
2020/8/19 2:39:20,156.585,9.289,40484.17367
2020/8/19 2:40:20,157.278,5.752,40904.28116
2020/8/19 2:41:20,157.861,2.231,41329.71017
2020/8/19 2:42:20,158.345,-1.273,41758.46028
2020/8/19 2:43:20,158.735,-4.757,42188.57407
2020/8/19 2:44:20,159.037,-8.219,42618.14429
2020/8/19 2:45:20,159.255,-11.658,43045.31984
2020/8/19 2:46:20,159.39,-15.072,43468.31065
2020/8/19 2:47:20,159.444,-18.462,43885.39157
2020/8/19 2:48:20,159.415,-21.826,44294.90537
2020/8/19 2:49:16,159.311,-24.956,44670.48197
2020/8/19 3:27:54,11.34,-24.829,44639.41942
2020/8/19 3:28:54,10.916,-21.369,44223.66037
2020/8/19 3:29:54,10.548,-17.851,43794.63238
2020/8/19 3:30:54,10.232,-14.293,43356.21011
2020/8/19 3:31:54,9.963,-10.693,42910.07108
2020/8/19 3:32:54,9.738,-7.052,42457.9748
2020/8/19 3:33:54,9.553,-3.367,42001.76068
2020/8/19 3:34:54,9.407,0.362,41543.34524
2020/8/19 3:35:54,9.3,4.135,41084.71844
2020/8/19 3:36:54,9.229,7.955,40627.939
2020/8/19 3:37:54,9.197,11.822,40175.12851
2020/8/19 3:38:54,9.203,15.736,39728.46411
2020/8/19 3:39:54,9.252,19.698,39290.16978
2020/8/19 3:40:54,9.345,23.707,38862.50576
2020/8/19 3:41:54,9.489,27.765,38447.75624
2020/8/19 3:42:54,9.691,31.868,38048.21508
2020/8/19 3:43:54,9.962,36.018,37666.16938
2020/8/19 3:44:54,10.315,40.212,37303.88124
2020/8/19 3:45:54,10.77,44.447,36963.56734
2020/8/19 3:46:54,11.358,48.721,36647.37693
2020/8/19 3:47:54,12.121,53.029,36357.36818
2020/8/19 3:48:54,13.128,57.365,36095.48362
2020/8/19 3:49:54,14.488,61.72,35863.52485
2020/8/19 3:50:54,16.393,66.082,35663.12745
2020/8/19 3:51:54,19.199,70.43,35495.73666
2020/8/19 3:52:54,23.659,74.722,35362.58461
2020/8/19 3:53:54,31.591,78.862,35264.67005
2020/8/19 3:54:54,48.151,82.556,35202.74114
2020/8/19 3:55:54,85.242,84.719,35177.2822
2020/8/19 3:56:54,129.386,83.55,35188.50482
2020/8/19 3:57:54,151.336,80.176,35236.34386
2020/8/19 3:58:54,161.315,76.13,35320.45843
2020/8/19 3:59:54,166.679,71.869,35440.23778
2020/8/19 4:00:00,167.078,71.438,35454.1429
