sat_11node/group4-sr4.csv

Time (UTCG),Azimuth (deg),Elevation (deg),Range (km)
2020/8/18 4:00:00,182.198,43.395,36920.42786
2020/8/18 4:01:00,182.287,39.469,37241.29435
2020/8/18 4:02:00,182.373,35.582,37580.66615
2020/8/18 4:03:00,182.457,31.734,37936.79001
2020/8/18 4:04:00,182.542,27.928,38307.88284
2020/8/18 4:05:00,182.629,24.162,38692.14542
2020/8/18 4:06:00,182.718,20.437,39087.77462
2020/8/18 4:07:00,182.811,16.753,39492.97446
2020/8/18 4:08:00,182.909,13.11,39905.96579
2020/8/18 4:09:00,183.012,9.507,40324.99453
2020/8/18 4:10:00,183.122,5.942,40748.33893
2020/8/18 4:11:00,183.239,2.416,41174.31547
2020/8/18 4:12:00,183.366,-1.072,41601.2839
2020/8/18 4:13:00,183.502,-4.524,42027.65121
2020/8/18 4:14:00,183.65,-7.941,42451.87492
2020/8/18 4:15:00,183.811,-11.324,42872.46554
2020/8/18 4:16:00,183.986,-14.675,43287.98852
2020/8/18 4:17:00,184.178,-17.994,43697.06565
2020/8/18 4:18:00,184.39,-21.282,44098.37607
2020/8/18 4:19:00,184.623,-24.542,44490.65691
2020/8/18 4:19:12,184.672,-25.182,44566.92148
2020/8/18 5:01:15,348.374,-24.836,44526.86569
2020/8/18 5:02:14,348.394,-21.658,44145.99712
2020/8/18 5:03:14,348.373,-18.416,43752.0675
2020/8/18 5:04:14,348.31,-15.149,43350.92787
2020/8/18 5:05:14,348.206,-11.857,42943.89566
2020/8/18 5:06:14,348.06,-8.538,42532.34191
2020/8/18 5:07:14,347.871,-5.191,42117.68974
2020/8/18 5:08:14,347.636,-1.818,41701.41246
2020/8/18 5:09:14,347.353,1.583,41285.03109
2020/8/18 5:10:14,347.017,5.011,40870.1112
2020/8/18 5:11:14,346.624,8.467,40458.25907
2020/8/18 5:12:14,346.167,11.95,40051.11698
2020/8/18 5:13:14,345.638,15.458,39650.35759
2020/8/18 5:14:14,345.028,18.99,39257.67735
2020/8/18 5:15:14,344.325,22.545,38874.78882
2020/8/18 5:16:14,343.514,26.119,38503.41194
2020/8/18 5:17:14,342.575,29.709,38145.264
2020/8/18 5:18:14,341.487,33.309,37802.04877
2020/8/18 5:19:14,340.217,36.914,37475.44423
2020/8/18 5:20:14,338.728,40.515,37167.08937
2020/8/18 5:21:14,336.969,44.101,36878.57031
2020/8/18 5:22:14,334.875,47.658,36611.40536
2020/8/18 5:23:14,332.359,51.166,36367.02999
2020/8/18 5:24:14,329.305,54.599,36146.78123
2020/8/18 5:25:14,325.561,57.921,35951.88266
2020/8/18 5:26:14,320.927,61.081,35783.42949
2020/8/18 5:27:14,315.154,64.008,35642.37495
2020/8/18 5:28:14,307.962,66.603,35529.51768
2020/8/18 5:29:14,299.113,68.734,35445.49108
2020/8/18 5:30:14,288.581,70.242,35390.7545
2020/8/18 5:31:14,276.772,70.976,35365.58701
2020/8/18 5:32:14,264.591,70.843,35370.08353
2020/8/18 5:33:14,253.118,69.864,35404.15386
2020/8/18 5:34:14,243.114,68.158,35467.5243
2020/8/18 5:35:14,234.827,65.884,35559.7421
2020/8/18 5:36:14,228.14,63.197,35680.18238
2020/8/18 5:37:14,222.789,60.218,35828.0573
2020/8/18 5:38:14,218.5,57.035,36002.4273
2020/8/18 5:39:14,215.037,53.714,36202.21385
2020/8/18 5:40:14,212.219,50.299,36426.21355
2020/8/18 5:41:14,209.905,46.823,36673.11285
2020/8/18 5:42:14,207.99,43.31,36941.50344
2020/8/18 5:43:14,206.395,39.778,37229.89742
2020/8/18 5:44:14,205.061,36.239,37536.74249
2020/8/18 5:45:14,203.941,32.703,37860.43633
2020/8/18 5:46:14,203,29.179,38199.34045
2020/8/18 5:47:14,202.211,25.671,38551.79289
2020/8/18 5:48:14,201.553,22.185,38916.12003
2020/8/18 5:49:14,201.009,18.724,39290.64731
2020/8/18 5:50:14,200.565,15.29,39673.70858
2020/8/18 5:51:14,200.212,11.885,40063.65463
2020/8/18 5:52:14,199.942,8.512,40458.86043
2020/8/18 5:53:14,199.747,5.171,40857.73141
2020/8/18 5:54:14,199.625,1.862,41258.70884
2020/8/18 5:55:14,199.571,-1.413,41660.27424
2020/8/18 5:56:14,199.584,-4.655,42060.95309
2020/8/18 5:57:14,199.663,-7.862,42459.31787
2020/8/18 5:58:14,199.807,-11.036,42853.99048
2020/8/18 5:59:14,200.019,-14.175,43243.64412
2020/8/18 6:00:14,200.3,-17.28,43627.0048
2020/8/18 6:01:14,200.654,-20.351,44002.85243
2020/8/18 6:02:14,201.086,-23.386,44370.02168
2020/8/18 6:02:48,201.364,-25.07,44571.44918
2020/8/18 6:44:30,332.647,-24.741,44542.2663
2020/8/18 6:45:30,332.922,-21.861,44197.50064
2020/8/18 6:46:30,333.107,-18.943,43843.44133
2020/8/18 6:47:30,333.206,-16.002,43483.11414
2020/8/18 6:48:30,333.22,-13.041,43117.69623
2020/8/18 6:49:30,333.15,-10.061,42748.40681
2020/8/18 6:50:30,332.997,-7.062,42376.50541
2020/8/18 6:51:30,332.76,-4.047,42003.28942
2020/8/18 6:52:30,332.436,-1.018,41630.09153
2020/8/18 6:53:30,332.022,2.024,41258.27636
2020/8/18 6:54:30,331.513,5.076,40889.23671
2020/8/18 6:55:30,330.903,8.135,40524.38907
2020/8/18 6:56:30,330.185,11.196,40165.16851
2020/8/18 6:57:30,329.349,14.257,39813.02288
2020/8/18 6:58:30,328.385,17.312,39469.40629
2020/8/18 6:59:30,327.279,20.355,39135.77182
2020/8/18 7:00:30,326.015,23.378,38813.56344
2020/8/18 7:01:30,324.577,26.372,38504.20743
2020/8/18 7:02:30,322.941,29.328,38209.10296
2020/8/18 7:03:30,321.085,32.233,37929.61203
2020/8/18 7:04:30,318.979,35.071,37667.04918
2020/8/18 7:05:30,316.594,37.825,37422.67055
2020/8/18 7:06:30,313.895,40.474,37197.66305
2020/8/18 7:07:30,310.846,42.992,36993.13315
2020/8/18 7:08:30,307.414,45.351,36810.09634
2020/8/18 7:09:30,303.568,47.518,36649.46654
2020/8/18 7:10:30,299.288,49.455,36512.04659
2020/8/18 7:11:30,294.571,51.122,36398.51934
2020/8/18 7:12:30,289.441,52.479,36309.44012
2020/8/18 7:13:30,283.954,53.488,36245.23033
2020/8/18 7:14:30,278.202,54.117,36206.17281
2020/8/18 7:15:30,272.307,54.346,36192.40859
2020/8/18 7:16:30,266.412,54.166,36203.93573
2020/8/18 7:17:30,260.659,53.587,36240.60961
2020/8/18 7:18:30,255.172,52.629,36302.14534
2020/8/18 7:19:30,250.045,51.325,36388.12159
2020/8/18 7:20:30,245.333,49.713,36497.98626
2020/8/18 7:21:30,241.062,47.836,36631.06342
2020/8/18 7:22:30,237.229,45.733,36786.56154
2020/8/18 7:23:30,233.815,43.442,36963.58275
2020/8/18 7:24:30,230.79,40.997,37161.1328
2020/8/18 7:25:30,228.121,38.426,37378.13168
2020/8/18 7:26:30,225.77,35.755,37613.42434
2020/8/18 7:27:30,223.706,33.005,37865.79172
2020/8/18 7:28:30,221.896,30.194,38133.96142
2020/8/18 7:29:30,220.314,27.337,38416.61832
2020/8/18 7:30:30,218.934,24.447,38712.41454
2020/8/18 7:31:30,217.737,21.535,39019.97898
2020/8/18 7:32:30,216.702,18.609,39337.92632
2020/8/18 7:33:30,215.817,15.677,39664.86508
2020/8/18 7:34:30,215.066,12.744,39999.40523
2020/8/18 7:35:30,214.44,9.817,40340.16491
2020/8/18 7:36:30,213.93,6.9,40685.77663
2020/8/18 7:37:30,213.529,3.996,41034.89253
2020/8/18 7:38:30,213.23,1.109,41386.18922
2020/8/18 7:39:30,213.029,-1.758,41738.3719
2020/8/18 7:40:30,212.924,-4.602,42090.17797
2020/8/18 7:41:30,212.912,-7.422,42440.38009
2020/8/18 7:42:30,212.992,-10.215,42787.78882
2020/8/18 7:43:30,213.165,-12.979,43131.25484
2020/8/18 7:44:30,213.432,-15.712,43469.67077
2020/8/18 7:45:30,213.794,-18.412,43801.97272
2020/8/18 7:46:30,214.257,-21.077,44127.14151
2020/8/18 7:47:30,214.823,-23.704,44444.2037
2020/8/18 7:47:56,215.098,-24.811,44576.53453
2020/8/18 8:29:08,321.209,-24.69,44579.44788
2020/8/18 8:30:08,321.688,-22.21,44282.77977
2020/8/18 8:31:08,322.064,-19.687,43977.24698
2020/8/18 8:32:08,322.336,-17.138,43665.79267
2020/8/18 8:33:08,322.509,-14.568,43349.39307
2020/8/18 8:34:08,322.584,-11.978,43029.05793
2020/8/18 8:35:08,322.563,-9.371,42705.82883
2020/8/18 8:36:08,322.447,-6.751,42380.77708
2020/8/18 8:37:08,322.234,-4.12,42055.00151
2020/8/18 8:38:08,321.923,-1.481,41729.62578
2020/8/18 8:39:08,321.511,1.162,41405.7953
2020/8/18 8:40:08,320.996,3.806,41084.67387
2020/8/18 8:41:08,320.373,6.447,40767.43977
2020/8/18 8:42:08,319.636,9.079,40455.28149
2020/8/18 8:43:08,318.78,11.698,40149.39302
2020/8/18 8:44:08,317.796,14.297,39850.96863
2020/8/18 8:45:08,316.676,16.869,39561.1973
2020/8/18 8:46:08,315.41,19.408,39281.25657
2020/8/18 8:47:08,313.987,21.903,39012.30619
2020/8/18 8:48:08,312.396,24.345,38755.4813
2020/8/18 8:49:08,310.625,26.723,38511.88509
2020/8/18 8:50:08,308.66,29.022,38282.58171
2020/8/18 8:51:08,306.488,31.23,38068.58852
2020/8/18 8:52:08,304.098,33.33,37870.86841
2020/8/18 8:53:08,301.478,35.304,37690.32245
2020/8/18 8:54:08,298.622,37.134,37527.78219
2020/8/18 8:55:08,295.527,38.798,37384.00273
2020/8/18 8:56:08,292.196,40.277,37259.65581
2020/8/18 8:57:08,288.641,41.548,37155.3238
2020/8/18 8:58:08,284.882,42.593,37071.49409
2020/8/18 8:59:08,280.952,43.392,37008.5545
2020/8/18 9:00:08,276.892,43.932,36966.78945
2020/8/18 9:01:08,272.751,44.202,36946.37726
2020/8/18 9:02:08,268.586,44.197,36947.38843
2020/8/18 9:03:08,264.453,43.917,36969.7851
2020/8/18 9:04:08,260.408,43.369,37013.42161
2020/8/18 9:05:08,256.501,42.564,37078.04616
2020/8/18 9:06:08,252.77,41.517,37163.30358
2020/8/18 9:07:08,249.248,40.247,37268.73906
2020/8/18 9:08:08,245.952,38.774,37393.80288
2020/8/18 9:09:08,242.895,37.12,37537.85578
2020/8/18 9:10:08,240.078,35.305,37700.17522
2020/8/18 9:11:08,237.498,33.35,37879.962
2020/8/18 9:12:08,235.148,31.274,38076.34747
2020/8/18 9:13:08,233.016,29.095,38288.40083
2020/8/18 9:14:08,231.091,26.827,38515.13682
2020/8/18 9:15:08,229.36,24.487,38755.52317
2020/8/18 9:16:08,227.809,22.086,39008.4882
2020/8/18 9:17:08,226.427,19.635,39272.92822
2020/8/18 9:18:08,225.202,17.146,39547.71452
2020/8/18 9:19:08,224.123,14.625,39831.70023
2020/8/18 9:20:08,223.18,12.082,40123.72672
2020/8/18 9:21:08,222.365,9.523,40422.62634
2020/8/18 9:22:08,221.672,6.954,40727.24113
2020/8/18 9:23:08,221.092,4.38,41036.40867
2020/8/18 9:24:08,220.622,1.807,41348.97941
2020/8/18 9:25:08,220.256,-0.762,41663.81793
2020/8/18 9:26:08,219.992,-3.324,41979.80676
2020/8/18 9:27:08,219.826,-5.873,42295.8499
2020/8/18 9:28:08,219.758,-8.408,42610.87584
2020/8/18 9:29:08,219.787,-10.926,42924.03499
2020/8/18 9:30:08,219.912,-13.422,43233.92046
2020/8/18 9:31:08,220.136,-15.894,43539.74623
2020/8/18 9:32:08,220.458,-18.34,43840.56274
2020/8/18 9:33:08,220.884,-20.756,44135.45534
2020/8/18 9:34:08,221.415,-23.14,44423.54549
2020/8/18 9:34:45,221.801,-24.606,44599.13594
2020/8/18 10:15:43,318.324,-24.793,44643.26012
2020/8/18 10:16:42,318.931,-22.456,44363.58922
2020/8/18 10:17:42,319.436,-20.062,44073.94925
2020/8/18 10:18:42,319.837,-17.636,43777.69403
2020/8/18 10:19:42,320.136,-15.181,43475.71055
2020/8/18 10:20:42,320.337,-12.7,43168.92139
2020/8/18 10:21:42,320.441,-10.195,42858.28364
2020/8/18 10:22:42,320.449,-7.67,42544.78718
2020/8/18 10:23:42,320.361,-5.127,42229.4531
2020/8/18 10:24:42,320.176,-2.569,41913.3316
2020/8/18 10:25:42,319.891,0.001,41597.49971
2020/8/18 10:26:42,319.505,2.579,41283.0586
2020/8/18 10:27:42,319.013,5.161,40971.13058
2020/8/18 10:28:42,318.412,7.743,40662.85571
2020/8/18 10:29:42,317.694,10.32,40359.38797
2020/8/18 10:30:42,316.854,12.888,40061.89103
2020/8/18 10:31:42,315.884,15.439,39771.53362
2020/8/18 10:32:42,314.775,17.966,39489.48432
2020/8/18 10:33:42,313.516,20.463,39216.90608
2020/8/18 10:34:42,312.096,22.919,38954.95003
2020/8/18 10:35:42,310.504,25.324,38704.7492
2020/8/18 10:36:42,308.725,27.668,38467.41158
2020/8/18 10:37:42,306.747,29.936,38244.01285
2020/8/18 10:38:42,304.556,32.113,38035.58907
2020/8/18 10:39:42,302.139,34.183,37843.12885
2020/8/18 10:40:42,299.485,36.129,37667.56561
2020/8/18 10:41:42,296.586,37.929,37509.76984
2020/8/18 10:42:42,293.439,39.562,37370.5414
2020/8/18 10:43:42,290.049,41.008,37250.60219
2020/8/18 10:44:42,286.427,42.244,37150.58914
2020/8/18 10:45:42,282.596,43.248,37071.04788
2020/8/18 10:46:42,278.589,44.003,37012.42694
2020/8/18 10:47:42,274.45,44.493,36975.07295
2020/8/18 10:48:42,270.233,44.708,36959.22668
2020/8/18 10:49:42,265.996,44.641,36965.02017
2020/8/18 10:50:42,261.8,44.294,36992.47498
2020/8/18 10:51:42,257.7,43.673,37041.50162
2020/8/18 10:52:42,253.747,42.791,37111.90015
2020/8/18 10:53:42,249.983,41.664,37203.36196
2020/8/18 10:54:42,246.435,40.311,37315.47274
2020/8/18 10:55:42,243.123,38.753,37447.71636
2020/8/18 10:56:42,240.056,37.012,37599.47996
2020/8/18 10:57:42,237.235,35.109,37770.0596
2020/8/18 10:58:42,234.655,33.065,37958.66692
2020/8/18 10:59:42,232.308,30.9,38164.43609
2020/8/18 11:00:42,230.18,28.63,38386.43149
2020/8/18 11:01:42,228.259,26.272,38623.65536
2020/8/18 11:02:42,226.532,23.839,38875.05597
2020/8/18 11:03:42,224.984,21.346,39139.5354
2020/8/18 11:04:42,223.603,18.803,39415.95753
2020/8/18 11:05:42,222.378,16.219,39703.15584
2020/8/18 11:06:42,221.296,13.604,39999.94061
2020/8/18 11:07:42,220.35,10.964,40305.10614
2020/8/18 11:08:42,219.529,8.307,40617.43732
2020/8/18 11:09:42,218.827,5.639,40935.71594
2020/8/18 11:10:42,218.237,2.965,41258.72626
2020/8/18 11:11:42,217.754,0.288,41585.26037
2020/8/18 11:12:42,217.375,-2.386,41914.12293
2020/8/18 11:13:42,217.095,-5.054,42244.13539
2020/8/18 11:14:42,216.913,-7.713,42574.13986
2020/8/18 11:15:42,216.827,-10.36,42903.00243
2020/8/18 11:16:42,216.837,-12.992,43229.6161
2020/8/18 11:17:42,216.944,-15.606,43552.90337
2020/8/18 11:18:42,217.149,-18.2,43871.81834
2020/8/18 11:19:42,217.456,-20.77,44185.34864
2020/8/18 11:20:42,217.867,-23.315,44492.5169
2020/8/18 11:21:14,218.129,-24.653,44652.60569
2020/8/18 12:02:25,325.728,-25.065,44723.05385
2020/8/18 12:03:25,326.342,-22.444,44409.26899
2020/8/18 12:04:25,326.852,-19.771,44085.36759
2020/8/18 12:05:25,327.262,-17.062,43753.76076
2020/8/18 12:06:25,327.576,-14.319,43415.45304
2020/8/18 12:07:25,327.796,-11.543,43071.49479
2020/8/18 12:08:25,327.924,-8.737,42722.98107
2020/8/18 12:09:25,327.961,-5.902,42371.0505
2020/8/18 12:10:25,327.907,-3.04,42016.8838
2020/8/18 12:11:25,327.76,-0.153,41661.70188
2020/8/18 12:12:25,327.517,2.756,41306.7636
2020/8/18 12:13:25,327.176,5.685,40953.36314
2020/8/18 12:14:25,326.73,8.631,40602.82674
2020/8/18 12:15:25,326.173,11.591,40256.50896
2020/8/18 12:16:25,325.496,14.56,39915.78832
2020/8/18 12:17:25,324.69,17.534,39582.06222
2020/8/18 12:18:25,323.743,20.508,39256.74117
2020/8/18 12:19:25,322.639,23.474,38941.24228
2020/8/18 12:20:25,321.362,26.424,38636.98194
2020/8/18 12:21:25,319.89,29.35,38345.36769
2020/8/18 12:22:25,318.2,32.238,38067.78941
2020/8/18 12:23:25,316.264,35.076,37805.60971
2020/8/18 12:24:25,314.05,37.847,37560.15363
2020/8/18 12:25:25,311.522,40.531,37332.69793
2020/8/18 12:26:25,308.642,43.103,37124.45977
2020/8/18 12:27:25,305.37,45.536,36936.58532
2020/8/18 12:28:25,301.668,47.797,36770.13818
2020/8/18 12:29:25,297.505,49.847,36626.08812
2020/8/18 12:30:25,292.865,51.644,36505.30014
2020/8/18 12:31:25,287.756,53.145,36408.52424
2020/8/18 12:32:25,282.219,54.304,36336.38622
2020/8/18 12:33:25,276.338,55.083,36289.3796
2020/8/18 12:34:25,270.235,55.451,36267.85903
2020/8/18 12:35:25,264.064,55.392,36272.0353
2020/8/18 12:36:25,257.988,54.908,36301.97221
2020/8/18 12:37:25,252.154,54.015,36357.58519
2020/8/18 12:38:25,246.679,52.746,36438.64208
2020/8/18 12:39:25,241.638,51.139,36544.76548
2020/8/18 12:40:25,237.066,49.238,36675.43735
2020/8/18 12:41:25,232.965,47.087,36830.00486
2020/8/18 12:42:25,229.317,44.728,37007.6882
2020/8/18 12:43:25,226.087,42.196,37207.58924
2020/8/18 12:44:25,223.237,39.524,37428.72718
2020/8/18 12:45:25,220.727,36.739,37669.94838
2020/8/18 12:46:25,218.519,33.865,37930.08667
2020/8/18 12:47:25,216.578,30.92,38207.87704
2020/8/18 12:48:25,214.872,27.921,38501.99143
2020/8/18 12:49:25,213.374,24.882,38811.04989
2020/8/18 12:50:25,212.061,21.813,39133.6319
2020/8/18 12:51:25,210.912,18.724,39468.28674
2020/8/18 12:52:25,209.91,15.622,39813.54352
2020/8/18 12:53:25,209.041,12.515,40167.92052
2020/8/18 12:54:25,208.292,9.407,40529.93351
2020/8/18 12:55:25,207.654,6.302,40898.1036
2020/8/18 12:56:25,207.118,3.205,41270.96405
2020/8/18 12:57:25,206.677,0.118,41647.06649
2020/8/18 12:58:25,206.326,-2.956,42024.98622
2020/8/18 12:59:25,206.062,-6.014,42403.3269
2020/8/18 13:00:25,205.881,-9.056,42780.72454
2020/8/18 13:01:25,205.782,-12.079,43155.85087
2020/8/18 13:02:25,205.765,-15.083,43527.41619
2020/8/18 13:03:25,205.83,-18.065,43894.17169
2020/8/18 13:04:25,205.979,-21.025,44254.91133
2020/8/18 13:05:25,206.215,-23.962,44608.4734
2020/8/18 13:05:42,206.299,-24.795,44707.82172
2020/8/18 13:47:24,339.738,-25.23,44775.3928
2020/8/18 13:48:24,340.202,-22.211,44413.76518
2020/8/18 13:49:24,340.591,-19.14,44040.56743
2020/8/18 13:50:24,340.908,-16.033,43659.11244
2020/8/18 13:51:24,341.156,-12.892,43270.59411
2020/8/18 13:52:24,341.339,-9.716,42876.26184
2020/8/18 13:53:24,341.459,-6.505,42477.41963
2020/8/18 13:54:24,341.516,-3.26,42075.42507
2020/8/18 13:55:24,341.51,0.02,41671.68786
2020/8/18 13:56:24,341.44,3.335,41267.66784
2020/8/18 13:57:24,341.303,6.684,40864.87238
2020/8/18 13:58:24,341.097,10.067,40464.85321
2020/8/18 13:59:24,340.816,13.483,40069.20239
2020/8/18 14:00:24,340.453,16.931,39679.54743
2020/8/18 14:01:24,340,20.41,39297.5455
2020/8/18 14:02:24,339.446,23.918,38924.87658
2020/8/18 14:03:24,338.777,27.452,38563.23543
2020/8/18 14:04:24,337.974,31.008,38214.32243
2020/8/18 14:05:24,337.015,34.582,37879.8333
2020/8/18 14:06:24,335.869,38.169,37561.44752
2020/8/18 14:07:24,334.497,41.759,37260.81554
2020/8/18 14:08:24,332.847,45.344,36979.54523
2020/8/18 14:09:24,330.852,48.907,36719.18708
2020/8/18 14:10:24,328.418,52.432,36481.21892
2020/8/18 14:11:24,325.421,55.892,36267.03017
2020/8/18 14:12:24,321.69,59.25,36077.90592
2020/8/18 14:13:24,316.999,62.454,35915.01132
2020/8/18 14:14:24,311.049,65.428,35779.37661
2020/8/18 14:15:24,303.495,68.064,35671.88319
2020/8/18 14:16:24,294.027,70.214,35593.25123
2020/8/18 14:17:24,282.598,71.692,35544.02912
2020/8/18 14:18:24,269.743,72.321,35524.58521
2020/8/18 14:19:24,256.642,72.008,35535.10205
2020/8/18 14:20:24,244.604,70.797,35575.57339
2020/8/18 14:21:24,234.414,68.846,35645.80397
2020/8/18 14:22:24,226.194,66.341,35745.41231
2020/8/18 14:23:24,219.694,63.445,35873.83601
2020/8/18 14:24:24,214.564,60.282,36030.33985
2020/8/18 14:25:24,210.486,56.936,36214.02595
2020/8/18 14:26:24,207.207,53.467,36423.84606
2020/8/18 14:27:24,204.54,49.917,36658.6151
2020/8/18 14:28:24,202.343,46.314,36917.02618
2020/8/18 14:29:24,200.514,42.681,37197.66588
2020/8/18 14:30:24,198.977,39.032,37499.03028
2020/8/18 14:31:24,197.674,35.379,37819.5405
2020/8/18 14:32:24,196.562,31.732,38157.55822
2020/8/18 14:33:24,195.608,28.096,38511.40021
2020/8/18 14:34:24,194.784,24.477,38879.35232
2020/8/18 14:35:24,194.071,20.878,39259.68213
2020/8/18 14:36:24,193.453,17.303,39650.65075
2020/8/18 14:37:24,192.917,13.753,40050.52336
2020/8/18 14:38:24,192.452,10.23,40457.57844
2020/8/18 14:39:24,192.05,6.736,40870.11604
2020/8/18 14:40:24,191.704,3.27,41286.46477
2020/8/18 14:41:24,191.409,-0.167,41704.98788
2020/8/18 14:42:24,191.161,-3.575,42124.08827
2020/8/18 14:43:24,190.956,-6.954,42542.2127
2020/8/18 14:44:24,190.792,-10.305,42957.85515
2020/8/18 14:45:24,190.667,-13.628,43369.55957
2020/8/18 14:46:24,190.579,-16.924,43775.92199
2020/8/18 14:47:24,190.53,-20.194,44175.59213
2020/8/18 14:48:24,190.517,-23.438,44567.27461
2020/8/18 14:48:52,190.525,-24.925,44744.77852
2020/8/18 15:30:55,356.4,-25.207,44785.40858
2020/8/18 15:31:54,356.617,-21.994,44400.04245
2020/8/18 15:32:54,356.819,-18.706,43999.86008
2020/8/18 15:33:54,357.006,-15.388,43591.63445
2020/8/18 15:34:54,357.179,-12.038,43176.67605
2020/8/18 15:35:54,357.34,-8.656,42756.35409
2020/8/18 15:36:54,357.493,-5.239,42332.09557
2020/8/18 15:37:54,357.637,-1.788,41905.38406
2020/8/18 15:38:54,357.774,1.7,41477.75796
2020/8/18 15:39:54,357.907,5.225,41050.80807
2020/8/18 15:40:54,358.037,8.789,40626.17445
2020/8/18 15:41:54,358.164,12.392,40205.54247
2020/8/18 15:42:54,358.291,16.035,39790.6379
2020/8/18 15:43:54,358.418,19.719,39383.22091
2020/8/18 15:44:54,358.549,23.443,38985.07896
2020/8/18 15:45:54,358.685,27.209,38598.0184
2020/8/18 15:46:54,358.828,31.016,38223.85472
2020/8/18 15:47:54,358.981,34.863,37864.40155
2020/8/18 15:48:54,359.149,38.751,37521.45825
2020/8/18 15:49:54,359.336,42.677,37196.79602
2020/8/18 15:50:54,359.551,46.642,36892.14314
2020/8/18 15:51:54,359.801,50.642,36609.16874
2020/8/18 15:52:54,0.102,54.676,36349.46613
2020/8/18 15:53:54,0.476,58.741,36114.53524
2020/8/18 15:54:54,0.957,62.833,35905.76518
2020/8/18 15:55:54,1.606,66.95,35724.41675
2020/8/18 15:56:54,2.537,71.085,35571.60595
2020/8/18 15:57:54,3.989,75.232,35448.28837
2020/8/18 15:58:54,6.581,79.377,35355.24552
2020/8/18 15:59:54,12.475,83.483,35293.07304
2020/8/18 16:00:54,36.432,87.308,35262.17164
2020/8/18 16:01:54,138.633,87.29,35262.74083
2020/8/18 16:02:54,162.332,83.461,35294.77579
2020/8/18 16:03:54,168.18,79.353,35358.06744
2020/8/18 16:04:54,170.743,75.207,35452.20573
2020/8/18 16:05:54,172.165,71.059,35576.58611
2020/8/18 16:06:54,173.061,66.922,35730.41875
2020/8/18 16:07:54,173.669,62.803,35912.74027
2020/8/18 16:08:54,174.102,58.708,36122.42773
2020/8/18 16:09:54,174.421,54.64,36358.21398
2020/8/18 16:10:54,174.659,50.603,36618.70446
2020/8/18 16:11:54,174.839,46.599,36902.39433
2020/8/18 16:12:54,174.974,42.631,37207.68617
2020/8/18 16:13:54,175.073,38.701,37532.90712
2020/8/18 16:14:54,175.144,34.809,37876.32578
2020/8/18 16:15:54,175.189,30.958,38236.16795
2020/8/18 16:16:54,175.214,27.146,38610.63166
2020/8/18 16:17:54,175.219,23.376,38997.90063
2020/8/18 16:18:54,175.206,19.647,39396.15668
2020/8/18 16:19:54,175.178,15.959,39803.59075
2020/8/18 16:20:54,175.133,12.312,40218.41243
2020/8/18 16:21:54,175.073,8.705,40638.85838
2020/8/18 16:22:54,174.997,5.138,41063.19943
2020/8/18 16:23:54,174.905,1.609,41489.74659
2020/8/18 16:24:54,174.797,-1.881,41916.85599
2020/8/18 16:25:54,174.671,-5.335,42342.93295
2020/8/18 16:26:54,174.527,-8.753,42766.43518
2020/8/18 16:27:54,174.362,-12.136,43185.87531
2020/8/18 16:28:54,174.176,-15.486,43599.82286
2020/8/18 16:29:54,173.965,-18.803,44006.9056
2020/8/18 16:30:54,173.728,-22.088,44405.81057
2020/8/18 16:31:48,173.489,-25.002,44754.75587
2020/8/18 17:13:51,13.385,-25.083,44761.55546
2020/8/18 17:14:51,13.331,-21.903,44379.67001
2020/8/18 17:15:51,13.326,-18.697,43989.24878
2020/8/18 17:16:51,13.369,-15.465,43591.62612
2020/8/18 17:17:51,13.457,-12.208,43188.09766
2020/8/18 17:18:51,13.594,-8.925,42780.01213
2020/8/18 17:19:51,13.778,-5.615,42368.7699
2020/8/18 17:20:51,14.013,-2.279,41955.82131
2020/8/18 17:21:51,14.301,1.085,41542.66428
2020/8/18 17:22:51,14.647,4.475,41130.8414
2020/8/18 17:23:51,15.055,7.892,40721.93615
2020/8/18 17:24:51,15.532,11.334,40317.56844
2020/8/18 17:25:51,16.086,14.8,39919.38915
2020/8/18 17:26:51,16.727,18.289,39529.07373
2020/8/18 17:27:51,17.467,21.799,39148.31475
2020/8/18 17:28:51,18.321,25.325,38778.81334
2020/8/18 17:29:51,19.308,28.864,38422.26943
2020/8/18 17:30:51,20.452,32.411,38080.37101
2020/8/18 17:31:51,21.783,35.958,37754.78223
2020/8/18 17:32:51,23.34,39.497,37447.13029
2020/8/18 17:33:51,25.17,43.016,37158.99184
2020/8/18 17:34:51,27.337,46.498,36891.87821
2020/8/18 17:35:51,29.922,49.924,36647.22056
2020/8/18 17:36:51,33.031,53.267,36426.33513
2020/8/18 17:37:51,36.799,56.489,36230.48725
2020/8/18 17:38:51,41.396,59.541,36060.75555
2020/8/18 17:39:51,47.023,62.353,35918.10062
2020/8/18 17:40:51,53.891,64.836,35803.33133
2020/8/18 17:41:51,62.155,66.872,35717.09406
2020/8/18 17:42:51,71.799,68.328,35659.8637
2020/8/18 17:43:51,82.493,69.078,35631.9371
2020/8/18 17:44:51,93.557,69.044,35633.42887
2020/8/18 17:45:51,104.165,68.232,35664.27005
2020/8/18 17:46:51,113.668,66.726,35724.20931
2020/8/18 17:47:51,121.771,64.657,35812.81695
2020/8/18 17:48:51,128.481,62.158,35929.49133
2020/8/18 17:49:51,133.966,59.343,36073.46769
2020/8/18 17:50:51,138.435,56.301,36243.82893
2020/8/18 17:51:51,142.087,53.098,36439.51801
2020/8/18 17:52:51,145.089,49.782,36659.35174
2020/8/18 17:53:51,147.571,46.391,36902.03526
2020/8/18 17:54:51,149.638,42.949,37166.17723
2020/8/18 17:55:51,151.367,39.478,37450.30494
2020/8/18 17:56:51,152.82,35.991,37752.87938
2020/8/18 17:57:51,154.044,32.501,38072.30969
2020/8/18 17:58:51,155.075,29.016,38406.96705
2020/8/18 17:59:51,155.942,25.543,38755.19751
2020/8/18 18:00:51,156.669,22.088,39115.33398
2020/8/18 18:01:51,157.272,18.655,39485.70708
2020/8/18 18:02:51,157.766,15.247,39864.65478
2020/8/18 18:03:51,158.163,11.866,40250.53107
2020/8/18 18:04:51,158.47,8.515,40641.7135
2020/8/18 18:05:51,158.694,5.194,41036.60964
2020/8/18 18:06:51,158.841,1.906,41433.66271
2020/8/18 18:07:51,158.914,-1.349,41831.35618
2020/8/18 18:08:51,158.916,-4.571,42228.21771
2020/8/18 18:09:51,158.847,-7.758,42622.82234
2020/8/18 18:10:51,158.708,-10.911,43013.79505
2020/8/18 18:11:51,158.497,-14.029,43399.8128
2020/8/18 18:12:51,158.212,-17.111,43779.60616
2020/8/18 18:13:51,157.85,-20.158,44151.96044
2020/8/18 18:14:51,157.407,-23.168,44515.71661
2020/8/18 18:15:27,157.096,-24.976,44731.71968
2020/8/18 18:57:11,28.754,-24.922,44713.22045
2020/8/18 18:58:10,28.452,-22.108,44375.29156
2020/8/18 18:59:10,28.239,-19.238,44026.06668
2020/8/18 19:00:10,28.116,-16.344,43670.55013
2020/8/18 19:01:10,28.08,-13.429,43309.89142
2020/8/18 19:02:10,28.13,-10.494,42945.28201
2020/8/18 19:03:10,28.265,-7.54,42577.95365
2020/8/18 19:04:10,28.487,-4.57,42209.17617
2020/8/18 19:05:10,28.797,-1.585,41840.25494
2020/8/18 19:06:10,29.199,1.412,41472.52777
2020/8/18 19:07:10,29.696,4.42,41107.36124
2020/8/18 19:08:10,30.296,7.434,40746.14641
2020/8/18 19:09:10,31.004,10.451,40390.29384
2020/8/18 19:10:10,31.83,13.467,40041.22804
2020/8/18 19:11:10,32.784,16.476,39700.38103
2020/8/18 19:12:10,33.879,19.472,39369.18531
2020/8/18 19:13:10,35.13,22.449,39049.06596
2020/8/18 19:14:10,36.553,25.396,38741.43222
2020/8/18 19:15:10,38.168,28.305,38447.66828
2020/8/18 19:16:10,39.999,31.161,38169.12337
2020/8/18 19:17:10,42.07,33.951,37907.10174
2020/8/18 19:18:10,44.411,36.658,37662.85178
2020/8/18 19:19:10,47.051,39.259,37437.55536
2020/8/18 19:20:10,50.023,41.733,37232.31681
2020/8/18 19:21:10,53.356,44.05,37048.15236
2020/8/18 19:22:10,57.076,46.18,36885.97965
2020/8/18 19:23:10,61.2,48.087,36746.60825
2020/8/18 19:24:10,65.729,49.735,36630.73063
2020/8/18 19:25:10,70.64,51.086,36538.91459
2020/8/18 19:26:10,75.885,52.104,36471.59667
2020/8/18 19:27:10,81.382,52.76,36429.07735
2020/8/18 19:28:10,87.022,53.033,36411.5175
2020/8/18 19:29:10,92.681,52.915,36418.93694
2020/8/18 19:30:10,98.23,52.411,36451.21444
2020/8/18 19:31:10,103.553,51.539,36508.08973
2020/8/18 19:32:10,108.561,50.327,36589.167
2020/8/18 19:33:10,113.194,48.81,36693.92018
2020/8/18 19:34:10,117.423,47.027,36821.69951
2020/8/18 19:35:10,121.241,45.014,36971.73948
2020/8/18 19:36:10,124.662,42.808,37143.16778
2020/8/18 19:37:10,127.709,40.442,37335.01496
2020/8/18 19:38:10,130.41,37.945,37546.22485
2020/8/18 19:39:10,132.797,35.342,37775.66514
2020/8/18 19:40:10,134.901,32.655,38022.13824
2020/8/18 19:41:10,136.752,29.901,38284.39192
2020/8/18 19:42:10,138.374,27.097,38561.12986
2020/8/18 19:43:10,139.792,24.256,38851.02169
2020/8/18 19:44:10,141.026,21.389,39152.71253
2020/8/18 19:45:10,142.095,18.504,39464.83211
2020/8/18 19:46:10,143.012,15.611,39786.00292
2020/8/18 19:47:10,143.791,12.716,40114.84795
2020/8/18 19:48:10,144.443,9.824,40449.99758
2020/8/18 19:49:10,144.978,6.94,40790.09589
2020/8/18 19:50:10,145.401,4.068,41133.80608
2020/8/18 19:51:10,145.719,1.213,41479.81542
2020/8/18 19:52:10,145.938,-1.623,41826.83957
2020/8/18 19:53:10,146.059,-4.438,42173.62623
2020/8/18 19:54:10,146.085,-7.227,42518.95834
2020/8/18 19:55:10,146.018,-9.991,42861.65677
2020/8/18 19:56:10,145.856,-12.725,43200.58264
2020/8/18 19:57:10,145.6,-15.428,43534.63914
2020/8/18 19:58:10,145.248,-18.097,43862.77311
2020/8/18 19:59:10,144.795,-20.731,44183.97625
2020/8/18 20:00:10,144.238,-23.328,44497.28615
2020/8/18 20:00:46,143.854,-24.857,44680.05749
2020/8/18 20:42:01,39.552,-24.758,44649.54281
2020/8/18 20:43:00,39.056,-22.326,44357.325
2020/8/18 20:44:00,38.661,-19.833,44054.48246
2020/8/18 20:45:00,38.37,-17.314,43745.65599
2020/8/18 20:46:00,38.178,-14.772,43431.80315
2020/8/18 20:47:00,38.084,-12.209,43113.91578
2020/8/18 20:48:00,38.088,-9.627,42793.01847
2020/8/18 20:49:00,38.187,-7.031,42470.16659
2020/8/18 20:50:00,38.383,-4.423,42146.4441
2020/8/18 20:51:00,38.677,-1.805,41822.96098
2020/8/18 20:52:00,39.072,0.817,41500.92013
2020/8/18 20:53:00,39.571,3.442,41181.33398
2020/8/18 20:54:00,40.178,6.064,40865.44125
2020/8/18 20:55:00,40.898,8.679,40554.42219
2020/8/18 20:56:00,41.738,11.281,40249.46396
2020/8/18 20:57:00,42.705,13.865,39951.75558
2020/8/18 20:58:00,43.808,16.423,39662.48223
2020/8/18 20:59:00,45.056,18.948,39382.81921
2020/8/18 21:00:00,46.459,21.431,39113.92557
2020/8/18 21:01:00,48.028,23.861,38856.93716
2020/8/18 21:02:00,49.777,26.228,38612.95945
2020/8/18 21:03:00,51.717,28.518,38383.06021
2020/8/18 21:04:00,53.861,30.718,38168.26179
2020/8/18 21:05:00,56.221,32.811,37969.53338
2020/8/18 21:06:00,58.807,34.779,37787.78348
2020/8/18 21:07:00,61.625,36.605,37623.85218
2020/8/18 21:08:00,64.679,38.267,37478.50406
2020/8/18 21:09:00,67.965,39.746,37352.42116
2020/8/18 21:10:00,71.472,41.02,37246.19683
2020/8/18 21:11:00,75.179,42.07,37160.32995
2020/8/18 21:12:00,79.056,42.879,37095.2202
2020/8/18 21:13:00,83.063,43.43,37051.16406
2020/8/18 21:14:00,87.152,43.714,37028.35194
2020/8/18 21:15:00,91.269,43.726,37026.86633
2020/8/18 21:16:00,95.358,43.466,37046.68109
2020/8/18 21:17:00,99.364,42.938,37087.66189
2020/8/18 21:18:00,103.239,42.155,37149.56777
2020/8/18 21:19:00,106.944,41.131,37232.05377
2020/8/18 21:20:00,110.447,39.884,37334.67467
2020/8/18 21:21:00,113.729,38.435,37456.88955
2020/8/18 21:22:00,116.777,36.803,37598.06728
2020/8/18 21:23:00,119.59,35.01,37757.4927
2020/8/18 21:24:00,122.168,33.076,37934.37325
2020/8/18 21:25:00,124.52,31.019,38127.84631
2020/8/18 21:26:00,126.655,28.859,38336.98649
2020/8/18 21:27:00,128.584,26.609,38560.81345
2020/8/18 21:28:00,130.322,24.286,38798.29944
2020/8/18 21:29:00,131.879,21.901,39048.377
2020/8/18 21:30:00,133.268,19.466,39309.94646
2020/8/18 21:31:00,134.5,16.991,39581.88308
2020/8/18 21:32:00,135.587,14.485,39863.04397
2020/8/18 21:33:00,136.537,11.956,40152.27461
2020/8/18 21:34:00,137.359,9.411,40448.41509
2020/8/18 21:35:00,138.06,6.856,40750.30559
2020/8/18 21:36:00,138.647,4.296,41056.79176
2020/8/18 21:37:00,139.124,1.736,41366.72944
2020/8/18 21:38:00,139.498,-0.82,41678.989
2020/8/18 21:39:00,139.769,-3.368,41992.45921
2020/8/18 21:40:00,139.942,-5.904,42306.05069
2020/8/18 21:41:00,140.018,-8.425,42618.69899
2020/8/18 21:42:00,139.998,-10.929,42929.36718
2020/8/18 21:43:00,139.882,-13.411,43237.04824
2020/8/18 21:44:00,139.668,-15.87,43540.76694
2020/8/18 21:45:00,139.355,-18.302,43839.58158
2020/8/18 21:46:00,138.941,-20.705,44132.58534
2020/8/18 21:47:00,138.422,-23.076,44418.90738
2020/8/18 21:47:45,137.962,-24.828,44628.50182
2020/8/18 22:28:47,41.449,-24.712,44593.00235
2020/8/18 22:29:46,40.841,-22.375,44312.28805
2020/8/18 22:30:46,40.332,-19.966,44019.87905
2020/8/18 22:31:46,39.928,-17.524,43720.7734
2020/8/18 22:32:46,39.625,-15.052,43415.86465
2020/8/18 22:33:46,39.421,-12.551,43106.08378
2020/8/18 22:34:46,39.314,-10.026,42792.39807
2020/8/18 22:35:46,39.304,-7.479,42475.80941
2020/8/18 22:36:46,39.391,-4.913,42157.35269
2020/8/18 22:37:46,39.576,-2.33,41838.09366
2020/8/18 22:38:46,39.861,0.265,41519.12655
2020/8/18 22:39:46,40.249,2.869,41201.57129
2020/8/18 22:40:46,40.744,5.479,40886.57041
2020/8/18 22:41:46,41.351,8.09,40575.28547
2020/8/18 22:42:46,42.075,10.697,40268.89306
2020/8/18 22:43:46,42.925,13.294,39968.58037
2020/8/18 22:44:46,43.907,15.875,39675.54031
2020/8/18 22:45:46,45.032,18.434,39390.96602
2020/8/18 22:46:46,46.31,20.961,39116.04511
2020/8/18 22:47:46,47.753,23.447,38851.95314
2020/8/18 22:48:46,49.375,25.882,38599.84697
2020/8/18 22:49:46,51.188,28.253,38360.85747
2020/8/18 22:50:46,53.208,30.547,38136.08186
2020/8/18 22:51:46,55.449,32.747,37926.57601
2020/8/18 22:52:46,57.925,34.838,37733.34619
2020/8/18 22:53:46,60.646,36.799,37557.34103
2020/8/18 22:54:46,63.622,38.609,37399.44328
2020/8/18 22:55:46,66.855,40.247,37260.46195
2020/8/18 22:56:46,70.341,41.689,37141.12455
2020/8/18 22:57:46,74.065,42.913,37042.06993
2020/8/18 22:58:46,78.003,43.898,36963.84174
2020/8/18 22:59:46,82.118,44.623,36906.88255
2020/8/18 23:00:46,86.361,45.073,36871.52904
2020/8/18 23:01:46,90.676,45.239,36858.00808
2020/8/18 23:02:46,94.999,45.116,36866.43402
2020/8/18 23:03:46,99.267,44.706,36896.80717
2020/8/18 23:04:46,103.422,44.018,36949.01356
2020/8/18 23:05:46,107.412,43.066,37022.82584
2020/8/18 23:06:46,111.199,41.866,37117.90563
2020/8/18 23:07:46,114.754,40.442,37233.80679
2020/8/18 23:08:46,118.06,38.814,37369.98005
2020/8/18 23:09:46,121.112,37.005,37525.77833
2020/8/18 23:10:46,123.91,35.039,37700.46326
2020/8/18 23:11:46,126.461,32.935,37893.21204
2020/8/18 23:12:46,128.778,30.713,38103.12517
2020/8/18 23:13:46,130.872,28.391,38329.23432
2020/8/18 23:14:46,132.758,25.986,38570.51069
2020/8/18 23:15:46,134.451,23.51,38825.87319
2020/8/18 23:16:46,135.966,20.977,39094.19681
2020/8/18 23:17:46,137.314,18.397,39374.3208
2020/8/18 23:18:46,138.509,15.781,39665.05641
2020/8/18 23:19:46,139.561,13.136,39965.19447
2020/8/18 23:20:46,140.481,10.471,40273.5126
2020/8/18 23:21:46,141.276,7.79,40588.78169
2020/8/18 23:22:46,141.955,5.101,40909.77214
2020/8/18 23:23:46,142.523,2.407,41235.25949
2020/8/18 23:24:46,142.986,-0.287,41564.02951
2020/8/18 23:25:46,143.348,-2.976,41894.88279
2020/8/18 23:26:46,143.611,-5.658,42226.63881
2020/8/18 23:27:46,143.779,-8.33,42558.13957
2020/8/18 23:28:46,143.851,-10.988,42888.25263
2020/8/18 23:29:46,143.829,-13.631,43215.87392
2020/8/18 23:30:46,143.711,-16.254,43539.92997
2020/8/18 23:31:46,143.495,-18.857,43859.37987
2020/8/18 23:32:46,143.179,-21.436,44173.2169
2020/8/18 23:33:46,142.759,-23.99,44480.46986
2020/8/18 23:34:09,142.569,-24.964,44596.70921
2020/8/19 0:15:27,33.149,-24.855,44563.60293
2020/8/19 0:16:26,32.555,-22.205,44245.77066
2020/8/19 0:17:26,32.058,-19.481,43915.07699
2020/8/19 0:18:26,31.659,-16.721,43576.65271
2020/8/19 0:19:26,31.357,-13.925,43231.53122
2020/8/19 0:20:26,31.147,-11.095,42880.7938
2020/8/19 0:21:26,31.028,-8.235,42525.56847
2020/8/19 0:22:26,31,-5.344,42167.02872
2020/8/19 0:23:26,31.063,-2.426,41806.39187
2020/8/19 0:24:26,31.219,0.518,41444.91707
2020/8/19 0:25:26,31.47,3.485,41083.90281
2020/8/19 0:26:26,31.82,6.474,40724.68401
2020/8/19 0:27:26,32.276,9.48,40368.62851
2020/8/19 0:28:26,32.844,12.501,40017.13299
2020/8/19 0:29:26,33.534,15.532,39671.61815
2020/8/19 0:30:26,34.355,18.57,39333.52326
2020/8/19 0:31:26,35.322,21.607,39004.29988
2020/8/19 0:32:26,36.45,24.637,38685.40477
2020/8/19 0:33:26,37.758,27.652,38378.29197
2020/8/19 0:34:26,39.269,30.642,38084.40415
2020/8/19 0:35:26,41.009,33.594,37805.16304
2020/8/19 0:36:26,43.01,36.495,37541.95914
2020/8/19 0:37:26,45.307,39.326,37296.14087
2020/8/19 0:38:26,47.94,42.065,37069.00305
2020/8/19 0:39:26,50.955,44.688,36861.77512
2020/8/19 0:40:26,54.396,47.162,36675.60909
2020/8/19 0:41:26,58.308,49.453,36511.56759
2020/8/19 0:42:26,62.727,51.517,36370.61218
2020/8/19 0:43:26,67.669,53.31,36253.59226
2020/8/19 0:44:26,73.122,54.781,36161.23477
2020/8/19 0:45:26,79.031,55.882,36094.13506
2020/8/19 0:46:26,85.291,56.571,36052.74911
2020/8/19 0:47:26,91.751,56.821,36037.38739
2020/8/19 0:48:26,98.227,56.617,36048.21053
2020/8/19 0:49:26,104.537,55.969,36085.22682
2020/8/19 0:50:26,110.523,54.901,36148.29195
2020/8/19 0:51:26,116.071,53.454,36237.1105
2020/8/19 0:52:26,121.118,51.674,36351.23967
2020/8/19 0:53:26,125.646,49.609,36490.09465
2020/8/19 0:54:26,129.668,47.307,36652.95589
2020/8/19 0:55:26,133.218,44.81,36838.9776
2020/8/19 0:56:26,136.339,42.154,37047.19777
2020/8/19 0:57:26,139.077,39.372,37276.5488
2020/8/19 0:58:26,141.477,36.49,37525.86921
2020/8/19 0:59:26,143.58,33.529,37793.91527
2020/8/19 1:00:26,145.424,30.509,38079.37328
2020/8/19 1:01:26,147.039,27.444,38380.8713
2020/8/19 1:02:26,148.455,24.346,38696.99093
2020/8/19 1:03:26,149.693,21.226,39026.27834
2020/8/19 1:04:26,150.775,18.092,39367.25486
2020/8/19 1:05:26,151.717,14.951,39718.42689
2020/8/19 1:06:26,152.533,11.81,40078.29473
2020/8/19 1:07:26,153.234,8.671,40445.36094
2020/8/19 1:08:26,153.831,5.54,40818.13764
2020/8/19 1:09:26,154.331,2.42,41195.15303
2020/8/19 1:10:26,154.74,-0.688,41574.95719
2020/8/19 1:11:26,155.065,-3.78,41956.12688
2020/8/19 1:12:26,155.307,-6.855,42337.26986
2020/8/19 1:13:26,155.47,-9.912,42717.02848
2020/8/19 1:14:26,155.555,-12.949,43094.08263
2020/8/19 1:15:26,155.562,-15.966,43467.1522
2020/8/19 1:16:26,155.491,-18.961,43834.99903
2020/8/19 1:17:26,155.338,-21.933,44196.42854
2020/8/19 1:18:26,155.102,-24.883,44550.29091
2020/8/19 1:18:30,155.081,-25.096,44575.6731
2020/8/19 2:00:17,18.604,-24.945,44543.44714
2020/8/19 2:01:17,18.166,-21.872,44175.04174
2020/8/19 2:02:17,17.799,-18.749,43795.53693
2020/8/19 2:03:17,17.5,-15.592,43407.85535
2020/8/19 2:04:17,17.264,-12.399,43013.22409
2020/8/19 2:05:17,17.09,-9.172,42612.92713
2020/8/19 2:06:17,16.975,-5.91,42208.30436
2020/8/19 2:07:17,16.919,-2.612,41800.75036
2020/8/19 2:08:17,16.921,0.721,41391.71272
2020/8/19 2:09:17,16.984,4.089,40982.68972
2020/8/19 2:10:17,17.108,7.492,40575.22753
2020/8/19 2:11:17,17.298,10.93,40170.9166
2020/8/19 2:12:17,17.559,14.403,39771.38724
2020/8/19 2:13:17,17.896,17.909,39378.30434
2020/8/19 2:14:17,18.319,21.447,38993.36102
2020/8/19 2:15:17,18.838,25.016,38618.27125
2020/8/19 2:16:17,19.467,28.613,38254.76126
2020/8/19 2:17:17,20.225,32.234,37904.55973
2020/8/19 2:18:17,21.135,35.877,37569.38686
2020/8/19 2:19:17,22.227,39.534,37250.94212
2020/8/19 2:20:17,23.542,43.199,36950.89087
2020/8/19 2:21:17,25.134,46.862,36670.8501
2020/8/19 2:22:17,27.077,50.51,36412.37309
2020/8/19 2:23:17,29.472,54.124,36176.93367
2020/8/19 2:24:17,32.461,57.679,35965.91
2020/8/19 2:25:17,36.243,61.137,35780.56851
2020/8/19 2:26:17,41.097,64.445,35622.04807
2020/8/19 2:27:17,47.407,67.52,35491.34522
2020/8/19 2:28:17,55.653,70.237,35389.3004
2020/8/19 2:29:17,66.288,72.416,35316.58614
2020/8/19 2:30:17,79.381,73.826,35273.69713
2020/8/19 2:31:17,94.067,74.252,35260.94282
2020/8/19 2:32:17,108.565,73.614,35278.44269
2020/8/19 2:33:17,121.216,72.026,35326.12438
2020/8/19 2:34:17,131.372,69.715,35403.72474
2020/8/19 2:35:17,139.219,66.903,35510.79376
2020/8/19 2:36:17,145.236,63.76,35646.70136
2020/8/19 2:37:17,149.888,60.399,35810.64641
2020/8/19 2:38:17,153.537,56.898,36001.66825
2020/8/19 2:39:17,156.444,53.306,36218.65971
2020/8/19 2:40:17,158.797,49.657,36460.38176
2020/8/19 2:41:17,160.729,45.976,36725.47882
2020/8/19 2:42:17,162.333,42.28,37012.49487
2020/8/19 2:43:17,163.681,38.582,37319.88939
2020/8/19 2:44:17,164.823,34.889,37646.05336
2020/8/19 2:45:17,165.799,31.21,37989.32437
2020/8/19 2:46:17,166.637,27.55,38348.00131
2020/8/19 2:47:17,167.362,23.912,38720.35774
2020/8/19 2:48:17,167.991,20.299,39104.65435
2020/8/19 2:49:17,168.539,16.714,39499.15028
2020/8/19 2:50:17,169.016,13.158,39902.11298
2020/8/19 2:51:17,169.431,9.631,40311.82708
2020/8/19 2:52:17,169.793,6.135,40726.60204
2020/8/19 2:53:17,170.107,2.669,41144.77857
2020/8/19 2:54:17,170.377,-0.766,41564.73431
2020/8/19 2:55:17,170.608,-4.171,41984.88816
2020/8/19 2:56:17,170.803,-7.547,42403.70416
2020/8/19 2:57:17,170.963,-10.894,42819.69439
2020/8/19 2:58:17,171.092,-14.212,43231.42135
2020/8/19 2:59:17,171.189,-17.504,43637.49973
2020/8/19 3:00:17,171.255,-20.77,44036.5977
2020/8/19 3:01:17,171.291,-24.01,44427.43796
2020/8/19 3:01:39,171.296,-25.173,44566.21613
2020/8/19 3:43:43,1.649,-24.906,44528.80692
2020/8/19 3:44:42,1.461,-21.665,44140.33464
2020/8/19 3:45:42,1.281,-18.355,43737.84372
2020/8/19 3:46:42,1.109,-15.015,43327.48647
2020/8/19 3:47:42,0.943,-11.644,42910.59548
2020/8/19 3:48:42,0.782,-8.241,42488.562
2020/8/19 3:49:42,0.623,-4.805,42062.83476
2020/8/19 3:50:42,0.464,-1.335,41634.91858
2020/8/19 3:51:42,0.305,2.171,41206.3722
2020/8/19 3:52:42,0.143,5.714,40778.80563
2020/8/19 3:53:42,359.975,9.294,40353.87665
2020/8/19 3:54:42,359.8,12.912,39933.28645
2020/8/19 3:55:42,359.616,16.568,39518.77439
2020/8/19 3:56:42,359.419,20.264,39112.1116
2020/8/19 3:57:42,359.205,24,38715.09342
2020/8/19 3:58:42,358.971,27.775,38329.53068
2020/8/19 3:59:42,358.71,31.588,37957.23952
2020/8/19 4:00:00,358.626,32.741,37848.36218
