sat_11node/sr1-sr2.csv

Time (UTCG),Azimuth (deg),Elevation (deg),Range (km)
2020/8/18 4:00:00,90.049,-44.573,59241.66531
2020/8/18 4:01:00,89.853,-44.497,59162.42415
2020/8/18 4:02:00,89.658,-44.42,59082.17913
2020/8/18 4:03:00,89.465,-44.343,59000.93231
2020/8/18 4:04:00,89.273,-44.264,58918.68577
2020/8/18 4:05:00,89.082,-44.185,58835.44161
2020/8/18 4:06:00,88.893,-44.105,58751.20197
2020/8/18 4:07:00,88.705,-44.024,58665.96901
2020/8/18 4:08:00,88.518,-43.942,58579.74493
2020/8/18 4:09:00,88.333,-43.86,58492.53195
2020/8/18 4:10:00,88.149,-43.776,58404.33233
2020/8/18 4:11:00,87.967,-43.692,58315.14833
2020/8/18 4:12:00,87.786,-43.607,58224.98227
2020/8/18 4:13:00,87.606,-43.521,58133.83649
2020/8/18 4:14:00,87.428,-43.435,58041.71337
2020/8/18 4:15:00,87.251,-43.347,57948.61529
2020/8/18 4:16:00,87.075,-43.259,57854.54468
2020/8/18 4:17:00,86.901,-43.17,57759.50401
2020/8/18 4:18:00,86.729,-43.08,57663.49575
2020/8/18 4:19:00,86.557,-42.99,57566.52244
2020/8/18 4:20:00,86.388,-42.899,57468.5866
2020/8/18 4:21:00,86.219,-42.806,57369.69083
2020/8/18 4:22:00,86.052,-42.714,57269.83772
2020/8/18 4:23:00,85.887,-42.62,57169.02992
2020/8/18 4:24:00,85.723,-42.526,57067.27009
2020/8/18 4:25:00,85.561,-42.431,56964.56094
2020/8/18 4:26:00,85.4,-42.335,56860.90518
2020/8/18 4:27:00,85.24,-42.239,56756.3056
2020/8/18 4:28:00,85.082,-42.141,56650.76496
2020/8/18 4:29:00,84.925,-42.043,56544.28611
2020/8/18 4:30:00,84.77,-41.945,56436.87196
2020/8/18 4:31:00,84.617,-41.846,56328.52526
2020/8/18 4:32:00,84.465,-41.746,56219.24898
2020/8/18 4:33:00,84.314,-41.645,56109.0461
2020/8/18 4:34:00,84.166,-41.543,55997.91957
2020/8/18 4:35:00,84.018,-41.441,55885.87242
2020/8/18 4:36:00,83.872,-41.339,55772.9077
2020/8/18 4:37:00,83.728,-41.235,55659.02847
2020/8/18 4:38:00,83.585,-41.131,55544.23785
2020/8/18 4:39:00,83.444,-41.026,55428.53899
2020/8/18 4:40:00,83.304,-40.921,55311.93506
2020/8/18 4:41:00,83.166,-40.815,55194.42926
2020/8/18 4:42:00,83.029,-40.708,55076.02484
2020/8/18 4:43:00,82.894,-40.601,54956.72508
2020/8/18 4:44:00,82.761,-40.493,54836.53328
2020/8/18 4:45:00,82.629,-40.384,54715.45279
2020/8/18 4:46:00,82.499,-40.275,54593.48699
2020/8/18 4:47:00,82.37,-40.165,54470.63928
2020/8/18 4:48:00,82.243,-40.055,54346.91312
2020/8/18 4:49:00,82.117,-39.944,54222.31199
2020/8/18 4:50:00,81.993,-39.832,54096.8394
2020/8/18 4:51:00,81.871,-39.72,53970.4989
2020/8/18 4:52:00,81.75,-39.607,53843.29409
2020/8/18 4:53:00,81.631,-39.494,53715.22858
2020/8/18 4:54:00,81.514,-39.38,53586.30603
2020/8/18 4:55:00,81.398,-39.265,53456.53014
2020/8/18 4:56:00,81.284,-39.15,53325.90465
2020/8/18 4:57:00,81.171,-39.035,53194.43332
2020/8/18 4:58:00,81.061,-38.918,53062.11995
2020/8/18 4:59:00,80.951,-38.802,52928.96839
2020/8/18 5:00:00,80.844,-38.684,52794.98253
2020/8/18 5:01:00,80.738,-38.567,52660.16628
2020/8/18 5:02:00,80.633,-38.448,52524.52359
2020/8/18 5:03:00,80.531,-38.329,52388.05848
2020/8/18 5:04:00,80.43,-38.21,52250.77496
2020/8/18 5:05:00,80.331,-38.09,52112.67722
2020/8/18 5:06:00,80.233,-37.97,51973.76918
2020/8/18 5:07:00,80.137,-37.849,51834.05508
2020/8/18 5:08:00,80.043,-37.727,51693.53913
2020/8/18 5:09:00,79.951,-37.605,51552.22555
2020/8/18 5:10:00,79.86,-37.483,51410.11863
2020/8/18 5:11:00,79.771,-37.36,51267.22269
2020/8/18 5:12:00,79.683,-37.237,51123.54209
2020/8/18 5:13:00,79.598,-37.113,50979.08122
2020/8/18 5:14:00,79.514,-36.989,50833.84455
2020/8/18 5:15:00,79.432,-36.864,50687.83655
2020/8/18 5:16:00,79.351,-36.739,50541.06177
2020/8/18 5:17:00,79.272,-36.613,50393.52478
2020/8/18 5:18:00,79.196,-36.487,50245.23021
2020/8/18 5:19:00,79.12,-36.36,50096.18271
2020/8/18 5:20:00,79.047,-36.233,49946.38702
2020/8/18 5:21:00,78.975,-36.106,49795.84788
2020/8/18 5:22:00,78.905,-35.978,49644.57011
2020/8/18 5:23:00,78.837,-35.85,49492.55856
2020/8/18 5:24:00,78.771,-35.721,49339.81814
2020/8/18 5:25:00,78.707,-35.592,49186.35379
2020/8/18 5:26:00,78.644,-35.463,49032.17051
2020/8/18 5:27:00,78.583,-35.333,48877.27336
2020/8/18 5:28:00,78.524,-35.203,48721.66743
2020/8/18 5:29:00,78.467,-35.072,48565.35788
2020/8/18 5:30:00,78.411,-34.941,48408.34991
2020/8/18 5:31:00,78.358,-34.81,48250.64878
2020/8/18 5:32:00,78.306,-34.678,48092.25979
2020/8/18 5:33:00,78.256,-34.546,47933.1883
2020/8/18 5:34:00,78.208,-34.413,47773.43974
2020/8/18 5:35:00,78.162,-34.281,47613.01956
2020/8/18 5:36:00,78.118,-34.147,47451.93331
2020/8/18 5:37:00,78.076,-34.014,47290.18657
2020/8/18 5:38:00,78.035,-33.88,47127.78497
2020/8/18 5:39:00,77.997,-33.746,46964.73421
2020/8/18 5:40:00,77.96,-33.611,46801.04006
2020/8/18 5:41:00,77.926,-33.477,46636.70834
2020/8/18 5:42:00,77.893,-33.341,46471.74491
2020/8/18 5:43:00,77.862,-33.206,46306.15574
2020/8/18 5:44:00,77.834,-33.07,46139.94681
2020/8/18 5:45:00,77.807,-32.934,45973.12421
2020/8/18 5:46:00,77.782,-32.798,45805.69405
2020/8/18 5:47:00,77.759,-32.661,45637.66255
2020/8/18 5:48:00,77.738,-32.524,45469.03608
2020/8/18 5:49:00,77.72,-32.387,45299.82074
2020/8/18 5:50:00,77.703,-32.25,45130.02306
2020/8/18 5:51:00,77.688,-32.112,44959.64951
2020/8/18 5:52:00,77.676,-31.974,44788.70662
2020/8/18 5:53:00,77.665,-31.836,44617.20102
2020/8/18 5:54:00,77.656,-31.697,44445.1394
2020/8/18 5:55:00,77.65,-31.559,44272.52852
2020/8/18 5:56:00,77.646,-31.42,44099.37523
2020/8/18 5:57:00,77.644,-31.281,43925.68643
2020/8/18 5:58:00,77.644,-31.141,43751.46914
2020/8/18 5:59:00,77.646,-31.002,43576.73042
2020/8/18 6:00:00,77.65,-30.862,43401.47744
2020/8/18 6:01:00,77.656,-30.722,43225.71745
2020/8/18 6:02:00,77.665,-30.582,43049.45777
2020/8/18 6:03:00,77.676,-30.441,42872.70581
2020/8/18 6:04:00,77.689,-30.3,42695.46908
2020/8/18 6:05:00,77.704,-30.16,42517.75517
2020/8/18 6:06:00,77.722,-30.019,42339.57176
2020/8/18 6:07:00,77.742,-29.878,42160.92663
2020/8/18 6:08:00,77.764,-29.736,41981.82764
2020/8/18 6:09:00,77.788,-29.595,41802.28279
2020/8/18 6:10:00,77.815,-29.453,41622.30011
2020/8/18 6:11:00,77.844,-29.311,41441.88777
2020/8/18 6:12:00,77.876,-29.169,41261.05407
2020/8/18 6:13:00,77.91,-29.027,41079.80735
2020/8/18 6:14:00,77.946,-28.885,40898.1561
2020/8/18 6:15:00,77.985,-28.743,40716.10893
2020/8/18 6:16:00,78.026,-28.6,40533.6745
2020/8/18 6:17:00,78.07,-28.458,40350.86165
2020/8/18 6:18:00,78.116,-28.315,40167.67931
2020/8/18 6:19:00,78.164,-28.172,39984.13651
2020/8/18 6:20:00,78.216,-28.029,39800.24242
2020/8/18 6:21:00,78.269,-27.886,39616.00634
2020/8/18 6:22:00,78.326,-27.743,39431.43768
2020/8/18 6:23:00,78.385,-27.6,39246.54597
2020/8/18 6:24:00,78.446,-27.457,39061.3409
2020/8/18 6:25:00,78.511,-27.314,38875.83227
2020/8/18 6:26:00,78.577,-27.171,38690.03002
2020/8/18 6:27:00,78.647,-27.027,38503.94425
2020/8/18 6:28:00,78.72,-26.884,38317.58517
2020/8/18 6:29:00,78.795,-26.741,38130.96315
2020/8/18 6:30:00,78.873,-26.597,37944.08872
2020/8/18 6:31:00,78.953,-26.454,37756.97254
2020/8/18 6:32:00,79.037,-26.31,37569.62545
2020/8/18 6:33:00,79.124,-26.167,37382.05843
2020/8/18 6:34:00,79.213,-26.023,37194.28263
2020/8/18 6:35:00,79.305,-25.88,37006.30937
2020/8/18 6:36:00,79.401,-25.736,36818.15012
2020/8/18 6:37:00,79.499,-25.593,36629.81657
2020/8/18 6:38:00,79.601,-25.45,36441.32052
2020/8/18 6:39:00,79.705,-25.306,36252.67401
2020/8/18 6:40:00,79.813,-25.163,36063.88924
2020/8/18 6:41:00,79.923,-25.02,35874.97861
2020/8/18 6:42:00,80.037,-24.877,35685.9547
2020/8/18 6:43:00,80.154,-24.734,35496.8303
2020/8/18 6:44:00,80.275,-24.591,35307.6184
2020/8/18 6:45:00,80.399,-24.448,35118.33221
2020/8/18 6:46:00,80.526,-24.305,34928.98513
2020/8/18 6:47:00,80.656,-24.162,34739.59079
2020/8/18 6:48:00,80.79,-24.02,34550.16305
2020/8/18 6:49:00,80.927,-23.877,34360.716
2020/8/18 6:50:00,81.068,-23.735,34171.26395
2020/8/18 6:51:00,81.212,-23.593,33981.82145
2020/8/18 6:52:00,81.36,-23.451,33792.4033
2020/8/18 6:53:00,81.512,-23.309,33603.02456
2020/8/18 6:54:00,81.667,-23.167,33413.70052
2020/8/18 6:55:00,81.826,-23.026,33224.44676
2020/8/18 6:56:00,81.988,-22.885,33035.27911
2020/8/18 6:57:00,82.155,-22.744,32846.21369
2020/8/18 6:58:00,82.325,-22.603,32657.26688
2020/8/18 6:59:00,82.5,-22.462,32468.45535
2020/8/18 7:00:00,82.678,-22.322,32279.7961
2020/8/18 7:01:00,82.86,-22.182,32091.30637
2020/8/18 7:02:00,83.047,-22.042,31903.00377
2020/8/18 7:03:00,83.237,-21.902,31714.90617
2020/8/18 7:04:00,83.432,-21.763,31527.0318
2020/8/18 7:05:00,83.631,-21.624,31339.39921
2020/8/18 7:06:00,83.834,-21.485,31152.02726
2020/8/18 7:07:00,84.041,-21.347,30964.9352
2020/8/18 7:08:00,84.253,-21.209,30778.14259
2020/8/18 7:09:00,84.47,-21.071,30591.66936
2020/8/18 7:10:00,84.691,-20.933,30405.53584
2020/8/18 7:11:00,84.916,-20.796,30219.76268
2020/8/18 7:12:00,85.147,-20.66,30034.37096
2020/8/18 7:13:00,85.381,-20.524,29849.38213
2020/8/18 7:14:00,85.621,-20.388,29664.81805
2020/8/18 7:15:00,85.866,-20.252,29480.70095
2020/8/18 7:16:00,86.115,-20.117,29297.05354
2020/8/18 7:17:00,86.37,-19.983,29113.89891
2020/8/18 7:18:00,86.629,-19.849,28931.2606
2020/8/18 7:19:00,86.894,-19.715,28749.16258
2020/8/18 7:20:00,87.163,-19.582,28567.62929
2020/8/18 7:21:00,87.438,-19.45,28386.68562
2020/8/18 7:22:00,87.719,-19.318,28206.35692
2020/8/18 7:23:00,88.004,-19.186,28026.66902
2020/8/18 7:24:00,88.295,-19.056,27847.64824
2020/8/18 7:25:00,88.592,-18.925,27669.32139
2020/8/18 7:26:00,88.894,-18.796,27491.71581
2020/8/18 7:27:00,89.202,-18.667,27314.85929
2020/8/18 7:28:00,89.516,-18.538,27138.78019
2020/8/18 7:29:00,89.836,-18.41,26963.50736
2020/8/18 7:30:00,90.161,-18.283,26789.07024
2020/8/18 7:31:00,90.493,-18.157,26615.49874
2020/8/18 7:32:00,90.83,-18.031,26442.82337
2020/8/18 7:33:00,91.174,-17.906,26271.07517
2020/8/18 7:34:00,91.524,-17.782,26100.28574
2020/8/18 7:35:00,91.88,-17.659,25930.48729
2020/8/18 7:36:00,92.242,-17.536,25761.71253
2020/8/18 7:37:00,92.611,-17.414,25593.99482
2020/8/18 7:38:00,92.987,-17.294,25427.36806
2020/8/18 7:39:00,93.369,-17.174,25261.86676
2020/8/18 7:40:00,93.757,-17.054,25097.52601
2020/8/18 7:41:00,94.153,-16.936,24934.38147
2020/8/18 7:42:00,94.555,-16.819,24772.46945
2020/8/18 7:43:00,94.964,-16.702,24611.8268
2020/8/18 7:44:00,95.38,-16.587,24452.49101
2020/8/18 7:45:00,95.803,-16.473,24294.50013
2020/8/18 7:46:00,96.233,-16.359,24137.8928
2020/8/18 7:47:00,96.67,-16.247,23982.7083
2020/8/18 7:48:00,97.115,-16.136,23828.98644
2020/8/18 7:49:00,97.567,-16.026,23676.76762
2020/8/18 7:50:00,98.026,-15.917,23526.0928
2020/8/18 7:51:00,98.492,-15.809,23377.00355
2020/8/18 7:52:00,98.966,-15.703,23229.54195
2020/8/18 7:53:00,99.448,-15.598,23083.75061
2020/8/18 7:54:00,99.937,-15.494,22939.67269
2020/8/18 7:55:00,100.433,-15.391,22797.35183
2020/8/18 7:56:00,100.938,-15.29,22656.83219
2020/8/18 7:57:00,101.45,-15.19,22518.15823
2020/8/18 7:58:00,101.969,-15.091,22381.37531
2020/8/18 7:59:00,102.497,-14.994,22246.52877
2020/8/18 8:00:00,103.032,-14.898,22113.66448
2020/8/18 8:01:00,103.575,-14.804,21982.82868
2020/8/18 8:02:00,104.126,-14.711,21854.06797
2020/8/18 8:03:00,104.684,-14.62,21727.42919
2020/8/18 8:04:00,105.25,-14.53,21602.95952
2020/8/18 8:05:00,105.825,-14.442,21480.70625
2020/8/18 8:06:00,106.407,-14.355,21360.71698
2020/8/18 8:07:00,106.996,-14.271,21243.03934
2020/8/18 8:08:00,107.594,-14.188,21127.72111
2020/8/18 8:09:00,108.199,-14.106,21014.81001
2020/8/18 8:10:00,108.812,-14.027,20904.35386
2020/8/18 8:11:00,109.432,-13.949,20796.40019
2020/8/18 8:12:00,110.06,-13.873,20690.99679
2020/8/18 8:13:00,110.696,-13.799,20588.1909
2020/8/18 8:14:00,111.339,-13.727,20488.02956
2020/8/18 8:15:00,111.99,-13.657,20390.55951
2020/8/18 8:16:00,112.647,-13.589,20295.8271
2020/8/18 8:17:00,113.312,-13.523,20203.87817
2020/8/18 8:18:00,113.984,-13.458,20114.75799
2020/8/18 8:19:00,114.663,-13.396,20028.5113
2020/8/18 8:20:00,115.348,-13.336,19945.18202
2020/8/18 8:21:00,116.04,-13.278,19864.81333
2020/8/18 8:22:00,116.739,-13.223,19787.44738
2020/8/18 8:23:00,117.444,-13.169,19713.12584
2020/8/18 8:24:00,118.155,-13.118,19641.88887
2020/8/18 8:25:00,118.873,-13.069,19573.77568
2020/8/18 8:26:00,119.596,-13.022,19508.82424
2020/8/18 8:27:00,120.324,-12.978,19447.07133
2020/8/18 8:28:00,121.058,-12.936,19388.55227
2020/8/18 8:29:00,121.798,-12.896,19333.30096
2020/8/18 8:30:00,122.542,-12.859,19281.3498
2020/8/18 8:31:00,123.291,-12.824,19232.72958
2020/8/18 8:32:00,124.044,-12.791,19187.46922
2020/8/18 8:33:00,124.801,-12.761,19145.59639
2020/8/18 8:34:00,125.563,-12.733,19107.13643
2020/8/18 8:35:00,126.328,-12.708,19072.11303
2020/8/18 8:36:00,127.096,-12.685,19040.54788
2020/8/18 8:37:00,127.868,-12.665,19012.46064
2020/8/18 8:38:00,128.642,-12.647,18987.86896
2020/8/18 8:39:00,129.419,-12.632,18966.78838
2020/8/18 8:40:00,130.198,-12.619,18949.23223
2020/8/18 8:41:00,130.979,-12.609,18935.21164
2020/8/18 8:42:00,131.762,-12.602,18924.73579
2020/8/18 8:43:00,132.546,-12.597,18917.8113
2020/8/18 8:44:00,133.331,-12.594,18914.44263
2020/8/18 8:45:00,134.117,-12.595,18914.63201
2020/8/18 8:46:00,134.903,-12.597,18918.37935
2020/8/18 8:47:00,135.689,-12.603,18925.68224
2020/8/18 8:48:00,136.475,-12.61,18936.53612
2020/8/18 8:49:00,137.26,-12.621,18950.93409
2020/8/18 8:50:00,138.045,-12.634,18968.86685
2020/8/18 8:51:00,138.828,-12.649,18990.32335
2020/8/18 8:52:00,139.61,-12.667,19015.28991
2020/8/18 8:53:00,140.39,-12.688,19043.75086
2020/8/18 8:54:00,141.168,-12.711,19075.68842
2020/8/18 8:55:00,141.944,-12.736,19111.08277
2020/8/18 8:56:00,142.717,-12.764,19149.91207
2020/8/18 8:57:00,143.487,-12.794,19192.15259
2020/8/18 8:58:00,144.255,-12.827,19237.7786
2020/8/18 8:59:00,145.018,-12.862,19286.7626
2020/8/18 9:00:00,145.779,-12.9,19339.07554
2020/8/18 9:01:00,146.535,-12.94,19394.68643
2020/8/18 9:02:00,147.287,-12.983,19453.56279
2020/8/18 9:03:00,148.035,-13.027,19515.67064
2020/8/18 9:04:00,148.779,-13.074,19580.97448
2020/8/18 9:05:00,149.518,-13.124,19649.43754
2020/8/18 9:06:00,150.251,-13.175,19721.02172
2020/8/18 9:07:00,150.98,-13.229,19795.6878
2020/8/18 9:08:00,151.704,-13.285,19873.39531
2020/8/18 9:09:00,152.422,-13.343,19954.10284
2020/8/18 9:10:00,153.135,-13.403,20037.76811
2020/8/18 9:11:00,153.841,-13.465,20124.34789
2020/8/18 9:12:00,154.542,-13.53,20213.79812
2020/8/18 9:13:00,155.238,-13.596,20306.07412
2020/8/18 9:14:00,155.927,-13.665,20401.13058
2020/8/18 9:15:00,156.61,-13.735,20498.92158
2020/8/18 9:16:00,157.286,-13.808,20599.4008
2020/8/18 9:17:00,157.957,-13.882,20702.52149
2020/8/18 9:18:00,158.62,-13.958,20808.23657
2020/8/18 9:19:00,159.278,-14.036,20916.49867
2020/8/18 9:20:00,159.929,-14.116,21027.26031
2020/8/18 9:21:00,160.573,-14.197,21140.47374
2020/8/18 9:22:00,161.211,-14.281,21256.09129
2020/8/18 9:23:00,161.842,-14.366,21374.06517
2020/8/18 9:24:00,162.467,-14.452,21494.34764
2020/8/18 9:25:00,163.085,-14.541,21616.89105
2020/8/18 9:26:00,163.696,-14.631,21741.6479
2020/8/18 9:27:00,164.301,-14.722,21868.57087
2020/8/18 9:28:00,164.898,-14.815,21997.61286
2020/8/18 9:29:00,165.49,-14.91,22128.72699
2020/8/18 9:30:00,166.074,-15.006,22261.86677
2020/8/18 9:31:00,166.652,-15.103,22396.98597
2020/8/18 9:32:00,167.223,-15.202,22534.03877
2020/8/18 9:33:00,167.788,-15.303,22672.9797
2020/8/18 9:34:00,168.347,-15.404,22813.76374
2020/8/18 9:35:00,168.898,-15.507,22956.34638
2020/8/18 9:36:00,169.444,-15.611,23100.68343
2020/8/18 9:37:00,169.983,-15.717,23246.73135
2020/8/18 9:38:00,170.515,-15.824,23394.44703
2020/8/18 9:39:00,171.042,-15.932,23543.7879
2020/8/18 9:40:00,171.562,-16.041,23694.71189
2020/8/18 9:41:00,172.076,-16.151,23847.17753
2020/8/18 9:42:00,172.583,-16.263,24001.1439
2020/8/18 9:43:00,173.085,-16.375,24156.57065
2020/8/18 9:44:00,173.581,-16.489,24313.41799
2020/8/18 9:45:00,174.071,-16.603,24471.64674
2020/8/18 9:46:00,174.555,-16.719,24631.21828
2020/8/18 9:47:00,175.033,-16.836,24792.09459
2020/8/18 9:48:00,175.506,-16.953,24954.23827
2020/8/18 9:49:00,175.973,-17.072,25117.61249
2020/8/18 9:50:00,176.434,-17.191,25282.18102
2020/8/18 9:51:00,176.89,-17.311,25447.90822
2020/8/18 9:52:00,177.341,-17.433,25614.75904
2020/8/18 9:53:00,177.786,-17.555,25782.69904
2020/8/18 9:54:00,178.227,-17.678,25951.69435
2020/8/18 9:55:00,178.662,-17.801,26121.71168
2020/8/18 9:56:00,179.091,-17.926,26292.71833
2020/8/18 9:57:00,179.516,-18.051,26464.68215
2020/8/18 9:58:00,179.936,-18.177,26637.57159
2020/8/18 9:59:00,180.351,-18.304,26811.35562
2020/8/18 10:00:00,180.762,-18.431,26986.00383
2020/8/18 10:01:00,181.168,-18.559,27161.48626
2020/8/18 10:02:00,181.569,-18.688,27337.7736
2020/8/18 10:03:00,181.965,-18.817,27514.83698
2020/8/18 10:04:00,182.358,-18.947,27692.6481
2020/8/18 10:05:00,182.745,-19.078,27871.17918
2020/8/18 10:06:00,183.129,-19.209,28050.40294
2020/8/18 10:07:00,183.508,-19.34,28230.2926
2020/8/18 10:08:00,183.883,-19.473,28410.82187
2020/8/18 10:09:00,184.255,-19.606,28591.96494
2020/8/18 10:10:00,184.622,-19.739,28773.69651
2020/8/18 10:11:00,184.985,-19.873,28955.99168
2020/8/18 10:12:00,185.344,-20.007,29138.82608
2020/8/18 10:13:00,185.7,-20.142,29322.17575
2020/8/18 10:14:00,186.052,-20.277,29506.0172
2020/8/18 10:15:00,186.4,-20.413,29690.3273
2020/8/18 10:16:00,186.745,-20.549,29875.08345
2020/8/18 10:17:00,187.086,-20.686,30060.26337
2020/8/18 10:18:00,187.424,-20.823,30245.84525
2020/8/18 10:19:00,187.759,-20.96,30431.80766
2020/8/18 10:20:00,188.09,-21.098,30618.12956
2020/8/18 10:21:00,188.418,-21.236,30804.79027
2020/8/18 10:22:00,188.743,-21.374,30991.76954
2020/8/18 10:23:00,189.064,-21.513,31179.04741
2020/8/18 10:24:00,189.383,-21.652,31366.60436
2020/8/18 10:25:00,189.699,-21.791,31554.42114
2020/8/18 10:26:00,190.012,-21.931,31742.47892
2020/8/18 10:27:00,190.322,-22.071,31930.75914
2020/8/18 10:28:00,190.629,-22.211,32119.24362
2020/8/18 10:29:00,190.933,-22.352,32307.91444
2020/8/18 10:30:00,191.235,-22.492,32496.75408
2020/8/18 10:31:00,191.534,-22.633,32685.74525
2020/8/18 10:32:00,191.831,-22.774,32874.871
2020/8/18 10:33:00,192.125,-22.916,33064.11465
2020/8/18 10:34:00,192.417,-23.058,33253.45982
2020/8/18 10:35:00,192.706,-23.199,33442.8904
2020/8/18 10:36:00,192.993,-23.341,33632.39058
2020/8/18 10:37:00,193.278,-23.484,33821.94478
2020/8/18 10:38:00,193.56,-23.626,34011.53771
2020/8/18 10:39:00,193.84,-23.768,34201.15432
2020/8/18 10:40:00,194.118,-23.911,34390.77981
2020/8/18 10:41:00,194.394,-24.054,34580.39964
2020/8/18 10:42:00,194.668,-24.197,34769.99949
2020/8/18 10:43:00,194.94,-24.34,34959.56528
2020/8/18 10:44:00,195.21,-24.483,35149.08316
2020/8/18 10:45:00,195.478,-24.626,35338.53949
2020/8/18 10:46:00,195.744,-24.77,35527.92088
2020/8/18 10:47:00,196.008,-24.913,35717.21411
2020/8/18 10:48:00,196.271,-25.057,35906.4062
2020/8/18 10:49:00,196.532,-25.2,36095.48435
2020/8/18 10:50:00,196.791,-25.344,36284.43597
2020/8/18 10:51:00,197.048,-25.488,36473.24867
2020/8/18 10:52:00,197.304,-25.631,36661.91024
2020/8/18 10:53:00,197.558,-25.775,36850.40866
2020/8/18 10:54:00,197.811,-25.919,37038.73209
2020/8/18 10:55:00,198.062,-26.063,37226.82884
2020/8/18 10:56:00,198.312,-26.207,37414.7676
2020/8/18 10:57:00,198.56,-26.351,37602.4969
2020/8/18 10:58:00,198.807,-26.494,37790.00557
2020/8/18 10:59:00,199.053,-26.638,37977.28264
2020/8/18 11:00:00,199.297,-26.782,38164.31725
2020/8/18 11:01:00,199.54,-26.926,38351.09874
2020/8/18 11:02:00,199.782,-27.07,38537.61658
2020/8/18 11:03:00,200.022,-27.213,38723.86038
2020/8/18 11:04:00,200.262,-27.357,38909.81993
2020/8/18 11:05:00,200.5,-27.501,39095.48511
2020/8/18 11:06:00,200.737,-27.644,39280.84599
2020/8/18 11:07:00,200.973,-27.788,39465.89275
2020/8/18 11:08:00,201.208,-27.931,39650.6157
2020/8/18 11:09:00,201.442,-28.075,39835.0053
2020/8/18 11:10:00,201.674,-28.218,40019.0521
2020/8/18 11:11:00,201.906,-28.361,40202.74684
2020/8/18 11:12:00,202.137,-28.504,40386.08031
2020/8/18 11:13:00,202.367,-28.647,40569.04347
2020/8/18 11:14:00,202.597,-28.79,40751.62738
2020/8/18 11:15:00,202.825,-28.933,40933.82321
2020/8/18 11:16:00,203.052,-29.075,41115.62225
2020/8/18 11:17:00,203.279,-29.218,41297.01591
2020/8/18 11:18:00,203.505,-29.36,41477.99568
2020/8/18 11:19:00,203.73,-29.503,41658.5532
2020/8/18 11:20:00,203.954,-29.645,41838.68017
2020/8/18 11:21:00,204.178,-29.787,42018.36841
2020/8/18 11:22:00,204.401,-29.928,42197.60985
2020/8/18 11:23:00,204.624,-30.07,42376.39651
2020/8/18 11:24:00,204.845,-30.211,42554.7205
2020/8/18 11:25:00,205.067,-30.353,42732.57403
2020/8/18 11:26:00,205.287,-30.494,42909.94942
2020/8/18 11:27:00,205.507,-30.635,43086.83904
2020/8/18 11:28:00,205.727,-30.775,43263.23539
2020/8/18 11:29:00,205.946,-30.916,43439.13103
2020/8/18 11:30:00,206.164,-31.056,43614.51862
2020/8/18 11:31:00,206.382,-31.196,43789.39092
2020/8/18 11:32:00,206.6,-31.336,43963.74074
2020/8/18 11:33:00,206.817,-31.476,44137.56098
2020/8/18 11:34:00,207.034,-31.615,44310.84465
2020/8/18 11:35:00,207.25,-31.754,44483.58479
2020/8/18 11:36:00,207.466,-31.893,44655.77457
2020/8/18 11:37:00,207.682,-32.032,44827.40719
2020/8/18 11:38:00,207.897,-32.17,44998.47595
2020/8/18 11:39:00,208.112,-32.308,45168.97422
2020/8/18 11:40:00,208.327,-32.446,45338.89544
2020/8/18 11:41:00,208.541,-32.584,45508.23313
2020/8/18 11:42:00,208.756,-32.721,45676.98086
2020/8/18 11:43:00,208.97,-32.858,45845.13228
2020/8/18 11:44:00,209.183,-32.995,46012.68112
2020/8/18 11:45:00,209.397,-33.131,46179.62115
2020/8/18 11:46:00,209.61,-33.268,46345.94624
2020/8/18 11:47:00,209.824,-33.404,46511.65029
2020/8/18 11:48:00,210.037,-33.539,46676.72728
2020/8/18 11:49:00,210.25,-33.674,46841.17126
2020/8/18 11:50:00,210.463,-33.809,47004.97634
2020/8/18 11:51:00,210.675,-33.944,47168.13666
2020/8/18 11:52:00,210.888,-34.078,47330.64647
2020/8/18 11:53:00,211.1,-34.212,47492.50004
2020/8/18 11:54:00,211.313,-34.346,47653.69172
2020/8/18 11:55:00,211.526,-34.479,47814.2159
2020/8/18 11:56:00,211.738,-34.612,47974.06704
2020/8/18 11:57:00,211.95,-34.745,48133.23966
2020/8/18 11:58:00,212.163,-34.877,48291.72832
2020/8/18 11:59:00,212.375,-35.009,48449.52764
2020/8/18 12:00:00,212.588,-35.14,48606.6323
2020/8/18 12:01:00,212.801,-35.271,48763.03703
2020/8/18 12:02:00,213.013,-35.402,48918.7366
2020/8/18 12:03:00,213.226,-35.532,49073.72584
2020/8/18 12:04:00,213.439,-35.662,49227.99966
2020/8/18 12:05:00,213.652,-35.792,49381.55296
2020/8/18 12:06:00,213.865,-35.921,49534.38075
2020/8/18 12:07:00,214.078,-36.05,49686.47804
2020/8/18 12:08:00,214.291,-36.178,49837.83993
2020/8/18 12:09:00,214.504,-36.306,49988.46153
2020/8/18 12:10:00,214.718,-36.433,50138.33803
2020/8/18 12:11:00,214.932,-36.56,50287.46465
2020/8/18 12:12:00,215.146,-36.687,50435.83665
2020/8/18 12:13:00,215.36,-36.813,50583.44936
2020/8/18 12:14:00,215.574,-36.938,50730.29813
2020/8/18 12:15:00,215.789,-37.064,50876.37836
2020/8/18 12:16:00,216.004,-37.188,51021.68552
2020/8/18 12:17:00,216.219,-37.313,51166.21508
2020/8/18 12:18:00,216.434,-37.437,51309.96257
2020/8/18 12:19:00,216.65,-37.56,51452.92361
2020/8/18 12:20:00,216.866,-37.683,51595.0938
2020/8/18 12:21:00,217.082,-37.805,51736.4688
2020/8/18 12:22:00,217.298,-37.927,51877.04432
2020/8/18 12:23:00,217.515,-38.048,52016.81611
2020/8/18 12:24:00,217.732,-38.169,52155.77995
2020/8/18 12:25:00,217.949,-38.29,52293.93167
2020/8/18 12:26:00,218.167,-38.409,52431.26715
2020/8/18 12:27:00,218.385,-38.529,52567.78229
2020/8/18 12:28:00,218.603,-38.648,52703.47304
2020/8/18 12:29:00,218.822,-38.766,52838.33539
2020/8/18 12:30:00,219.041,-38.884,52972.36537
2020/8/18 12:31:00,219.261,-39.001,53105.55903
2020/8/18 12:32:00,219.48,-39.117,53237.91248
2020/8/18 12:33:00,219.701,-39.233,53369.42187
2020/8/18 12:34:00,219.921,-39.349,53500.08336
2020/8/18 12:35:00,220.142,-39.464,53629.89319
2020/8/18 12:36:00,220.364,-39.578,53758.84759
2020/8/18 12:37:00,220.586,-39.692,53886.94286
2020/8/18 12:38:00,220.808,-39.805,54014.17532
2020/8/18 12:39:00,221.031,-39.918,54140.54135
2020/8/18 12:40:00,221.254,-40.03,54266.03732
2020/8/18 12:41:00,221.477,-40.142,54390.65968
2020/8/18 12:42:00,221.701,-40.252,54514.4049
2020/8/18 12:43:00,221.926,-40.363,54637.26947
2020/8/18 12:44:00,222.151,-40.472,54759.24995
2020/8/18 12:45:00,222.376,-40.581,54880.3429
2020/8/18 12:46:00,222.602,-40.69,55000.54492
2020/8/18 12:47:00,222.828,-40.797,55119.85267
2020/8/18 12:48:00,223.055,-40.904,55238.26282
2020/8/18 12:49:00,223.283,-41.011,55355.77207
2020/8/18 12:50:00,223.51,-41.117,55472.37718
2020/8/18 12:51:00,223.739,-41.222,55588.07492
2020/8/18 12:52:00,223.968,-41.326,55702.8621
2020/8/18 12:53:00,224.197,-41.43,55816.73556
2020/8/18 12:54:00,224.427,-41.533,55929.69217
2020/8/18 12:55:00,224.657,-41.636,56041.72886
2020/8/18 12:56:00,224.888,-41.737,56152.84256
2020/8/18 12:57:00,225.119,-41.839,56263.03025
2020/8/18 12:58:00,225.351,-41.939,56372.28893
2020/8/18 12:59:00,225.584,-42.039,56480.61563
2020/8/18 13:00:00,225.817,-42.138,56588.00744
2020/8/18 13:01:00,226.05,-42.236,56694.46145
2020/8/18 13:02:00,226.284,-42.333,56799.97479
2020/8/18 13:03:00,226.519,-42.43,56904.54463
2020/8/18 13:04:00,226.754,-42.526,57008.16817
2020/8/18 13:05:00,226.989,-42.622,57110.84263
2020/8/18 13:06:00,227.225,-42.716,57212.56527
2020/8/18 13:07:00,227.462,-42.81,57313.33339
2020/8/18 13:08:00,227.699,-42.903,57413.14429
2020/8/18 13:09:00,227.937,-42.996,57511.99534
2020/8/18 13:10:00,228.175,-43.087,57609.88391
2020/8/18 13:11:00,228.414,-43.178,57706.80741
2020/8/18 13:12:00,228.654,-43.268,57802.76329
2020/8/18 13:13:00,228.894,-43.358,57897.74902
2020/8/18 13:14:00,229.134,-43.446,57991.7621
2020/8/18 13:15:00,229.375,-43.534,58084.80006
2020/8/18 13:16:00,229.617,-43.621,58176.86046
2020/8/18 13:17:00,229.859,-43.707,58267.94091
2020/8/18 13:18:00,230.101,-43.792,58358.03901
2020/8/18 13:19:00,230.345,-43.877,58447.15242
2020/8/18 13:20:00,230.588,-43.96,58535.27882
2020/8/18 13:21:00,230.833,-44.043,58622.41591
2020/8/18 13:22:00,231.077,-44.125,58708.56145
2020/8/18 13:23:00,231.323,-44.207,58793.71319
2020/8/18 13:24:00,231.569,-44.287,58877.86894
2020/8/18 13:25:00,231.815,-44.366,58961.02652
2020/8/18 13:26:00,232.062,-44.445,59043.18378
2020/8/18 13:27:00,232.309,-44.523,59124.33861
2020/8/18 13:28:00,232.557,-44.6,59204.48893
2020/8/18 13:29:00,232.806,-44.676,59283.63267
2020/8/18 13:30:00,233.055,-44.751,59361.76781
2020/8/18 13:31:00,233.304,-44.826,59438.89234
2020/8/18 13:32:00,233.554,-44.899,59515.00429
2020/8/18 13:33:00,233.805,-44.972,59590.10173
2020/8/18 13:34:00,234.056,-45.043,59664.18272
2020/8/18 13:35:00,234.307,-45.114,59737.24539
2020/8/18 13:36:00,234.559,-45.184,59809.28787
2020/8/18 13:37:00,234.811,-45.253,59880.30835
2020/8/18 13:38:00,235.064,-45.321,59950.305
2020/8/18 13:39:00,235.318,-45.388,60019.27606
2020/8/18 13:40:00,235.572,-45.454,60087.21979
2020/8/18 13:41:00,235.826,-45.52,60154.13445
2020/8/18 13:42:00,236.081,-45.584,60220.01837
2020/8/18 13:43:00,236.336,-45.648,60284.86987
2020/8/18 13:44:00,236.591,-45.71,60348.68734
2020/8/18 13:45:00,236.847,-45.772,60411.46915
2020/8/18 13:46:00,237.104,-45.832,60473.21372
2020/8/18 13:47:00,237.361,-45.892,60533.91951
2020/8/18 13:48:00,237.618,-45.951,60593.58499
2020/8/18 13:49:00,237.876,-46.008,60652.20867
2020/8/18 13:50:00,238.134,-46.065,60709.78908
2020/8/18 13:51:00,238.392,-46.121,60766.32476
2020/8/18 13:52:00,238.651,-46.176,60821.81432
2020/8/18 13:53:00,238.91,-46.23,60876.25636
2020/8/18 13:54:00,239.17,-46.283,60929.64953
2020/8/18 13:55:00,239.429,-46.335,60981.99249
2020/8/18 13:56:00,239.69,-46.385,61033.28394
2020/8/18 13:57:00,239.95,-46.435,61083.5226
2020/8/18 13:58:00,240.211,-46.484,61132.70722
2020/8/18 13:59:00,240.472,-46.532,61180.83657
2020/8/18 14:00:00,240.734,-46.579,61227.90947
2020/8/18 14:01:00,240.995,-46.625,61273.92474
2020/8/18 14:02:00,241.257,-46.67,61318.88124
2020/8/18 14:03:00,241.52,-46.714,61362.77786
2020/8/18 14:04:00,241.782,-46.757,61405.61351
2020/8/18 14:05:00,242.045,-46.798,61447.38713
2020/8/18 14:06:00,242.308,-46.839,61488.09769
2020/8/18 14:07:00,242.571,-46.879,61527.74417
2020/8/18 14:08:00,242.834,-46.918,61566.32561
2020/8/18 14:09:00,243.098,-46.955,61603.84105
2020/8/18 14:10:00,243.362,-46.992,61640.28957
2020/8/18 14:11:00,243.626,-47.028,61675.67026
2020/8/18 14:12:00,243.89,-47.062,61709.98225
2020/8/18 14:13:00,244.154,-47.096,61743.22471
2020/8/18 14:14:00,244.418,-47.128,61775.3968
2020/8/18 14:15:00,244.683,-47.16,61806.49775
2020/8/18 14:16:00,244.947,-47.19,61836.52678
2020/8/18 14:17:00,245.212,-47.219,61865.48316
2020/8/18 14:18:00,245.477,-47.248,61893.36619
2020/8/18 14:19:00,245.742,-47.275,61920.17517
2020/8/18 14:20:00,246.007,-47.301,61945.90944
2020/8/18 14:21:00,246.272,-47.326,61970.56838
2020/8/18 14:22:00,246.536,-47.35,61994.15138
2020/8/18 14:23:00,246.801,-47.373,62016.65788
2020/8/18 14:24:00,247.066,-47.395,62038.0873
2020/8/18 14:25:00,247.331,-47.415,62058.43917
2020/8/18 14:26:00,247.596,-47.435,62077.71293
2020/8/18 14:27:00,247.861,-47.454,62095.90813
2020/8/18 14:28:00,248.126,-47.471,62113.02434
2020/8/18 14:29:00,248.39,-47.487,62129.06112
2020/8/18 14:30:00,248.655,-47.503,62144.01811
2020/8/18 14:31:00,248.919,-47.517,62157.89492
2020/8/18 14:32:00,249.184,-47.53,62170.69122
2020/8/18 14:33:00,249.448,-47.542,62182.40671
2020/8/18 14:34:00,249.712,-47.553,62193.0411
2020/8/18 14:35:00,249.976,-47.563,62202.59413
2020/8/18 14:36:00,250.24,-47.572,62211.06556
2020/8/18 14:37:00,250.503,-47.58,62218.4552
2020/8/18 14:38:00,250.766,-47.586,62224.76287
2020/8/18 14:39:00,251.029,-47.592,62229.98842
2020/8/18 14:40:00,251.292,-47.597,62234.13172
2020/8/18 14:41:00,251.555,-47.6,62237.19267
2020/8/18 14:42:00,251.817,-47.602,62239.1712
2020/8/18 14:43:00,252.079,-47.603,62240.06728
2020/8/18 14:44:00,252.34,-47.603,62239.88087
2020/8/18 14:45:00,252.602,-47.602,62238.61198
2020/8/18 14:46:00,252.863,-47.6,62236.26066
2020/8/18 14:47:00,253.123,-47.597,62232.82696
2020/8/18 14:48:00,253.383,-47.593,62228.31098
2020/8/18 14:49:00,253.643,-47.588,62222.71281
2020/8/18 14:50:00,253.903,-47.581,62216.03262
2020/8/18 14:51:00,254.162,-47.574,62208.27056
2020/8/18 14:52:00,254.42,-47.565,62199.42682
2020/8/18 14:53:00,254.678,-47.555,62189.50167
2020/8/18 14:54:00,254.936,-47.544,62178.49528
2020/8/18 14:55:00,255.193,-47.532,62166.40795
2020/8/18 14:56:00,255.449,-47.519,62153.24
2020/8/18 14:57:00,255.706,-47.505,62138.99174
2020/8/18 14:58:00,255.961,-47.49,62123.66353
2020/8/18 14:59:00,256.216,-47.474,62107.25575
2020/8/18 15:00:00,256.47,-47.457,62089.76881
2020/8/18 15:01:00,256.724,-47.438,62071.20313
2020/8/18 15:02:00,256.978,-47.419,62051.55919
2020/8/18 15:03:00,257.23,-47.398,62030.83746
2020/8/18 15:04:00,257.482,-47.377,62009.03846
2020/8/18 15:05:00,257.733,-47.354,61986.16273
2020/8/18 15:06:00,257.984,-47.33,61962.21083
2020/8/18 15:07:00,258.234,-47.305,61937.18336
2020/8/18 15:08:00,258.483,-47.28,61911.08095
2020/8/18 15:09:00,258.732,-47.253,61883.90422
2020/8/18 15:10:00,258.98,-47.225,61855.65387
2020/8/18 15:11:00,259.227,-47.195,61826.33058
2020/8/18 15:12:00,259.473,-47.165,61795.93509
2020/8/18 15:13:00,259.719,-47.134,61764.46814
2020/8/18 15:14:00,259.964,-47.102,61731.93053
2020/8/18 15:15:00,260.208,-47.069,61698.32305
2020/8/18 15:16:00,260.451,-47.034,61663.64654
2020/8/18 15:17:00,260.693,-46.999,61627.90186
2020/8/18 15:18:00,260.935,-46.963,61591.0899
2020/8/18 15:19:00,261.176,-46.925,61553.21157
2020/8/18 15:20:00,261.415,-46.887,61514.26782
2020/8/18 15:21:00,261.654,-46.847,61474.25961
2020/8/18 15:22:00,261.892,-46.807,61433.18799
2020/8/18 15:23:00,262.129,-46.765,61391.05387
2020/8/18 15:24:00,262.366,-46.723,61347.85837
2020/8/18 15:25:00,262.601,-46.679,61303.60255
2020/8/18 15:26:00,262.835,-46.634,61258.28752
2020/8/18 15:27:00,263.069,-46.589,61211.9144
2020/8/18 15:28:00,263.301,-46.542,61164.48436
2020/8/18 15:29:00,263.532,-46.495,61115.99858
2020/8/18 15:30:00,263.763,-46.446,61066.45828
2020/8/18 15:31:00,263.992,-46.396,61015.86468
2020/8/18 15:32:00,264.22,-46.346,60964.21906
2020/8/18 15:33:00,264.447,-46.294,60911.52271
2020/8/18 15:34:00,264.674,-46.242,60857.77695
2020/8/18 15:35:00,264.899,-46.188,60802.98312
2020/8/18 15:36:00,265.123,-46.134,60747.14261
2020/8/18 15:37:00,265.346,-46.078,60690.25682
2020/8/18 15:38:00,265.568,-46.022,60632.32717
2020/8/18 15:39:00,265.788,-45.964,60573.35512
2020/8/18 15:40:00,266.008,-45.906,60513.34216
2020/8/18 15:41:00,266.227,-45.847,60452.2898
2020/8/18 15:42:00,266.444,-45.786,60390.19958
2020/8/18 15:43:00,266.66,-45.725,60327.07306
2020/8/18 15:44:00,266.875,-45.663,60262.91186
2020/8/18 15:45:00,267.089,-45.6,60197.71757
2020/8/18 15:46:00,267.302,-45.536,60131.49186
2020/8/18 15:47:00,267.513,-45.471,60064.23641
2020/8/18 15:48:00,267.723,-45.405,59995.95292
2020/8/18 15:49:00,267.932,-45.339,59926.64312
2020/8/18 15:50:00,268.14,-45.271,59856.30878
2020/8/18 15:51:00,268.347,-45.202,59784.95175
2020/8/18 15:52:00,268.552,-45.133,59712.57373
2020/8/18 15:53:00,268.756,-45.063,59639.17661
2020/8/18 15:54:00,268.959,-44.991,59564.76229
2020/8/18 15:55:00,269.16,-44.919,59489.33266
2020/8/18 15:56:00,269.36,-44.846,59412.88964
2020/8/18 15:57:00,269.559,-44.772,59335.43521
2020/8/18 15:58:00,269.757,-44.698,59256.97135
2020/8/18 15:59:00,269.953,-44.622,59177.50007
2020/8/18 16:00:00,270.148,-44.546,59097.02342
2020/8/18 16:01:00,270.342,-44.468,59015.54348
2020/8/18 16:02:00,270.534,-44.39,58933.06234
2020/8/18 16:03:00,270.725,-44.311,58849.58214
2020/8/18 16:04:00,270.914,-44.231,58765.10504
2020/8/18 16:05:00,271.103,-44.151,58679.63322
2020/8/18 16:06:00,271.289,-44.069,58593.16891
2020/8/18 16:07:00,271.475,-43.987,58505.71435
2020/8/18 16:08:00,271.659,-43.904,58417.27182
2020/8/18 16:09:00,271.842,-43.82,58327.84363
2020/8/18 16:10:00,272.023,-43.735,58237.4321
2020/8/18 16:11:00,272.203,-43.65,58146.0396
2020/8/18 16:12:00,272.381,-43.563,58053.66854
2020/8/18 16:13:00,272.558,-43.476,57960.32132
2020/8/18 16:14:00,272.734,-43.388,57866.0004
2020/8/18 16:15:00,272.908,-43.3,57770.70828
2020/8/18 16:16:00,273.081,-43.21,57674.44745
2020/8/18 16:17:00,273.252,-43.12,57577.22047
2020/8/18 16:18:00,273.422,-43.029,57479.02991
2020/8/18 16:19:00,273.59,-42.937,57379.87836
2020/8/18 16:20:00,273.757,-42.845,57279.76847
2020/8/18 16:21:00,273.923,-42.752,57178.7029
2020/8/18 16:22:00,274.087,-42.658,57076.68443
2020/8/18 16:23:00,274.249,-42.563,56973.71561
2020/8/18 16:24:00,274.41,-42.468,56869.7993
2020/8/18 16:25:00,274.57,-42.371,56764.93827
2020/8/18 16:26:00,274.728,-42.275,56659.13534
2020/8/18 16:27:00,274.884,-42.177,56552.39337
2020/8/18 16:28:00,275.039,-42.079,56444.71524
2020/8/18 16:29:00,275.193,-41.98,56336.10386
2020/8/18 16:30:00,275.344,-41.88,56226.56217
2020/8/18 16:31:00,275.495,-41.78,56116.09316
2020/8/18 16:32:00,275.644,-41.679,56004.69983
2020/8/18 16:33:00,275.791,-41.577,55892.38522
2020/8/18 16:34:00,275.937,-41.475,55779.15241
2020/8/18 16:35:00,276.081,-41.372,55665.0045
2020/8/18 16:36:00,276.224,-41.268,55549.94463
2020/8/18 16:37:00,276.365,-41.164,55433.97598
2020/8/18 16:38:00,276.504,-41.059,55317.10175
2020/8/18 16:39:00,276.642,-40.954,55199.32517
2020/8/18 16:40:00,276.779,-40.847,55080.64953
2020/8/18 16:41:00,276.913,-40.741,54961.07811
2020/8/18 16:42:00,277.047,-40.633,54840.61427
2020/8/18 16:43:00,277.178,-40.525,54719.26138
2020/8/18 16:44:00,277.308,-40.416,54597.02284
2020/8/18 16:45:00,277.437,-40.307,54473.9021
2020/8/18 16:46:00,277.564,-40.197,54349.90263
2020/8/18 16:47:00,277.689,-40.087,54225.02794
2020/8/18 16:48:00,277.813,-39.976,54099.28158
2020/8/18 16:49:00,277.934,-39.864,53972.66714
2020/8/18 16:50:00,278.055,-39.752,53845.18823
2020/8/18 16:51:00,278.174,-39.639,53716.84851
2020/8/18 16:52:00,278.291,-39.525,53587.65166
2020/8/18 16:53:00,278.406,-39.411,53457.60141
2020/8/18 16:54:00,278.52,-39.297,53326.70152
2020/8/18 16:55:00,278.632,-39.182,53194.95581
2020/8/18 16:56:00,278.743,-39.066,53062.36819
2020/8/18 16:57:00,278.852,-38.95,52928.94235
2020/8/18 16:58:00,278.959,-38.834,52794.6823
2020/8/18 16:59:00,279.064,-38.716,52659.592
2020/8/18 17:00:00,279.168,-38.599,52523.67543
2020/8/18 17:01:00,279.27,-38.481,52386.93662
2020/8/18 17:02:00,279.371,-38.362,52249.37964
2020/8/18 17:03:00,279.47,-38.243,52111.00859
2020/8/18 17:04:00,279.567,-38.123,51971.82763
2020/8/18 17:05:00,279.662,-38.003,51831.84094
2020/8/18 17:06:00,279.756,-37.882,51691.05274
2020/8/18 17:07:00,279.848,-37.761,51549.46732
2020/8/18 17:08:00,279.938,-37.639,51407.08897
2020/8/18 17:09:00,280.027,-37.517,51263.92205
2020/8/18 17:10:00,280.114,-37.394,51119.97096
2020/8/18 17:11:00,280.199,-37.271,50975.24014
2020/8/18 17:12:00,280.282,-37.148,50829.73405
2020/8/18 17:13:00,280.364,-37.024,50683.45723
2020/8/18 17:14:00,280.444,-36.9,50536.41425
2020/8/18 17:15:00,280.522,-36.775,50388.60971
2020/8/18 17:16:00,280.598,-36.65,50240.04827
2020/8/18 17:17:00,280.673,-36.524,50090.73464
2020/8/18 17:18:00,280.746,-36.398,49940.67357
2020/8/18 17:19:00,280.817,-36.271,49789.86984
2020/8/18 17:20:00,280.886,-36.144,49638.32831
2020/8/18 17:21:00,280.954,-36.017,49486.05385
2020/8/18 17:22:00,281.019,-35.889,49333.05141
2020/8/18 17:23:00,281.083,-35.761,49179.32598
2020/8/18 17:24:00,281.145,-35.633,49024.88259
2020/8/18 17:25:00,281.206,-35.504,48869.72631
2020/8/18 17:26:00,281.264,-35.375,48713.8623
2020/8/18 17:27:00,281.321,-35.245,48557.29574
2020/8/18 17:28:00,281.375,-35.115,48400.03185
2020/8/18 17:29:00,281.428,-34.985,48242.07595
2020/8/18 17:30:00,281.479,-34.854,48083.43336
2020/8/18 17:31:00,281.528,-34.723,47924.10949
2020/8/18 17:32:00,281.576,-34.592,47764.10979
2020/8/18 17:33:00,281.621,-34.46,47603.43976
2020/8/18 17:34:00,281.664,-34.328,47442.10498
2020/8/18 17:35:00,281.706,-34.195,47280.11106
2020/8/18 17:36:00,281.746,-34.063,47117.46368
2020/8/18 17:37:00,281.783,-33.93,46954.16868
2020/8/18 17:38:00,281.819,-33.796,46790.23165
2020/8/18 17:39:00,281.853,-33.663,46625.65855
2020/8/18 17:40:00,281.885,-33.529,46460.45529
2020/8/18 17:41:00,281.915,-33.395,46294.62785
2020/8/18 17:42:00,281.943,-33.26,46128.18229
2020/8/18 17:43:00,281.969,-33.125,45961.1247
2020/8/18 17:44:00,281.993,-32.99,45793.46125
2020/8/18 17:45:00,282.015,-32.855,45625.19818
2020/8/18 17:46:00,282.035,-32.719,45456.3418
2020/8/18 17:47:00,282.053,-32.584,45286.89848
2020/8/18 17:48:00,282.069,-32.447,45116.87466
2020/8/18 17:49:00,282.083,-32.311,44946.27686
2020/8/18 17:50:00,282.095,-32.175,44775.11164
2020/8/18 17:51:00,282.105,-32.038,44603.38568
2020/8/18 17:52:00,282.112,-31.901,44431.1057
2020/8/18 17:53:00,282.118,-31.763,44258.2785
2020/8/18 17:54:00,282.121,-31.626,44084.91098
2020/8/18 17:55:00,282.123,-31.488,43911.01007
2020/8/18 17:56:00,282.122,-31.35,43736.58284
2020/8/18 17:57:00,282.119,-31.212,43561.63639
2020/8/18 17:58:00,282.114,-31.074,43386.17792
2020/8/18 17:59:00,282.106,-30.935,43210.21473
2020/8/18 18:00:00,282.097,-30.797,43033.75417
2020/8/18 18:01:00,282.085,-30.658,42856.80372
2020/8/18 18:02:00,282.071,-30.519,42679.3709
2020/8/18 18:03:00,282.055,-30.38,42501.46335
2020/8/18 18:04:00,282.036,-30.24,42323.08881
2020/8/18 18:05:00,282.016,-30.101,42144.25509
2020/8/18 18:06:00,281.993,-29.961,41964.97011
2020/8/18 18:07:00,281.967,-29.822,41785.24187
2020/8/18 18:08:00,281.939,-29.682,41605.07848
2020/8/18 18:09:00,281.909,-29.542,41424.48816
2020/8/18 18:10:00,281.877,-29.401,41243.47922
2020/8/18 18:11:00,281.842,-29.261,41062.06008
2020/8/18 18:12:00,281.805,-29.121,40880.23926
2020/8/18 18:13:00,281.765,-28.98,40698.02541
2020/8/18 18:14:00,281.723,-28.84,40515.42725
2020/8/18 18:15:00,281.678,-28.699,40332.45365
2020/8/18 18:16:00,281.631,-28.558,40149.11359
2020/8/18 18:17:00,281.581,-28.418,39965.41615
2020/8/18 18:18:00,281.529,-28.277,39781.37057
2020/8/18 18:19:00,281.474,-28.136,39596.98616
2020/8/18 18:20:00,281.417,-27.995,39412.27239
2020/8/18 18:21:00,281.357,-27.854,39227.23886
2020/8/18 18:22:00,281.294,-27.713,39041.89529
2020/8/18 18:23:00,281.229,-27.571,38856.25152
2020/8/18 18:24:00,281.161,-27.43,38670.31756
2020/8/18 18:25:00,281.09,-27.289,38484.10355
2020/8/18 18:26:00,281.016,-27.148,38297.61975
2020/8/18 18:27:00,280.94,-27.007,38110.87658
2020/8/18 18:28:00,280.861,-26.866,37923.88463
2020/8/18 18:29:00,280.779,-26.724,37736.65461
2020/8/18 18:30:00,280.695,-26.583,37549.19741
2020/8/18 18:31:00,280.607,-26.442,37361.52406
2020/8/18 18:32:00,280.516,-26.301,37173.64577
2020/8/18 18:33:00,280.423,-26.16,36985.57391
2020/8/18 18:34:00,280.326,-26.019,36797.32002
2020/8/18 18:35:00,280.227,-25.878,36608.89582
2020/8/18 18:36:00,280.124,-25.737,36420.31318
2020/8/18 18:37:00,280.018,-25.596,36231.5842
2020/8/18 18:38:00,279.91,-25.455,36042.72113
2020/8/18 18:39:00,279.798,-25.315,35853.73642
2020/8/18 18:40:00,279.683,-25.174,35664.64272
2020/8/18 18:41:00,279.564,-25.034,35475.45289
2020/8/18 18:42:00,279.443,-24.893,35286.17996
2020/8/18 18:43:00,279.318,-24.753,35096.8372
2020/8/18 18:44:00,279.189,-24.613,34907.43809
2020/8/18 18:45:00,279.058,-24.473,34717.99632
2020/8/18 18:46:00,278.923,-24.333,34528.5258
2020/8/18 18:47:00,278.784,-24.193,34339.04067
2020/8/18 18:48:00,278.642,-24.054,34149.55532
2020/8/18 18:49:00,278.496,-23.915,33960.08437
2020/8/18 18:50:00,278.347,-23.776,33770.64269
2020/8/18 18:51:00,278.194,-23.637,33581.24538
2020/8/18 18:52:00,278.038,-23.498,33391.90783
2020/8/18 18:53:00,277.878,-23.359,33202.64565
2020/8/18 18:54:00,277.714,-23.221,33013.47476
2020/8/18 18:55:00,277.546,-23.083,32824.41135
2020/8/18 18:56:00,277.374,-22.945,32635.47187
2020/8/18 18:57:00,277.198,-22.808,32446.46159
2020/8/18 18:58:00,277.019,-22.67,32257.82016
2020/8/18 18:59:00,276.835,-22.533,32069.35381
2020/8/18 19:00:00,276.647,-22.397,31881.0802
2020/8/18 19:01:00,276.455,-22.26,31693.01727
2020/8/18 19:02:00,276.259,-22.124,31505.18333
2020/8/18 19:03:00,276.059,-21.989,31317.597
2020/8/18 19:04:00,275.854,-21.853,31130.27723
2020/8/18 19:05:00,275.645,-21.718,30943.24333
2020/8/18 19:06:00,275.432,-21.584,30756.51494
2020/8/18 19:07:00,275.214,-21.449,30570.11209
2020/8/18 19:08:00,274.992,-21.315,30384.05516
2020/8/18 19:09:00,274.765,-21.182,30198.3649
2020/8/18 19:10:00,274.533,-21.049,30013.06245
2020/8/18 19:11:00,274.296,-20.916,29828.16935
2020/8/18 19:12:00,274.055,-20.784,29643.70755
2020/8/18 19:13:00,273.809,-20.652,29459.69935
2020/8/18 19:14:00,273.558,-20.521,29276.16756
2020/8/18 19:15:00,273.302,-20.39,29093.13534
2020/8/18 19:16:00,273.041,-20.26,28910.62631
2020/8/18 19:17:00,272.775,-20.131,28728.66453
2020/8/18 19:18:00,272.504,-20.001,28547.27451
2020/8/18 19:19:00,272.227,-19.873,28366.48125
2020/8/18 19:20:00,271.945,-19.745,28186.31017
2020/8/18 19:21:00,271.658,-19.617,28006.78719
2020/8/18 19:22:00,271.365,-19.49,27827.93872
2020/8/18 19:23:00,271.067,-19.364,27649.79164
2020/8/18 19:24:00,270.763,-19.239,27472.37337
2020/8/18 19:25:00,270.453,-19.114,27295.71181
2020/8/18 19:26:00,270.138,-18.989,27119.83539
2020/8/18 19:27:00,269.817,-18.866,26944.77306
2020/8/18 19:28:00,269.49,-18.743,26770.55431
2020/8/18 19:29:00,269.156,-18.621,26597.20916
2020/8/18 19:30:00,268.817,-18.499,26424.76817
2020/8/18 19:31:00,268.472,-18.379,26253.26251
2020/8/18 19:32:00,268.12,-18.259,26082.72382
2020/8/18 19:33:00,267.763,-18.14,25913.18441
2020/8/18 19:34:00,267.398,-18.022,25744.67705
2020/8/18 19:35:00,267.028,-17.904,25577.2352
2020/8/18 19:36:00,266.651,-17.788,25410.89282
2020/8/18 19:37:00,266.267,-17.672,25245.68446
2020/8/18 19:38:00,265.876,-17.558,25081.64532
2020/8/18 19:39:00,265.479,-17.444,24918.81113
2020/8/18 19:40:00,265.075,-17.331,24757.21824
2020/8/18 19:41:00,264.664,-17.219,24596.90356
2020/8/18 19:42:00,264.247,-17.109,24437.90465
2020/8/18 19:43:00,263.822,-16.999,24280.25959
2020/8/18 19:44:00,263.39,-16.89,24124.00713
2020/8/18 19:45:00,262.951,-16.783,23969.18651
2020/8/18 19:46:00,262.505,-16.676,23815.83761
2020/8/18 19:47:00,262.051,-16.571,23664.0009
2020/8/18 19:48:00,261.59,-16.467,23513.71734
2020/8/18 19:49:00,261.122,-16.364,23365.02852
2020/8/18 19:50:00,260.646,-16.262,23217.97654
2020/8/18 19:51:00,260.163,-16.162,23072.60401
2020/8/18 19:52:00,259.672,-16.062,22928.95412
2020/8/18 19:53:00,259.174,-15.965,22787.07048
2020/8/18 19:54:00,258.668,-15.868,22646.99726
2020/8/18 19:55:00,258.154,-15.773,22508.77904
2020/8/18 19:56:00,257.633,-15.679,22372.46084
2020/8/18 19:57:00,257.104,-15.586,22238.08811
2020/8/18 19:58:00,256.567,-15.495,22105.70653
2020/8/18 19:59:00,256.023,-15.406,21975.36258
2020/8/18 20:00:00,255.47,-15.318,21847.10262
2020/8/18 20:01:00,254.91,-15.231,21720.97343
2020/8/18 20:02:00,254.342,-15.146,21597.02208
2020/8/18 20:03:00,253.767,-15.063,21475.29578
2020/8/18 20:04:00,253.183,-14.981,21355.84196
2020/8/18 20:05:00,252.592,-14.901,21238.70817
2020/8/18 20:06:00,251.993,-14.822,21123.94199
2020/8/18 20:07:00,251.386,-14.745,21011.59106
2020/8/18 20:08:00,250.772,-14.67,20901.70295
2020/8/18 20:09:00,250.15,-14.597,20794.32516
2020/8/18 20:10:00,249.521,-14.525,20689.50503
2020/8/18 20:11:00,248.884,-14.456,20587.28951
2020/8/18 20:12:00,248.239,-14.388,20487.72576
2020/8/18 20:13:00,247.588,-14.322,20390.86008
2020/8/18 20:14:00,246.929,-14.258,20296.73855
2020/8/18 20:15:00,246.263,-14.196,20205.40675
2020/8/18 20:16:00,245.59,-14.136,20116.90967
2020/8/18 20:17:00,244.91,-14.077,20031.29168
2020/8/18 20:18:00,244.224,-14.021,19948.59639
2020/8/18 20:19:00,243.53,-13.967,19868.86664
2020/8/18 20:20:00,242.831,-13.915,19792.14437
2020/8/18 20:21:00,242.125,-13.865,19718.47056
2020/8/18 20:22:00,241.413,-13.817,19647.88499
2020/8/18 20:23:00,240.695,-13.771,19580.42674
2020/8/18 20:24:00,239.971,-13.728,19516.13326
2020/8/18 20:25:00,239.242,-13.686,19455.04082
2020/8/18 20:26:00,238.507,-13.647,19397.18434
2020/8/18 20:27:00,237.768,-13.61,19342.59725
2020/8/18 20:28:00,237.023,-13.576,19291.31152
2020/8/18 20:29:00,236.274,-13.543,19243.35737
2020/8/18 20:30:00,235.52,-13.513,19198.76347
2020/8/18 20:31:00,234.763,-13.485,19157.55663
2020/8/18 20:32:00,234.001,-13.46,19119.76181
2020/8/18 20:33:00,233.236,-13.437,19085.40235
2020/8/18 20:34:00,232.467,-13.416,19054.49931
2020/8/18 20:35:00,231.696,-13.397,19027.07188
2020/8/18 20:36:00,230.921,-13.381,19003.13716
2020/8/18 20:37:00,230.145,-13.367,18982.7102
2020/8/18 20:38:00,229.366,-13.356,18965.80384
2020/8/18 20:39:00,228.585,-13.347,18952.42874
2020/8/18 20:40:00,227.803,-13.34,18942.59338
2020/8/18 20:41:00,227.019,-13.336,18936.30387
2020/8/18 20:42:00,226.235,-13.334,18933.56447
2020/8/18 20:43:00,225.45,-13.335,18934.37672
2020/8/18 20:44:00,224.664,-13.338,18938.74009
2020/8/18 20:45:00,223.879,-13.343,18946.65173
2020/8/18 20:46:00,223.093,-13.351,18958.10658
2020/8/18 20:47:00,222.309,-13.361,18973.0973
2020/8/18 20:48:00,221.525,-13.373,18991.61437
2020/8/18 20:49:00,220.743,-13.388,19013.64599
2020/8/18 20:50:00,219.962,-13.406,19039.17815
2020/8/18 20:51:00,219.183,-13.425,19068.19501
2020/8/18 20:52:00,218.406,-13.447,19100.67834
2020/8/18 20:53:00,217.631,-13.471,19136.60799
2020/8/18 20:54:00,216.859,-13.498,19175.96175
2020/8/18 20:55:00,216.09,-13.527,19218.71562
2020/8/18 20:56:00,215.324,-13.558,19264.84362
2020/8/18 20:57:00,214.561,-13.592,19314.31804
2020/8/18 20:58:00,213.802,-13.627,19367.10942
2020/8/18 20:59:00,213.047,-13.665,19423.18657
2020/8/18 21:00:00,212.296,-13.705,19482.51699
2020/8/18 21:01:00,211.549,-13.748,19545.0664
2020/8/18 21:02:00,210.807,-13.792,19610.79923
2020/8/18 21:03:00,210.07,-13.839,19679.6785
2020/8/18 21:04:00,209.337,-13.888,19751.66606
2020/8/18 21:05:00,208.61,-13.939,19826.72249
2020/8/18 21:06:00,207.888,-13.992,19904.80738
2020/8/18 21:07:00,207.171,-14.047,19985.87922
2020/8/18 21:08:00,206.46,-14.104,20069.89564
2020/8/18 21:09:00,205.754,-14.163,20156.81334
2020/8/18 21:10:00,205.055,-14.224,20246.58839
2020/8/18 21:11:00,204.361,-14.287,20339.17608
2020/8/18 21:12:00,203.673,-14.352,20434.53112
2020/8/18 21:13:00,202.992,-14.419,20532.60764
2020/8/18 21:14:00,202.317,-14.487,20633.35936
2020/8/18 21:15:00,201.648,-14.558,20736.73961
2020/8/18 21:16:00,200.985,-14.63,20842.70139
2020/8/18 21:17:00,200.329,-14.704,20951.19746
2020/8/18 21:18:00,199.679,-14.78,21062.18039
2020/8/18 21:19:00,199.036,-14.858,21175.60259
2020/8/18 21:20:00,198.4,-14.937,21291.41646
2020/8/18 21:21:00,197.77,-15.018,21409.57433
2020/8/18 21:22:00,197.147,-15.1,21530.02871
2020/8/18 21:23:00,196.53,-15.184,21652.73204
2020/8/18 21:24:00,195.92,-15.27,21777.63695
2020/8/18 21:25:00,195.317,-15.357,21904.69631
2020/8/18 21:26:00,194.72,-15.446,22033.86316
2020/8/18 21:27:00,194.131,-15.536,22165.09083
2020/8/18 21:28:00,193.547,-15.628,22298.33297
2020/8/18 21:29:00,192.97,-15.721,22433.54355
2020/8/18 21:30:00,192.4,-15.815,22570.67691
2020/8/18 21:31:00,191.837,-15.911,22709.68778
2020/8/18 21:32:00,191.279,-16.008,22850.53132
2020/8/18 21:33:00,190.729,-16.106,22993.1632
2020/8/18 21:34:00,190.184,-16.206,23137.53946
2020/8/18 21:35:00,189.647,-16.307,23283.61669
2020/8/18 21:36:00,189.115,-16.409,23431.35198
2020/8/18 21:37:00,188.59,-16.513,23580.70293
2020/8/18 21:38:00,188.07,-16.617,23731.62773
2020/8/18 21:39:00,187.558,-16.723,23884.08504
2020/8/18 21:40:00,187.051,-16.83,24038.03415
2020/8/18 21:41:00,186.55,-16.938,24193.43489
2020/8/18 21:42:00,186.055,-17.047,24350.24765
2020/8/18 21:43:00,185.566,-17.157,24508.43343
2020/8/18 21:44:00,185.082,-17.268,24667.95379
2020/8/18 21:45:00,184.605,-17.38,24828.77091
2020/8/18 21:46:00,184.133,-17.493,24990.84754
2020/8/18 21:47:00,183.667,-17.607,25154.14703
2020/8/18 21:48:00,183.206,-17.722,25318.63334
2020/8/18 21:49:00,182.751,-17.837,25484.27098
2020/8/18 21:50:00,182.301,-17.954,25651.02508
2020/8/18 21:51:00,181.856,-18.072,25818.86136
2020/8/18 21:52:00,181.417,-18.19,25987.7461
2020/8/18 21:53:00,180.982,-18.309,26157.64619
2020/8/18 21:54:00,180.553,-18.429,26328.52907
2020/8/18 21:55:00,180.129,-18.55,26500.36276
2020/8/18 21:56:00,179.709,-18.672,26673.11583
2020/8/18 21:57:00,179.295,-18.794,26846.75745
2020/8/18 21:58:00,178.885,-18.917,27021.2573
2020/8/18 21:59:00,178.48,-19.04,27196.58561
2020/8/18 22:00:00,178.079,-19.165,27372.71317
2020/8/18 22:01:00,177.683,-19.29,27549.61128
2020/8/18 22:02:00,177.291,-19.416,27727.25176
2020/8/18 22:03:00,176.904,-19.542,27905.60696
2020/8/18 22:04:00,176.52,-19.669,28084.64974
2020/8/18 22:05:00,176.141,-19.796,28264.35343
2020/8/18 22:06:00,175.767,-19.924,28444.69188
2020/8/18 22:07:00,175.396,-20.053,28625.63939
2020/8/18 22:08:00,175.029,-20.182,28807.17078
2020/8/18 22:09:00,174.666,-20.312,28989.26127
2020/8/18 22:10:00,174.307,-20.442,29171.88661
2020/8/18 22:11:00,173.952,-20.573,29355.02294
2020/8/18 22:12:00,173.6,-20.704,29538.64686
2020/8/18 22:13:00,173.252,-20.836,29722.73541
2020/8/18 22:14:00,172.907,-20.968,29907.26602
2020/8/18 22:15:00,172.566,-21.1,30092.21657
2020/8/18 22:16:00,172.229,-21.233,30277.56533
2020/8/18 22:17:00,171.894,-21.367,30463.29094
2020/8/18 22:18:00,171.563,-21.5,30649.37249
2020/8/18 22:19:00,171.236,-21.635,30835.78941
2020/8/18 22:20:00,170.911,-21.769,31022.52148
2020/8/18 22:21:00,170.589,-21.904,31209.54888
2020/8/18 22:22:00,170.271,-22.039,31396.85217
2020/8/18 22:23:00,169.955,-22.175,31584.41218
2020/8/18 22:24:00,169.642,-22.311,31772.21016
2020/8/18 22:25:00,169.333,-22.447,31960.22763
2020/8/18 22:26:00,169.025,-22.583,32148.44651
2020/8/18 22:27:00,168.721,-22.72,32336.84897
2020/8/18 22:28:00,168.419,-22.857,32525.41753
2020/8/18 22:29:00,168.12,-22.995,32714.13499
2020/8/18 22:30:00,167.824,-23.132,32902.98447
2020/8/18 22:31:00,167.53,-23.27,33091.94938
2020/8/18 22:32:00,167.238,-23.408,33281.01341
2020/8/18 22:33:00,166.949,-23.546,33470.16051
2020/8/18 22:34:00,166.662,-23.685,33659.37494
2020/8/18 22:35:00,166.377,-23.824,33848.6412
2020/8/18 22:36:00,166.095,-23.962,34037.94405
2020/8/18 22:37:00,165.815,-24.101,34227.26851
2020/8/18 22:38:00,165.537,-24.241,34416.59987
2020/8/18 22:39:00,165.261,-24.38,34605.92362
2020/8/18 22:40:00,164.987,-24.52,34795.22551
2020/8/18 22:41:00,164.715,-24.659,34984.49153
2020/8/18 22:42:00,164.445,-24.799,35173.70788
2020/8/18 22:43:00,164.177,-24.939,35362.86099
2020/8/18 22:44:00,163.911,-25.079,35551.93751
2020/8/18 22:45:00,163.646,-25.219,35740.9243
2020/8/18 22:46:00,163.384,-25.36,35929.80841
2020/8/18 22:47:00,163.123,-25.5,36118.57712
2020/8/18 22:48:00,162.864,-25.64,36307.21789
2020/8/18 22:49:00,162.606,-25.781,36495.71838
2020/8/18 22:50:00,162.35,-25.921,36684.06643
2020/8/18 22:51:00,162.096,-26.062,36872.25006
2020/8/18 22:52:00,161.843,-26.203,37060.2575
2020/8/18 22:53:00,161.592,-26.343,37248.07712
2020/8/18 22:54:00,161.342,-26.484,37435.6975
2020/8/18 22:55:00,161.094,-26.625,37623.10735
2020/8/18 22:56:00,160.847,-26.766,37810.29558
2020/8/18 22:57:00,160.601,-26.906,37997.25123
2020/8/18 22:58:00,160.357,-27.047,38183.96352
2020/8/18 22:59:00,160.114,-27.188,38370.42181
2020/8/18 23:00:00,159.872,-27.329,38556.61563
2020/8/18 23:01:00,159.632,-27.47,38742.53464
2020/8/18 23:02:00,159.392,-27.61,38928.16866
2020/8/18 23:03:00,159.154,-27.751,39113.50763
2020/8/18 23:04:00,158.917,-27.892,39298.54164
2020/8/18 23:05:00,158.681,-28.032,39483.26093
2020/8/18 23:06:00,158.446,-28.173,39667.65585
2020/8/18 23:07:00,158.212,-28.313,39851.7169
2020/8/18 23:08:00,157.979,-28.454,40035.43469
2020/8/18 23:09:00,157.747,-28.594,40218.79995
2020/8/18 23:10:00,157.516,-28.735,40401.80357
2020/8/18 23:11:00,157.286,-28.875,40584.43651
2020/8/18 23:12:00,157.056,-29.015,40766.68988
2020/8/18 23:13:00,156.828,-29.155,40948.5549
2020/8/18 23:14:00,156.6,-29.295,41130.02289
2020/8/18 23:15:00,156.374,-29.434,41311.0853
2020/8/18 23:16:00,156.148,-29.574,41491.73366
2020/8/18 23:17:00,155.922,-29.714,41671.95962
2020/8/18 23:18:00,155.698,-29.853,41851.75496
2020/8/18 23:19:00,155.474,-29.992,42031.11152
2020/8/18 23:20:00,155.251,-30.131,42210.02126
2020/8/18 23:21:00,155.029,-30.27,42388.47624
2020/8/18 23:22:00,154.807,-30.409,42566.4686
2020/8/18 23:23:00,154.585,-30.548,42743.9906
2020/8/18 23:24:00,154.365,-30.686,42921.03457
2020/8/18 23:25:00,154.145,-30.825,43097.59295
2020/8/18 23:26:00,153.925,-30.963,43273.65824
2020/8/18 23:27:00,153.706,-31.101,43449.22307
2020/8/18 23:28:00,153.487,-31.239,43624.2801
2020/8/18 23:29:00,153.269,-31.376,43798.82213
2020/8/18 23:30:00,153.052,-31.513,43972.84202
2020/8/18 23:31:00,152.834,-31.651,44146.33269
2020/8/18 23:32:00,152.618,-31.787,44319.28718
2020/8/18 23:33:00,152.401,-31.924,44491.69857
2020/8/18 23:34:00,152.185,-32.061,44663.56006
2020/8/18 23:35:00,151.969,-32.197,44834.86488
2020/8/18 23:36:00,151.754,-32.333,45005.60637
2020/8/18 23:37:00,151.539,-32.469,45175.77792
2020/8/18 23:38:00,151.324,-32.604,45345.37301
2020/8/18 23:39:00,151.11,-32.739,45514.38518
2020/8/18 23:40:00,150.895,-32.874,45682.80803
2020/8/18 23:41:00,150.681,-33.009,45850.63526
2020/8/18 23:42:00,150.467,-33.144,46017.86061
2020/8/18 23:43:00,150.254,-33.278,46184.4779
2020/8/18 23:44:00,150.04,-33.412,46350.481
2020/8/18 23:45:00,149.827,-33.545,46515.86386
2020/8/18 23:46:00,149.614,-33.679,46680.62049
2020/8/18 23:47:00,149.401,-33.812,46844.74497
2020/8/18 23:48:00,149.188,-33.944,47008.23142
2020/8/18 23:49:00,148.975,-34.077,47171.07403
2020/8/18 23:50:00,148.763,-34.209,47333.26707
2020/8/18 23:51:00,148.55,-34.34,47494.80483
2020/8/18 23:52:00,148.338,-34.472,47655.6817
2020/8/18 23:53:00,148.125,-34.603,47815.8921
2020/8/18 23:54:00,147.913,-34.734,47975.43051
2020/8/18 23:55:00,147.7,-34.864,48134.29148
2020/8/18 23:56:00,147.488,-34.994,48292.46959
2020/8/18 23:57:00,147.275,-35.124,48449.95949
2020/8/18 23:58:00,147.063,-35.253,48606.7559
2020/8/18 23:59:00,146.85,-35.382,48762.85355
2020/8/19 0:00:00,146.638,-35.511,48918.24726
2020/8/19 0:01:00,146.425,-35.639,49072.93189
2020/8/19 0:02:00,146.212,-35.767,49226.90235
2020/8/19 0:03:00,146,-35.894,49380.15359
2020/8/19 0:04:00,145.787,-36.021,49532.68062
2020/8/19 0:05:00,145.574,-36.148,49684.4785
2020/8/19 0:06:00,145.36,-36.274,49835.54234
2020/8/19 0:07:00,145.147,-36.4,49985.86729
2020/8/19 0:08:00,144.934,-36.525,50135.44855
2020/8/19 0:09:00,144.72,-36.65,50284.28134
2020/8/19 0:10:00,144.506,-36.775,50432.3608
2020/8/19 0:11:00,144.292,-36.899,50579.6826
2020/8/19 0:12:00,144.078,-37.023,50726.24198
2020/8/19 0:13:00,143.863,-37.146,50872.03437
2020/8/19 0:14:00,143.648,-37.269,51017.05522
2020/8/19 0:15:00,143.434,-37.391,51161.30008
2020/8/19 0:16:00,143.218,-37.513,51304.76448
2020/8/19 0:17:00,143.003,-37.634,51447.44404
2020/8/19 0:18:00,142.787,-37.755,51589.3344
2020/8/19 0:19:00,142.571,-37.876,51730.43124
2020/8/19 0:20:00,142.355,-37.996,51870.7303
2020/8/19 0:21:00,142.139,-38.115,52010.22735
2020/8/19 0:22:00,141.922,-38.234,52148.91819
2020/8/19 0:23:00,141.705,-38.353,52286.79868
2020/8/19 0:24:00,141.487,-38.471,52423.86471
2020/8/19 0:25:00,141.269,-38.588,52560.1122
2020/8/19 0:26:00,141.051,-38.705,52695.53713
2020/8/19 0:27:00,140.833,-38.822,52830.13551
2020/8/19 0:28:00,140.614,-38.938,52963.90338
2020/8/19 0:29:00,140.395,-39.053,53096.83683
2020/8/19 0:30:00,140.175,-39.168,53228.93198
2020/8/19 0:31:00,139.955,-39.282,53360.18499
2020/8/19 0:32:00,139.735,-39.396,53490.59207
2020/8/19 0:33:00,139.514,-39.509,53620.14944
2020/8/19 0:34:00,139.293,-39.622,53748.85338
2020/8/19 0:35:00,139.071,-39.734,53876.7002
2020/8/19 0:36:00,138.849,-39.845,54003.68624
2020/8/19 0:37:00,138.627,-39.956,54129.80789
2020/8/19 0:38:00,138.404,-40.067,54255.06156
2020/8/19 0:39:00,138.181,-40.176,54379.4437
2020/8/19 0:40:00,137.957,-40.285,54502.9508
2020/8/19 0:41:00,137.733,-40.394,54625.57938
2020/8/19 0:42:00,137.508,-40.502,54747.32601
2020/8/19 0:43:00,137.283,-40.609,54868.18726
2020/8/19 0:44:00,137.058,-40.716,54988.15977
2020/8/19 0:45:00,136.832,-40.822,55107.2402
2020/8/19 0:46:00,136.605,-40.928,55225.42522
2020/8/19 0:47:00,136.378,-41.032,55342.7116
2020/8/19 0:48:00,136.151,-41.137,55459.09607
2020/8/19 0:49:00,135.923,-41.24,55574.57544
2020/8/19 0:50:00,135.695,-41.343,55689.14652
2020/8/19 0:51:00,135.466,-41.445,55802.80619
2020/8/19 0:52:00,135.237,-41.547,55915.55132
2020/8/19 0:53:00,135.007,-41.648,56027.37886
2020/8/19 0:54:00,134.776,-41.748,56138.28575
2020/8/19 0:55:00,134.545,-41.848,56248.26898
2020/8/19 0:56:00,134.314,-41.947,56357.32558
2020/8/19 0:57:00,134.082,-42.045,56465.45259
2020/8/19 0:58:00,133.85,-42.142,56572.64711
2020/8/19 0:59:00,133.617,-42.239,56678.90625
2020/8/19 1:00:00,133.383,-42.335,56784.22716
2020/8/19 1:01:00,133.149,-42.43,56888.60702
2020/8/19 1:02:00,132.915,-42.525,56992.04303
2020/8/19 1:03:00,132.68,-42.619,57094.53245
2020/8/19 1:04:00,132.444,-42.712,57196.07253
2020/8/19 1:05:00,132.208,-42.805,57296.66059
2020/8/19 1:06:00,131.971,-42.896,57396.29396
2020/8/19 1:07:00,131.734,-42.987,57494.96999
2020/8/19 1:08:00,131.496,-43.078,57592.68609
2020/8/19 1:09:00,131.258,-43.167,57689.43968
2020/8/19 1:10:00,131.019,-43.256,57785.22822
