sat_11node/sr2-sr3.csv

Time (UTCG),Azimuth (deg),Elevation (deg),Range (km)
2020/8/18 4:00:00,273.502,-16.115,22895.24754
2020/8/18 4:01:00,273.066,-15.986,22707.1087
2020/8/18 4:02:00,272.62,-15.857,22520.30748
2020/8/18 4:03:00,272.165,-15.73,22334.89192
2020/8/18 4:04:00,271.701,-15.604,22150.91118
2020/8/18 4:05:00,271.227,-15.479,21968.4156
2020/8/18 4:06:00,270.744,-15.355,21787.45662
2020/8/18 4:07:00,270.252,-15.233,21608.08691
2020/8/18 4:08:00,269.749,-15.111,21430.36028
2020/8/18 4:09:00,269.237,-14.991,21254.33169
2020/8/18 4:10:00,268.714,-14.872,21080.05733
2020/8/18 4:11:00,268.181,-14.755,20907.5946
2020/8/18 4:12:00,267.638,-14.639,20737.00205
2020/8/18 4:13:00,267.084,-14.524,20568.33945
2020/8/18 4:14:00,266.52,-14.411,20401.66771
2020/8/18 4:15:00,265.944,-14.3,20237.04893
2020/8/18 4:16:00,265.358,-14.19,20074.54641
2020/8/18 4:17:00,264.761,-14.081,19914.22449
2020/8/18 4:18:00,264.153,-13.974,19756.14856
2020/8/18 4:19:00,263.534,-13.869,19600.38549
2020/8/18 4:20:00,262.903,-13.766,19447.00276
2020/8/18 4:21:00,262.261,-13.664,19296.069
2020/8/18 4:22:00,261.607,-13.564,19147.65383
2020/8/18 4:23:00,260.942,-13.466,19001.82773
2020/8/18 4:24:00,260.266,-13.37,18858.66205
2020/8/18 4:25:00,259.578,-13.275,18718.2289
2020/8/18 4:26:00,258.878,-13.183,18580.60108
2020/8/18 4:27:00,258.166,-13.093,18445.85207
2020/8/18 4:28:00,257.443,-13.005,18314.05577
2020/8/18 4:29:00,256.708,-12.919,18185.28662
2020/8/18 4:30:00,255.962,-12.835,18059.61912
2020/8/18 4:31:00,255.204,-12.753,17937.1285
2020/8/18 4:32:00,254.435,-12.673,17817.88954
2020/8/18 4:33:00,253.654,-12.596,17701.9772
2020/8/18 4:34:00,252.862,-12.521,17589.46615
2020/8/18 4:35:00,252.058,-12.448,17480.43076
2020/8/18 4:36:00,251.244,-12.378,17374.94485
2020/8/18 4:37:00,250.419,-12.311,17273.0816
2020/8/18 4:38:00,249.583,-12.245,17174.91326
2020/8/18 4:39:00,248.736,-12.183,17080.511
2020/8/18 4:40:00,247.88,-12.123,16989.94515
2020/8/18 4:41:00,247.013,-12.065,16903.28414
2020/8/18 4:42:00,246.137,-12.011,16820.59503
2020/8/18 4:43:00,245.251,-11.958,16741.94299
2020/8/18 4:44:00,244.356,-11.909,16667.39121
2020/8/18 4:45:00,243.453,-11.863,16597.00067
2020/8/18 4:46:00,242.541,-11.819,16530.82991
2020/8/18 4:47:00,241.621,-11.778,16468.93473
2020/8/18 4:48:00,240.694,-11.74,16411.36854
2020/8/18 4:49:00,239.76,-11.705,16358.18121
2020/8/18 4:50:00,238.818,-11.673,16309.41972
2020/8/18 4:51:00,237.871,-11.643,16265.12757
2020/8/18 4:52:00,236.918,-11.617,16225.34469
2020/8/18 4:53:00,235.961,-11.594,16190.1074
2020/8/18 4:54:00,234.998,-11.574,16159.44795
2020/8/18 4:55:00,234.031,-11.556,16133.39502
2020/8/18 4:56:00,233.061,-11.542,16111.97275
2020/8/18 4:57:00,232.088,-11.531,16095.20125
2020/8/18 4:58:00,231.113,-11.523,16083.09637
2020/8/18 4:59:00,230.136,-11.518,16075.66945
2020/8/18 5:00:00,229.158,-11.516,16072.92758
2020/8/18 5:01:00,228.179,-11.517,16074.87315
2020/8/18 5:02:00,227.2,-11.522,16081.50452
2020/8/18 5:03:00,226.221,-11.529,16092.81524
2020/8/18 5:04:00,225.244,-11.539,16108.79455
2020/8/18 5:05:00,224.269,-11.553,16129.42728
2020/8/18 5:06:00,223.296,-11.569,16154.69401
2020/8/18 5:07:00,222.326,-11.589,16184.57103
2020/8/18 5:08:00,221.359,-11.611,16219.03047
2020/8/18 5:09:00,220.396,-11.637,16258.04068
2020/8/18 5:10:00,219.438,-11.665,16301.5659
2020/8/18 5:11:00,218.484,-11.697,16349.56667
2020/8/18 5:12:00,217.536,-11.731,16402.00004
2020/8/18 5:13:00,216.594,-11.769,16458.81955
2020/8/18 5:14:00,215.659,-11.809,16519.97562
2020/8/18 5:15:00,214.73,-11.852,16585.41545
2020/8/18 5:16:00,213.808,-11.898,16655.08371
2020/8/18 5:17:00,212.894,-11.946,16728.92212
2020/8/18 5:18:00,211.988,-11.998,16806.87006
2020/8/18 5:19:00,211.09,-12.052,16888.86466
2020/8/18 5:20:00,210.201,-12.109,16974.84099
2020/8/18 5:21:00,209.32,-12.168,17064.73228
2020/8/18 5:22:00,208.449,-12.23,17158.47015
2020/8/18 5:23:00,207.587,-12.295,17255.98466
2020/8/18 5:24:00,206.734,-12.362,17357.20483
2020/8/18 5:25:00,205.891,-12.431,17462.05843
2020/8/18 5:26:00,205.058,-12.503,17570.47243
2020/8/18 5:27:00,204.236,-12.577,17682.37304
2020/8/18 5:28:00,203.423,-12.654,17797.68596
2020/8/18 5:29:00,202.621,-12.733,17916.33652
2020/8/18 5:30:00,201.829,-12.814,18038.2498
2020/8/18 5:31:00,201.047,-12.898,18163.35083
2020/8/18 5:32:00,200.276,-12.983,18291.56462
2020/8/18 5:33:00,199.515,-13.071,18422.81654
2020/8/18 5:34:00,198.765,-13.16,18557.03202
2020/8/18 5:35:00,198.026,-13.252,18694.13706
2020/8/18 5:36:00,197.297,-13.346,18834.05812
2020/8/18 5:37:00,196.579,-13.442,18976.72229
2020/8/18 5:38:00,195.871,-13.539,19122.05727
2020/8/18 5:39:00,195.173,-13.639,19269.99162
2020/8/18 5:40:00,194.486,-13.74,19420.45466
2020/8/18 5:41:00,193.809,-13.843,19573.37668
2020/8/18 5:42:00,193.142,-13.947,19728.68885
2020/8/18 5:43:00,192.485,-14.054,19886.32338
2020/8/18 5:44:00,191.838,-14.162,20046.21352
2020/8/18 5:45:00,191.202,-14.271,20208.29355
2020/8/18 5:46:00,190.574,-14.382,20372.49896
2020/8/18 5:47:00,189.957,-14.495,20538.76624
2020/8/18 5:48:00,189.349,-14.609,20707.03314
2020/8/18 5:49:00,188.75,-14.724,20877.2385
2020/8/18 5:50:00,188.161,-14.841,21049.32241
2020/8/18 5:51:00,187.581,-14.96,21223.2261
2020/8/18 5:52:00,187.01,-15.079,21398.89201
2020/8/18 5:53:00,186.447,-15.2,21576.26376
2020/8/18 5:54:00,185.894,-15.322,21755.28619
2020/8/18 5:55:00,185.349,-15.446,21935.90527
2020/8/18 5:56:00,184.812,-15.57,22118.06819
2020/8/18 5:57:00,184.283,-15.696,22301.72331
2020/8/18 5:58:00,183.763,-15.823,22486.82013
2020/8/18 5:59:00,183.251,-15.951,22673.30931
2020/8/18 6:00:00,182.746,-16.08,22861.1426
2020/8/18 6:01:00,182.249,-16.21,23050.27292
2020/8/18 6:02:00,181.76,-16.341,23240.65426
2020/8/18 6:03:00,181.278,-16.473,23432.24168
2020/8/18 6:04:00,180.803,-16.606,23624.9913
2020/8/18 6:05:00,180.335,-16.74,23818.8603
2020/8/18 6:06:00,179.874,-16.874,24013.80683
2020/8/18 6:07:00,179.42,-17.01,24209.79013
2020/8/18 6:08:00,178.973,-17.146,24406.7703
2020/8/18 6:09:00,178.532,-17.284,24604.70851
2020/8/18 6:10:00,178.098,-17.422,24803.56677
2020/8/18 6:11:00,177.669,-17.561,25003.30809
2020/8/18 6:12:00,177.247,-17.7,25203.89627
2020/8/18 6:13:00,176.831,-17.84,25405.29608
2020/8/18 6:14:00,176.421,-17.981,25607.4731
2020/8/18 6:15:00,176.016,-18.123,25810.39368
2020/8/18 6:16:00,175.617,-18.265,26014.02509
2020/8/18 6:17:00,175.223,-18.408,26218.33528
2020/8/18 6:18:00,174.835,-18.552,26423.29302
2020/8/18 6:19:00,174.452,-18.696,26628.86783
2020/8/18 6:20:00,174.074,-18.841,26835.02991
2020/8/18 6:21:00,173.701,-18.986,27041.75018
2020/8/18 6:22:00,173.333,-19.132,27249.0003
2020/8/18 6:23:00,172.97,-19.278,27456.75251
2020/8/18 6:24:00,172.611,-19.425,27664.97974
2020/8/18 6:25:00,172.257,-19.572,27873.65558
2020/8/18 6:26:00,171.907,-19.72,28082.75416
2020/8/18 6:27:00,171.561,-19.869,28292.25027
2020/8/18 6:28:00,171.22,-20.017,28502.11924
2020/8/18 6:29:00,170.883,-20.166,28712.33697
2020/8/18 6:30:00,170.55,-20.316,28922.8799
2020/8/18 6:31:00,170.22,-20.466,29133.72503
2020/8/18 6:32:00,169.895,-20.616,29344.84981
2020/8/18 6:33:00,169.573,-20.767,29556.23225
2020/8/18 6:34:00,169.255,-20.918,29767.85083
2020/8/18 6:35:00,168.941,-21.069,29979.68447
2020/8/18 6:36:00,168.63,-21.221,30191.71256
2020/8/18 6:37:00,168.323,-21.373,30403.91497
2020/8/18 6:38:00,168.018,-21.525,30616.27196
2020/8/18 6:39:00,167.717,-21.678,30828.76421
2020/8/18 6:40:00,167.419,-21.831,31041.37282
2020/8/18 6:41:00,167.125,-21.984,31254.07927
2020/8/18 6:42:00,166.833,-22.138,31466.86544
2020/8/18 6:43:00,166.544,-22.291,31679.71357
2020/8/18 6:44:00,166.258,-22.445,31892.60626
2020/8/18 6:45:00,165.974,-22.599,32105.52646
2020/8/18 6:46:00,165.694,-22.753,32318.45747
2020/8/18 6:47:00,165.416,-22.908,32531.3829
2020/8/18 6:48:00,165.14,-23.063,32744.2867
2020/8/18 6:49:00,164.868,-23.217,32957.15313
2020/8/18 6:50:00,164.597,-23.372,33169.96674
2020/8/18 6:51:00,164.329,-23.528,33382.71239
2020/8/18 6:52:00,164.063,-23.683,33595.37521
2020/8/18 6:53:00,163.8,-23.838,33807.9406
2020/8/18 6:54:00,163.539,-23.994,34020.39427
2020/8/18 6:55:00,163.279,-24.15,34232.72215
2020/8/18 6:56:00,163.022,-24.305,34444.91046
2020/8/18 6:57:00,162.767,-24.461,34656.94562
2020/8/18 6:58:00,162.514,-24.617,34868.81434
2020/8/18 6:59:00,162.263,-24.773,35080.50354
2020/8/18 7:00:00,162.014,-24.929,35292.00037
2020/8/18 7:01:00,161.766,-25.086,35503.2922
2020/8/18 7:02:00,161.521,-25.242,35714.36663
2020/8/18 7:03:00,161.277,-25.398,35925.21144
2020/8/18 7:04:00,161.034,-25.555,36135.81464
2020/8/18 7:05:00,160.794,-25.711,36346.16444
2020/8/18 7:06:00,160.554,-25.867,36556.24922
2020/8/18 7:07:00,160.317,-26.024,36766.05757
2020/8/18 7:08:00,160.081,-26.18,36975.57826
2020/8/18 7:09:00,159.846,-26.337,37184.80022
2020/8/18 7:10:00,159.613,-26.493,37393.71257
2020/8/18 7:11:00,159.381,-26.65,37602.30461
2020/8/18 7:12:00,159.15,-26.806,37810.56578
2020/8/18 7:13:00,158.921,-26.962,38018.48569
2020/8/18 7:14:00,158.693,-27.119,38226.05411
2020/8/18 7:15:00,158.466,-27.275,38433.26096
2020/8/18 7:16:00,158.24,-27.431,38640.09632
2020/8/18 7:17:00,158.016,-27.588,38846.55039
2020/8/18 7:18:00,157.792,-27.744,39052.61353
2020/8/18 7:19:00,157.57,-27.9,39258.27624
2020/8/18 7:20:00,157.348,-28.056,39463.52914
2020/8/18 7:21:00,157.128,-28.212,39668.363
2020/8/18 7:22:00,156.909,-28.368,39872.7687
2020/8/18 7:23:00,156.69,-28.523,40076.73726
2020/8/18 7:24:00,156.472,-28.679,40280.25981
2020/8/18 7:25:00,156.255,-28.835,40483.32761
2020/8/18 7:26:00,156.039,-28.99,40685.93203
2020/8/18 7:27:00,155.824,-29.145,40888.06455
2020/8/18 7:28:00,155.61,-29.301,41089.71677
2020/8/18 7:29:00,155.396,-29.456,41290.8804
2020/8/18 7:30:00,155.183,-29.611,41491.54725
2020/8/18 7:31:00,154.971,-29.766,41691.70924
2020/8/18 7:32:00,154.759,-29.92,41891.35838
2020/8/18 7:33:00,154.548,-30.075,42090.48679
2020/8/18 7:34:00,154.337,-30.229,42289.08668
2020/8/18 7:35:00,154.128,-30.383,42487.15036
2020/8/18 7:36:00,153.918,-30.537,42684.67024
2020/8/18 7:37:00,153.709,-30.691,42881.63882
2020/8/18 7:38:00,153.501,-30.845,43078.04866
2020/8/18 7:39:00,153.293,-30.998,43273.89245
2020/8/18 7:40:00,153.085,-31.151,43469.16295
2020/8/18 7:41:00,152.878,-31.305,43663.85298
2020/8/18 7:42:00,152.672,-31.457,43857.95548
2020/8/18 7:43:00,152.465,-31.61,44051.46345
2020/8/18 7:44:00,152.259,-31.762,44244.36997
2020/8/18 7:45:00,152.054,-31.915,44436.66819
2020/8/18 7:46:00,151.848,-32.067,44628.35137
2020/8/18 7:47:00,151.643,-32.218,44819.41281
2020/8/18 7:48:00,151.438,-32.37,45009.84588
2020/8/18 7:49:00,151.234,-32.521,45199.64406
2020/8/18 7:50:00,151.029,-32.672,45388.80086
2020/8/18 7:51:00,150.825,-32.823,45577.30988
2020/8/18 7:52:00,150.621,-32.974,45765.16478
2020/8/18 7:53:00,150.417,-33.124,45952.35931
2020/8/18 7:54:00,150.213,-33.274,46138.88724
2020/8/18 7:55:00,150.01,-33.423,46324.74244
2020/8/18 7:56:00,149.806,-33.573,46509.91884
2020/8/18 7:57:00,149.603,-33.722,46694.41043
2020/8/18 7:58:00,149.399,-33.871,46878.21125
2020/8/18 7:59:00,149.196,-34.019,47061.31541
2020/8/18 8:00:00,148.992,-34.167,47243.71708
2020/8/18 8:01:00,148.789,-34.315,47425.41049
2020/8/18 8:02:00,148.585,-34.463,47606.38991
2020/8/18 8:03:00,148.382,-34.61,47786.6497
2020/8/18 8:04:00,148.178,-34.757,47966.18425
2020/8/18 8:05:00,147.975,-34.904,48144.988
2020/8/18 8:06:00,147.771,-35.05,48323.05547
2020/8/18 8:07:00,147.567,-35.196,48500.3812
2020/8/18 8:08:00,147.363,-35.342,48676.95983
2020/8/18 8:09:00,147.159,-35.487,48852.786
2020/8/18 8:10:00,146.955,-35.632,49027.85443
2020/8/18 8:11:00,146.751,-35.776,49202.15989
2020/8/18 8:12:00,146.546,-35.92,49375.6972
2020/8/18 8:13:00,146.341,-36.064,49548.4612
2020/8/18 8:14:00,146.136,-36.207,49720.44682
2020/8/18 8:15:00,145.931,-36.35,49891.64902
2020/8/18 8:16:00,145.725,-36.493,50062.0628
2020/8/18 8:17:00,145.52,-36.635,50231.68322
2020/8/18 8:18:00,145.314,-36.777,50400.50538
2020/8/18 8:19:00,145.107,-36.918,50568.52441
2020/8/18 8:20:00,144.901,-37.059,50735.73551
2020/8/18 8:21:00,144.694,-37.2,50902.13392
2020/8/18 8:22:00,144.487,-37.34,51067.71491
2020/8/18 8:23:00,144.279,-37.48,51232.47381
2020/8/18 8:24:00,144.071,-37.619,51396.40597
2020/8/18 8:25:00,143.863,-37.758,51559.5068
2020/8/18 8:26:00,143.654,-37.896,51721.77176
2020/8/18 8:27:00,143.445,-38.034,51883.19632
2020/8/18 8:28:00,143.236,-38.171,52043.776
2020/8/18 8:29:00,143.026,-38.308,52203.50643
2020/8/18 8:30:00,142.815,-38.445,52362.38318
2020/8/18 8:31:00,142.605,-38.581,52520.40191
2020/8/18 8:32:00,142.393,-38.716,52677.55831
2020/8/18 8:33:00,142.182,-38.851,52833.84811
2020/8/18 8:34:00,141.969,-38.986,52989.26708
2020/8/18 8:35:00,141.757,-39.12,53143.81102
2020/8/18 8:36:00,141.544,-39.254,53297.47579
2020/8/18 8:37:00,141.33,-39.387,53450.25726
2020/8/18 8:38:00,141.116,-39.519,53602.15135
2020/8/18 8:39:00,140.901,-39.651,53753.15403
2020/8/18 8:40:00,140.686,-39.783,53903.26128
2020/8/18 8:41:00,140.47,-39.913,54052.46913
2020/8/18 8:42:00,140.254,-40.044,54200.77366
2020/8/18 8:43:00,140.037,-40.174,54348.17097
2020/8/18 8:44:00,139.819,-40.303,54494.65719
2020/8/18 8:45:00,139.601,-40.432,54640.22849
2020/8/18 8:46:00,139.383,-40.56,54784.88109
2020/8/18 8:47:00,139.163,-40.687,54928.61123
2020/8/18 8:48:00,138.943,-40.814,55071.41518
2020/8/18 8:49:00,138.723,-40.941,55213.28926
2020/8/18 8:50:00,138.502,-41.067,55354.22981
2020/8/18 8:51:00,138.28,-41.192,55494.23322
2020/8/18 8:52:00,138.058,-41.316,55633.2959
2020/8/18 8:53:00,137.834,-41.44,55771.41429
2020/8/18 8:54:00,137.611,-41.564,55908.58487
2020/8/18 8:55:00,137.386,-41.687,56044.80416
2020/8/18 8:56:00,137.161,-41.809,56180.06871
2020/8/18 8:57:00,136.935,-41.93,56314.37509
2020/8/18 8:58:00,136.709,-42.051,56447.71991
2020/8/18 8:59:00,136.482,-42.171,56580.09981
2020/8/18 9:00:00,136.254,-42.291,56711.51148
2020/8/18 9:01:00,136.025,-42.41,56841.95159
2020/8/18 9:02:00,135.796,-42.528,56971.41694
2020/8/18 9:03:00,135.566,-42.646,57099.90426
2020/8/18 9:04:00,135.335,-42.763,57227.41037
2020/8/18 9:05:00,135.104,-42.879,57353.93209
2020/8/18 9:06:00,134.871,-42.994,57479.46628
2020/8/18 9:07:00,134.638,-43.109,57604.00985
2020/8/18 9:08:00,134.405,-43.223,57727.55972
2020/8/18 9:09:00,134.17,-43.337,57850.11284
2020/8/18 9:10:00,133.935,-43.449,57971.66621
2020/8/18 9:11:00,133.699,-43.561,58092.21683
2020/8/18 9:12:00,133.462,-43.673,58211.76177
2020/8/18 9:13:00,133.225,-43.783,58330.29809
2020/8/18 9:14:00,132.986,-43.893,58447.82291
2020/8/18 9:15:00,132.747,-44.002,58564.33336
2020/8/18 9:16:00,132.507,-44.11,58679.82661
2020/8/18 9:17:00,132.266,-44.218,58794.29986
2020/8/18 9:18:00,132.025,-44.324,58907.75033
2020/8/18 9:19:00,131.783,-44.43,59020.17529
2020/8/18 9:20:00,131.54,-44.535,59131.57201
2020/8/18 9:21:00,131.296,-44.64,59241.9221
2020/8/18 9:22:00,131.051,-44.743,59351.2543
2020/8/18 9:23:00,130.805,-44.846,59459.55031
2020/8/18 9:24:00,130.559,-44.948,59566.80752
2020/8/18 9:25:00,130.312,-45.049,59673.02336
2020/8/18 9:26:00,130.064,-45.15,59778.19531
2020/8/18 9:27:00,129.816,-45.249,59882.32084
2020/8/18 9:28:00,129.566,-45.348,59985.39747
2020/8/18 9:29:00,129.316,-45.446,60087.42276
2020/8/18 9:30:00,129.065,-45.543,60188.39427
2020/8/18 9:31:00,128.813,-45.639,60288.3096
2020/8/18 9:32:00,128.56,-45.734,60387.1664
2020/8/18 9:33:00,128.306,-45.829,60484.96233
2020/8/18 9:34:00,128.052,-45.922,60581.69507
2020/8/18 9:35:00,127.797,-46.015,60677.36233
2020/8/18 9:36:00,127.541,-46.107,60771.96187
2020/8/18 9:37:00,127.284,-46.198,60865.49145
2020/8/18 9:38:00,127.027,-46.288,60957.94887
2020/8/18 9:39:00,126.768,-46.377,61049.33198
2020/8/18 9:40:00,126.509,-46.465,61139.63861
2020/8/18 9:41:00,126.249,-46.552,61228.86665
2020/8/18 9:42:00,125.988,-46.639,61317.01403
2020/8/18 9:43:00,125.727,-46.724,61404.07867
2020/8/18 9:44:00,125.465,-46.808,61490.05855
2020/8/18 9:45:00,125.202,-46.892,61574.95165
2020/8/18 9:46:00,124.938,-46.975,61658.75602
2020/8/18 9:47:00,124.673,-47.056,61741.46968
2020/8/18 9:48:00,124.408,-47.137,61823.09072
2020/8/18 9:49:00,124.142,-47.217,61903.61726
2020/8/18 9:50:00,123.875,-47.295,61983.0474
2020/8/18 9:51:00,123.607,-47.373,62061.37933
2020/8/18 9:52:00,123.339,-47.45,62138.61122
2020/8/18 9:53:00,123.07,-47.526,62214.7413
2020/8/18 9:54:00,122.8,-47.601,62289.76779
2020/8/18 9:55:00,122.529,-47.674,62363.68898
2020/8/18 9:56:00,122.258,-47.747,62436.50315
2020/8/18 9:57:00,121.986,-47.819,62508.20863
2020/8/18 9:58:00,121.713,-47.89,62578.80377
2020/8/18 9:59:00,121.44,-47.959,62648.28694
2020/8/18 10:00:00,121.166,-48.028,62716.65656
2020/8/18 10:01:00,120.891,-48.096,62783.91105
2020/8/18 10:02:00,120.616,-48.162,62850.04887
2020/8/18 10:03:00,120.34,-48.228,62915.06851
2020/8/18 10:04:00,120.063,-48.292,62978.96847
2020/8/18 10:05:00,119.786,-48.356,63041.7473
2020/8/18 10:06:00,119.508,-48.418,63103.40356
2020/8/18 10:07:00,119.229,-48.479,63163.93585
2020/8/18 10:08:00,118.95,-48.54,63223.34278
2020/8/18 10:09:00,118.67,-48.599,63281.623
2020/8/18 10:10:00,118.39,-48.657,63338.77518
2020/8/18 10:11:00,118.109,-48.714,63394.79802
2020/8/18 10:12:00,117.828,-48.77,63449.69025
2020/8/18 10:13:00,117.546,-48.824,63503.45063
2020/8/18 10:14:00,117.263,-48.878,63556.07792
2020/8/18 10:15:00,116.98,-48.931,63607.57094
2020/8/18 10:16:00,116.696,-48.982,63657.92852
2020/8/18 10:17:00,116.412,-49.032,63707.14951
2020/8/18 10:18:00,116.127,-49.082,63755.23282
2020/8/18 10:19:00,115.842,-49.13,63802.17733
2020/8/18 10:20:00,115.557,-49.177,63847.98201
2020/8/18 10:21:00,115.271,-49.222,63892.64581
2020/8/18 10:22:00,114.985,-49.267,63936.16772
2020/8/18 10:23:00,114.698,-49.31,63978.54677
2020/8/18 10:24:00,114.41,-49.353,64019.78199
2020/8/18 10:25:00,114.123,-49.394,64059.87246
2020/8/18 10:26:00,113.835,-49.434,64098.81728
2020/8/18 10:27:00,113.547,-49.473,64136.61557
2020/8/18 10:28:00,113.258,-49.511,64173.26649
2020/8/18 10:29:00,112.969,-49.547,64208.7692
2020/8/18 10:30:00,112.68,-49.582,64243.12291
2020/8/18 10:31:00,112.39,-49.617,64276.32687
2020/8/18 10:32:00,112.1,-49.65,64308.3803
2020/8/18 10:33:00,111.81,-49.681,64339.28251
2020/8/18 10:34:00,111.52,-49.712,64369.03281
2020/8/18 10:35:00,111.229,-49.742,64397.63052
2020/8/18 10:36:00,110.939,-49.77,64425.07501
2020/8/18 10:37:00,110.648,-49.797,64451.36567
2020/8/18 10:38:00,110.357,-49.823,64476.50191
2020/8/18 10:39:00,110.065,-49.847,64500.48317
2020/8/18 10:40:00,109.774,-49.871,64523.30893
2020/8/18 10:41:00,109.482,-49.893,64544.97866
2020/8/18 10:42:00,109.191,-49.914,64565.4919
2020/8/18 10:43:00,108.899,-49.934,64584.8482
2020/8/18 10:44:00,108.608,-49.953,64603.0471
2020/8/18 10:45:00,108.316,-49.97,64620.08823
2020/8/18 10:46:00,108.024,-49.986,64635.97121
2020/8/18 10:47:00,107.732,-50.001,64650.69568
2020/8/18 10:48:00,107.441,-50.015,64664.26133
2020/8/18 10:49:00,107.149,-50.028,64676.66785
2020/8/18 10:50:00,106.857,-50.039,64687.91498
2020/8/18 10:51:00,106.566,-50.049,64698.00247
2020/8/18 10:52:00,106.274,-50.058,64706.93013
2020/8/18 10:53:00,105.983,-50.065,64714.69772
2020/8/18 10:54:00,105.692,-50.072,64721.3051
2020/8/18 10:55:00,105.401,-50.077,64726.75213
2020/8/18 10:56:00,105.11,-50.081,64731.0387
2020/8/18 10:57:00,104.82,-50.084,64734.16471
2020/8/18 10:58:00,104.529,-50.085,64736.13012
2020/8/18 10:59:00,104.239,-50.086,64736.93489
2020/8/18 11:00:00,103.949,-50.085,64736.579
2020/8/18 11:01:00,103.659,-50.083,64735.06248
2020/8/18 11:02:00,103.37,-50.079,64732.38537
2020/8/18 11:03:00,103.081,-50.075,64728.54774
2020/8/18 11:04:00,102.793,-50.069,64723.54969
2020/8/18 11:05:00,102.504,-50.062,64717.39134
2020/8/18 11:06:00,102.216,-50.053,64710.07284
2020/8/18 11:07:00,101.929,-50.044,64701.59437
2020/8/18 11:08:00,101.642,-50.033,64691.95613
2020/8/18 11:09:00,101.355,-50.021,64681.15835
2020/8/18 11:10:00,101.069,-50.008,64669.20128
2020/8/18 11:11:00,100.784,-49.994,64656.0852
2020/8/18 11:12:00,100.499,-49.978,64641.81042
2020/8/18 11:13:00,100.214,-49.961,64626.37728
2020/8/18 11:14:00,99.93,-49.943,64609.78612
2020/8/18 11:15:00,99.646,-49.924,64592.03734
2020/8/18 11:16:00,99.364,-49.903,64573.13135
2020/8/18 11:17:00,99.081,-49.882,64553.06859
2020/8/18 11:18:00,98.8,-49.859,64531.84954
2020/8/18 11:19:00,98.519,-49.835,64509.47465
2020/8/18 11:20:00,98.238,-49.809,64485.94445
2020/8/18 11:21:00,97.959,-49.783,64461.2595
2020/8/18 11:22:00,97.68,-49.755,64435.42036
2020/8/18 11:23:00,97.401,-49.726,64408.42762
2020/8/18 11:24:00,97.124,-49.696,64380.28191
2020/8/18 11:25:00,96.847,-49.665,64350.98387
2020/8/18 11:26:00,96.571,-49.632,64320.53418
2020/8/18 11:27:00,96.296,-49.599,64288.93355
2020/8/18 11:28:00,96.022,-49.564,64256.18269
2020/8/18 11:29:00,95.748,-49.528,64222.28236
2020/8/18 11:30:00,95.476,-49.491,64187.23334
2020/8/18 11:31:00,95.204,-49.452,64151.03644
2020/8/18 11:32:00,94.933,-49.413,64113.69249
2020/8/18 11:33:00,94.663,-49.372,64075.20234
2020/8/18 11:34:00,94.394,-49.33,64035.56689
2020/8/18 11:35:00,94.126,-49.287,63994.78703
2020/8/18 11:36:00,93.859,-49.243,63952.86373
2020/8/18 11:37:00,93.593,-49.198,63909.79792
2020/8/18 11:38:00,93.327,-49.151,63865.59062
2020/8/18 11:39:00,93.063,-49.104,63820.24282
2020/8/18 11:40:00,92.8,-49.055,63773.75558
2020/8/18 11:41:00,92.538,-49.005,63726.12997
2020/8/18 11:42:00,92.277,-48.954,63677.36709
2020/8/18 11:43:00,92.017,-48.902,63627.46804
2020/8/18 11:44:00,91.758,-48.849,63576.434
2020/8/18 11:45:00,91.5,-48.794,63524.26617
2020/8/18 11:46:00,91.243,-48.739,63470.96567
2020/8/18 11:47:00,90.988,-48.682,63416.53377
2020/8/18 11:48:00,90.734,-48.625,63360.97172
2020/8/18 11:49:00,90.48,-48.566,63304.28082
2020/8/18 11:50:00,90.228,-48.506,63246.46237
2020/8/18 11:51:00,89.977,-48.445,63187.5177
2020/8/18 11:52:00,89.728,-48.383,63127.44818
2020/8/18 11:53:00,89.479,-48.32,63066.25519
2020/8/18 11:54:00,89.232,-48.256,63003.94015
2020/8/18 11:55:00,88.986,-48.191,62940.5045
2020/8/18 11:56:00,88.741,-48.124,62875.94972
2020/8/18 11:57:00,88.498,-48.057,62810.27729
2020/8/18 11:58:00,88.255,-47.989,62743.48874
2020/8/18 11:59:00,88.014,-47.919,62675.58562
2020/8/18 12:00:00,87.775,-47.849,62606.5695
2020/8/18 12:01:00,87.537,-47.777,62536.44199
2020/8/18 12:02:00,87.3,-47.705,62465.20472
2020/8/18 12:03:00,87.064,-47.631,62392.85934
2020/8/18 12:04:00,86.83,-47.557,62319.40753
2020/8/18 12:05:00,86.597,-47.481,62244.85102
2020/8/18 12:06:00,86.365,-47.405,62169.19153
2020/8/18 12:07:00,86.135,-47.327,62092.43082
2020/8/18 12:08:00,85.906,-47.248,62014.5707
2020/8/18 12:09:00,85.679,-47.169,61935.61298
2020/8/18 12:10:00,85.453,-47.088,61855.55951
2020/8/18 12:11:00,85.228,-47.007,61774.41216
2020/8/18 12:12:00,85.005,-46.925,61692.17283
2020/8/18 12:13:00,84.783,-46.841,61608.84351
2020/8/18 12:14:00,84.563,-46.757,61524.42603
2020/8/18 12:15:00,84.344,-46.672,61438.92244
2020/8/18 12:16:00,84.126,-46.585,61352.33475
2020/8/18 12:17:00,83.91,-46.498,61264.66498
2020/8/18 12:18:00,83.696,-46.41,61175.91522
2020/8/18 12:19:00,83.483,-46.321,61086.08755
2020/8/18 12:20:00,83.271,-46.231,60995.18409
2020/8/18 12:21:00,83.061,-46.14,60903.20699
2020/8/18 12:22:00,82.853,-46.049,60810.15842
2020/8/18 12:23:00,82.646,-45.956,60716.0406
2020/8/18 12:24:00,82.44,-45.862,60620.85574
2020/8/18 12:25:00,82.236,-45.768,60524.60611
2020/8/18 12:26:00,82.034,-45.673,60427.29399
2020/8/18 12:27:00,81.833,-45.577,60328.9217
2020/8/18 12:28:00,81.634,-45.48,60229.49159
2020/8/18 12:29:00,81.436,-45.382,60129.00602
2020/8/18 12:30:00,81.24,-45.283,60027.4674
2020/8/18 12:31:00,81.045,-45.183,59924.87815
2020/8/18 12:32:00,80.852,-45.083,59821.24072
2020/8/18 12:33:00,80.66,-44.982,59716.55761
2020/8/18 12:34:00,80.47,-44.88,59610.83132
2020/8/18 12:35:00,80.282,-44.777,59504.0644
2020/8/18 12:36:00,80.095,-44.673,59396.25941
2020/8/18 12:37:00,79.91,-44.569,59287.41896
2020/8/18 12:38:00,79.726,-44.463,59177.54568
2020/8/18 12:39:00,79.544,-44.357,59066.64221
2020/8/18 12:40:00,79.364,-44.25,58954.71125
2020/8/18 12:41:00,79.185,-44.143,58841.75551
2020/8/18 12:42:00,79.008,-44.034,58727.77781
2020/8/18 12:43:00,78.832,-43.925,58612.78077
2020/8/18 12:44:00,78.658,-43.815,58496.76728
2020/8/18 12:45:00,78.486,-43.704,58379.74015
2020/8/18 12:46:00,78.315,-43.593,58261.70226
2020/8/18 12:47:00,78.146,-43.48,58142.6565
2020/8/18 12:48:00,77.978,-43.367,58022.60579
2020/8/18 12:49:00,77.812,-43.254,57901.55307
2020/8/18 12:50:00,77.648,-43.139,57779.50133
2020/8/18 12:51:00,77.485,-43.024,57656.45359
2020/8/18 12:52:00,77.325,-42.908,57532.41288
2020/8/18 12:53:00,77.165,-42.792,57407.38227
2020/8/18 12:54:00,77.008,-42.675,57281.36488
2020/8/18 12:55:00,76.852,-42.557,57154.36383
2020/8/18 12:56:00,76.697,-42.438,57026.38228
2020/8/18 12:57:00,76.545,-42.319,56897.42344
2020/8/18 12:58:00,76.394,-42.199,56767.49053
2020/8/18 12:59:00,76.244,-42.078,56636.58681
2020/8/18 13:00:00,76.097,-41.957,56504.71556
2020/8/18 13:01:00,75.951,-41.835,56371.88012
2020/8/18 13:02:00,75.806,-41.712,56238.08382
2020/8/18 13:03:00,75.664,-41.589,56103.33007
2020/8/18 13:04:00,75.523,-41.465,55967.62226
2020/8/18 13:05:00,75.384,-41.341,55830.96386
2020/8/18 13:06:00,75.246,-41.215,55693.35835
2020/8/18 13:07:00,75.11,-41.09,55554.80923
2020/8/18 13:08:00,74.976,-40.963,55415.32006
2020/8/18 13:09:00,74.843,-40.836,55274.89443
2020/8/18 13:10:00,74.713,-40.709,55133.53594
2020/8/18 13:11:00,74.583,-40.581,54991.24823
2020/8/18 13:12:00,74.456,-40.452,54848.035
2020/8/18 13:13:00,74.33,-40.322,54703.89996
2020/8/18 13:14:00,74.206,-40.193,54558.84695
2020/8/18 13:15:00,74.084,-40.062,54412.87957
2020/8/18 13:16:00,73.963,-39.931,54266.00173
2020/8/18 13:17:00,73.845,-39.799,54118.21729
2020/8/18 13:18:00,73.727,-39.667,53969.53013
2020/8/18 13:19:00,73.612,-39.535,53819.94419
2020/8/18 13:20:00,73.498,-39.401,53669.46341
2020/8/18 13:21:00,73.386,-39.268,53518.0918
2020/8/18 13:22:00,73.276,-39.133,53365.8334
2020/8/18 13:23:00,73.168,-38.998,53212.69226
2020/8/18 13:24:00,73.061,-38.863,53058.6725
2020/8/18 13:25:00,72.956,-38.727,52903.77826
2020/8/18 13:26:00,72.852,-38.591,52748.01373
2020/8/18 13:27:00,72.751,-38.454,52591.38312
2020/8/18 13:28:00,72.651,-38.316,52433.89069
2020/8/18 13:29:00,72.553,-38.179,52275.54074
2020/8/18 13:30:00,72.457,-38.04,52116.33761
2020/8/18 13:31:00,72.362,-37.901,51956.28567
2020/8/18 13:32:00,72.269,-37.762,51795.38933
2020/8/18 13:33:00,72.179,-37.622,51633.65306
2020/8/18 13:34:00,72.089,-37.482,51471.08134
2020/8/18 13:35:00,72.002,-37.341,51307.67872
2020/8/18 13:36:00,71.916,-37.2,51143.44978
2020/8/18 13:37:00,71.832,-37.059,50978.39913
2020/8/18 13:38:00,71.75,-36.917,50812.53143
2020/8/18 13:39:00,71.67,-36.774,50645.85141
2020/8/18 13:40:00,71.592,-36.631,50478.3638
2020/8/18 13:41:00,71.515,-36.488,50310.07339
2020/8/18 13:42:00,71.44,-36.344,50140.98504
2020/8/18 13:43:00,71.367,-36.2,49971.10361
2020/8/18 13:44:00,71.296,-36.056,49800.43404
2020/8/18 13:45:00,71.226,-35.911,49628.9813
2020/8/18 13:46:00,71.159,-35.765,49456.75042
2020/8/18 13:47:00,71.093,-35.62,49283.74646
2020/8/18 13:48:00,71.029,-35.473,49109.97454
2020/8/18 13:49:00,70.967,-35.327,48935.43983
2020/8/18 13:50:00,70.907,-35.18,48760.14753
2020/8/18 13:51:00,70.849,-35.033,48584.10303
2020/8/18 13:52:00,70.792,-34.885,48407.31141
2020/8/18 13:53:00,70.738,-34.737,48229.77816
2020/8/18 13:54:00,70.685,-34.589,48051.50869
2020/8/18 13:55:00,70.634,-34.44,47872.50847
2020/8/18 13:56:00,70.586,-34.291,47692.78302
2020/8/18 13:57:00,70.539,-34.142,47512.33793
2020/8/18 13:58:00,70.494,-33.992,47331.17883
2020/8/18 13:59:00,70.451,-33.842,47149.3114
2020/8/18 14:00:00,70.409,-33.692,46966.7414
2020/8/18 14:01:00,70.37,-33.541,46783.47463
2020/8/18 14:02:00,70.333,-33.39,46599.51695
2020/8/18 14:03:00,70.298,-33.239,46414.87429
2020/8/18 14:04:00,70.264,-33.087,46229.55262
2020/8/18 14:05:00,70.233,-32.936,46043.558
2020/8/18 14:06:00,70.204,-32.783,45856.89653
2020/8/18 14:07:00,70.177,-32.631,45669.57438
2020/8/18 14:08:00,70.151,-32.478,45481.59778
2020/8/18 14:09:00,70.128,-32.325,45292.97305
2020/8/18 14:10:00,70.107,-32.172,45103.70656
2020/8/18 14:11:00,70.088,-32.018,44913.80473
2020/8/18 14:12:00,70.071,-31.865,44723.27408
2020/8/18 14:13:00,70.056,-31.711,44532.12119
2020/8/18 14:14:00,70.043,-31.556,44340.3527
2020/8/18 14:15:00,70.032,-31.402,44147.97535
2020/8/18 14:16:00,70.023,-31.247,43954.99594
2020/8/18 14:17:00,70.017,-31.092,43761.42133
2020/8/18 14:18:00,70.012,-30.937,43567.25849
2020/8/18 14:19:00,70.01,-30.781,43372.51445
2020/8/18 14:20:00,70.01,-30.626,43177.19633
2020/8/18 14:21:00,70.012,-30.47,42981.31132
2020/8/18 14:22:00,70.017,-30.314,42784.86671
2020/8/18 14:23:00,70.023,-30.157,42587.86987
2020/8/18 14:24:00,70.032,-30.001,42390.32825
2020/8/18 14:25:00,70.043,-29.844,42192.2494
2020/8/18 14:26:00,70.057,-29.687,41993.64097
2020/8/18 14:27:00,70.072,-29.53,41794.51069
2020/8/18 14:28:00,70.09,-29.373,41594.86638
2020/8/18 14:29:00,70.111,-29.216,41394.71598
2020/8/18 14:30:00,70.134,-29.058,41194.06751
2020/8/18 14:31:00,70.159,-28.9,40992.9291
2020/8/18 14:32:00,70.186,-28.742,40791.30899
2020/8/18 14:33:00,70.216,-28.584,40589.21552
2020/8/18 14:34:00,70.249,-28.426,40386.65714
2020/8/18 14:35:00,70.284,-28.268,40183.64242
2020/8/18 14:36:00,70.321,-28.11,39980.18004
2020/8/18 14:37:00,70.361,-27.951,39776.27879
2020/8/18 14:38:00,70.403,-27.792,39571.9476
2020/8/18 14:39:00,70.448,-27.634,39367.1955
2020/8/18 14:40:00,70.496,-27.475,39162.03166
2020/8/18 14:41:00,70.546,-27.316,38956.46537
2020/8/18 14:42:00,70.599,-27.157,38750.50608
2020/8/18 14:43:00,70.655,-26.998,38544.16333
2020/8/18 14:44:00,70.713,-26.839,38337.44697
2020/8/18 14:45:00,70.774,-26.679,38130.36658
2020/8/18 14:46:00,70.838,-26.52,37922.93229
2020/8/18 14:47:00,70.905,-26.361,37715.15424
2020/8/18 14:48:00,70.974,-26.201,37507.04272
2020/8/18 14:49:00,71.047,-26.042,37298.60821
2020/8/18 14:50:00,71.122,-25.882,37089.8613
2020/8/18 14:51:00,71.2,-25.722,36880.8128
2020/8/18 14:52:00,71.281,-25.563,36671.47365
2020/8/18 14:53:00,71.366,-25.403,36461.85498
2020/8/18 14:54:00,71.453,-25.244,36251.9681
2020/8/18 14:55:00,71.543,-25.084,36041.82452
2020/8/18 14:56:00,71.637,-24.924,35831.43591
2020/8/18 14:57:00,71.733,-24.765,35620.81416
2020/8/18 14:58:00,71.833,-24.605,35409.97135
2020/8/18 14:59:00,71.936,-24.446,35198.91977
2020/8/18 15:00:00,72.042,-24.286,34987.67191
2020/8/18 15:01:00,72.152,-24.126,34776.2405
2020/8/18 15:02:00,72.265,-23.967,34564.63847
2020/8/18 15:03:00,72.382,-23.808,34352.879
2020/8/18 15:04:00,72.502,-23.648,34140.97549
2020/8/18 15:05:00,72.625,-23.489,33928.94159
2020/8/18 15:06:00,72.753,-23.33,33716.79121
2020/8/18 15:07:00,72.883,-23.171,33504.5385
2020/8/18 15:08:00,73.018,-23.012,33292.19789
2020/8/18 15:09:00,73.156,-22.853,33079.78407
2020/8/18 15:10:00,73.298,-22.694,32867.31201
2020/8/18 15:11:00,73.444,-22.535,32654.79699
2020/8/18 15:12:00,73.594,-22.377,32442.25456
2020/8/18 15:13:00,73.748,-22.219,32229.7006
2020/8/18 15:14:00,73.905,-22.06,32017.15128
2020/8/18 15:15:00,74.067,-21.902,31804.62311
2020/8/18 15:16:00,74.233,-21.744,31592.13292
2020/8/18 15:17:00,74.403,-21.587,31379.58945
2020/8/18 15:18:00,74.578,-21.429,31167.2259
2020/8/18 15:19:00,74.757,-21.272,30954.95294
2020/8/18 15:20:00,74.94,-21.115,30742.78886
2020/8/18 15:21:00,75.128,-20.958,30530.75231
2020/8/18 15:22:00,75.32,-20.801,30318.86235
2020/8/18 15:23:00,75.518,-20.645,30107.13844
2020/8/18 15:24:00,75.72,-20.489,29895.60049
2020/8/18 15:25:00,75.926,-20.333,29684.26881
2020/8/18 15:26:00,76.138,-20.178,29473.16417
2020/8/18 15:27:00,76.355,-20.023,29262.3078
2020/8/18 15:28:00,76.576,-19.868,29051.72142
2020/8/18 15:29:00,76.803,-19.713,28841.42721
2020/8/18 15:30:00,77.035,-19.559,28631.44787
2020/8/18 15:31:00,77.273,-19.405,28421.80661
2020/8/18 15:32:00,77.515,-19.252,28212.52719
2020/8/18 15:33:00,77.764,-19.098,28003.63389
2020/8/18 15:34:00,78.018,-18.946,27795.1516
2020/8/18 15:35:00,78.278,-18.794,27587.10574
2020/8/18 15:36:00,78.543,-18.642,27379.52236
2020/8/18 15:37:00,78.815,-18.49,27172.42812
2020/8/18 15:38:00,79.092,-18.339,26965.85032
2020/8/18 15:39:00,79.376,-18.189,26759.81688
2020/8/18 15:40:00,79.666,-18.039,26554.35643
2020/8/18 15:41:00,79.962,-17.89,26349.49829
2020/8/18 15:42:00,80.265,-17.741,26145.27245
2020/8/18 15:43:00,80.575,-17.593,25941.70965
2020/8/18 15:44:00,80.891,-17.445,25738.84139
2020/8/18 15:45:00,81.214,-17.298,25536.69993
2020/8/18 15:46:00,81.544,-17.151,25335.31831
2020/8/18 15:47:00,81.881,-17.005,25134.73039
2020/8/18 15:48:00,82.225,-16.86,24934.97085
2020/8/18 15:49:00,82.576,-16.716,24736.07524
2020/8/18 15:50:00,82.936,-16.572,24538.07995
2020/8/18 15:51:00,83.302,-16.429,24341.02232
2020/8/18 15:52:00,83.677,-16.287,24144.94053
2020/8/18 15:53:00,84.059,-16.145,23949.87377
2020/8/18 15:54:00,84.449,-16.005,23755.86215
2020/8/18 15:55:00,84.848,-15.865,23562.94674
2020/8/18 15:56:00,85.255,-15.726,23371.16967
2020/8/18 15:57:00,85.67,-15.588,23180.57402
2020/8/18 15:58:00,86.093,-15.451,22991.20397
2020/8/18 15:59:00,86.526,-15.314,22803.1047
2020/8/18 16:00:00,86.967,-15.179,22616.32251
2020/8/18 16:01:00,87.418,-15.045,22430.90478
2020/8/18 16:02:00,87.877,-14.912,22246.90001
2020/8/18 16:03:00,88.346,-14.78,22064.35779
2020/8/18 16:04:00,88.824,-14.649,21883.32887
2020/8/18 16:05:00,89.312,-14.519,21703.86516
2020/8/18 16:06:00,89.81,-14.391,21526.01956
2020/8/18 16:07:00,90.317,-14.263,21349.84662
2020/8/18 16:08:00,90.835,-14.137,21175.40158
2020/8/18 16:09:00,91.362,-14.012,21002.74101
2020/8/18 16:10:00,91.9,-13.889,20831.92269
2020/8/18 16:11:00,92.448,-13.767,20663.00553
2020/8/18 16:12:00,93.007,-13.646,20496.04964
2020/8/18 16:13:00,93.577,-13.527,20331.1163
2020/8/18 16:14:00,94.157,-13.409,20168.26789
2020/8/18 16:15:00,94.748,-13.293,20007.56797
2020/8/18 16:16:00,95.35,-13.179,19849.08119
2020/8/18 16:17:00,95.963,-13.066,19692.87324
2020/8/18 16:18:00,96.588,-12.955,19539.01091
2020/8/18 16:19:00,97.223,-12.845,19387.56201
2020/8/18 16:20:00,97.87,-12.737,19238.5952
2020/8/18 16:21:00,98.529,-12.632,19092.18005
2020/8/18 16:22:00,99.199,-12.528,18948.38736
2020/8/18 16:23:00,99.88,-12.426,18807.28825
2020/8/18 16:24:00,100.573,-12.326,18668.95474
2020/8/18 16:25:00,101.278,-12.228,18533.45948
2020/8/18 16:26:00,101.994,-12.132,18400.87571
2020/8/18 16:27:00,102.721,-12.038,18271.27704
2020/8/18 16:28:00,103.46,-11.946,18144.7375
2020/8/18 16:29:00,104.211,-11.857,18021.33135
2020/8/18 16:30:00,104.973,-11.77,17901.13297
2020/8/18 16:31:00,105.747,-11.685,17784.21667
2020/8/18 16:32:00,106.531,-11.603,17670.65656
2020/8/18 16:33:00,107.327,-11.523,17560.52684
2020/8/18 16:34:00,108.134,-11.446,17453.90083
2020/8/18 16:35:00,108.952,-11.372,17350.85137
2020/8/18 16:36:00,109.78,-11.299,17251.45055
2020/8/18 16:37:00,110.619,-11.23,17155.76952
2020/8/18 16:38:00,111.469,-11.164,17063.87821
2020/8/18 16:39:00,112.328,-11.1,16975.84534
2020/8/18 16:40:00,113.197,-11.039,16891.73805
2020/8/18 16:41:00,114.075,-10.981,16811.62161
2020/8/18 16:42:00,114.963,-10.925,16735.55984
2020/8/18 16:43:00,115.859,-10.873,16663.61402
2020/8/18 16:44:00,116.764,-10.824,16595.84327
2020/8/18 16:45:00,117.677,-10.778,16532.30417
2020/8/18 16:46:00,118.597,-10.735,16473.05061
2020/8/18 16:47:00,119.525,-10.695,16418.13362
2020/8/18 16:48:00,120.459,-10.659,16367.60111
2020/8/18 16:49:00,121.4,-10.625,16321.49756
2020/8/18 16:50:00,122.347,-10.595,16279.86449
2020/8/18 16:51:00,123.299,-10.568,16242.73933
2020/8/18 16:52:00,124.256,-10.544,16210.15603
2020/8/18 16:53:00,125.217,-10.524,16182.1445
2020/8/18 16:54:00,126.181,-10.507,16158.73071
2020/8/18 16:55:00,127.149,-10.494,16139.93655
2020/8/18 16:56:00,128.12,-10.483,16125.77953
2020/8/18 16:57:00,129.092,-10.477,16116.27321
2020/8/18 16:58:00,130.066,-10.473,16111.42652
2020/8/18 16:59:00,131.041,-10.473,16111.24404
2020/8/18 17:00:00,132.016,-10.477,16115.72602
2020/8/18 17:01:00,132.991,-10.483,16124.86825
2020/8/18 17:02:00,133.965,-10.494,16138.6622
2020/8/18 17:03:00,134.937,-10.507,16157.09479
2020/8/18 17:04:00,135.908,-10.524,16180.14908
2020/8/18 17:05:00,136.875,-10.544,16207.80351
2020/8/18 17:06:00,137.84,-10.568,16240.03251
2020/8/18 17:07:00,138.801,-10.595,16276.80648
2020/8/18 17:08:00,139.758,-10.625,16318.09198
2020/8/18 17:09:00,140.71,-10.658,16363.85176
2020/8/18 17:10:00,141.657,-10.695,16414.04485
2020/8/18 17:11:00,142.598,-10.735,16468.62715
2020/8/18 17:12:00,143.533,-10.778,16527.55095
2020/8/18 17:13:00,144.462,-10.824,16590.76557
2020/8/18 17:14:00,145.384,-10.873,16658.21742
2020/8/18 17:15:00,146.298,-10.925,16729.85015
2020/8/18 17:16:00,147.205,-10.98,16805.60493
2020/8/18 17:17:00,148.104,-11.038,16885.42052
2020/8/18 17:18:00,148.994,-11.099,16969.2336
2020/8/18 17:19:00,149.876,-11.163,17056.97906
2020/8/18 17:20:00,150.749,-11.23,17148.58983
2020/8/18 17:21:00,151.613,-11.299,17243.9974
2020/8/18 17:22:00,152.467,-11.371,17343.13196
2020/8/18 17:23:00,153.312,-11.446,17445.92244
2020/8/18 17:24:00,154.147,-11.523,17552.29693
2020/8/18 17:25:00,154.972,-11.603,17662.18263
2020/8/18 17:26:00,155.787,-11.685,17775.50614
2020/8/18 17:27:00,156.592,-11.77,17892.19357
2020/8/18 17:28:00,157.386,-11.857,18012.17085
2020/8/18 17:29:00,158.171,-11.947,18135.36355
2020/8/18 17:30:00,158.945,-12.038,18261.69738
2020/8/18 17:31:00,159.708,-12.132,18391.09805
2020/8/18 17:32:00,160.461,-12.228,18523.49153
2020/8/18 17:33:00,161.204,-12.326,18658.80418
2020/8/18 17:34:00,161.936,-12.426,18796.96272
2020/8/18 17:35:00,162.658,-12.528,18937.8945
2020/8/18 17:36:00,163.369,-12.632,19081.52742
2020/8/18 17:37:00,164.07,-12.738,19227.79016
2020/8/18 17:38:00,164.761,-12.846,19376.61208
2020/8/18 17:39:00,165.441,-12.956,19527.92354
2020/8/18 17:40:00,166.112,-13.067,19681.6557
2020/8/18 17:41:00,166.772,-13.18,19837.74069
2020/8/18 17:42:00,167.422,-13.295,19996.11164
2020/8/18 17:43:00,168.062,-13.411,20156.70278
2020/8/18 17:44:00,168.693,-13.529,20319.44933
2020/8/18 17:45:00,169.314,-13.648,20484.28765
2020/8/18 17:46:00,169.925,-13.769,20651.15527
2020/8/18 17:47:00,170.527,-13.891,20819.99077
2020/8/18 17:48:00,171.12,-14.015,20990.734
2020/8/18 17:49:00,171.704,-14.14,21163.32589
2020/8/18 17:50:00,172.278,-14.266,21337.70858
2020/8/18 17:51:00,172.844,-14.393,21513.8254
2020/8/18 17:52:00,173.401,-14.522,21691.62081
2020/8/18 17:53:00,173.95,-14.652,21871.04047
2020/8/18 17:54:00,174.49,-14.783,22052.03126
2020/8/18 17:55:00,175.021,-14.915,22234.54111
2020/8/18 17:56:00,175.545,-15.049,22418.51919
2020/8/18 17:57:00,176.06,-15.183,22603.9158
2020/8/18 17:58:00,176.568,-15.318,22790.68231
2020/8/18 17:59:00,177.068,-15.455,22978.77125
2020/8/18 18:00:00,177.561,-15.592,23168.13624
2020/8/18 18:01:00,178.046,-15.73,23358.73197
2020/8/18 18:02:00,178.523,-15.87,23550.51417
2020/8/18 18:03:00,178.994,-16.01,23743.43962
2020/8/18 18:04:00,179.458,-16.151,23937.46614
2020/8/18 18:05:00,179.914,-16.292,24132.55254
2020/8/18 18:06:00,180.365,-16.435,24328.6586
2020/8/18 18:07:00,180.808,-16.578,24525.74508
2020/8/18 18:08:00,181.245,-16.722,24723.77365
2020/8/18 18:09:00,181.676,-16.867,24922.7069
2020/8/18 18:10:00,182.101,-17.012,25122.50837
2020/8/18 18:11:00,182.52,-17.158,25323.14237
2020/8/18 18:12:00,182.932,-17.305,25524.57418
2020/8/18 18:13:00,183.34,-17.452,25726.76984
2020/8/18 18:14:00,183.741,-17.6,25929.6962
2020/8/18 18:15:00,184.137,-17.749,26133.32094
2020/8/18 18:16:00,184.527,-17.898,26337.61249
2020/8/18 18:17:00,184.913,-18.048,26542.54
2020/8/18 18:18:00,185.293,-18.198,26748.07342
2020/8/18 18:19:00,185.668,-18.349,26954.18334
2020/8/18 18:20:00,186.038,-18.5,27160.84105
2020/8/18 18:21:00,186.404,-18.652,27368.01857
2020/8/18 18:22:00,186.765,-18.804,27575.68853
2020/8/18 18:23:00,187.121,-18.956,27783.82417
2020/8/18 18:24:00,187.472,-19.109,27992.3994
2020/8/18 18:25:00,187.82,-19.263,28201.3887
2020/8/18 18:26:00,188.163,-19.416,28410.76714
2020/8/18 18:27:00,188.502,-19.571,28620.51035
2020/8/18 18:28:00,188.837,-19.725,28830.59455
2020/8/18 18:29:00,189.168,-19.88,29040.9964
2020/8/18 18:30:00,189.495,-20.035,29251.69316
2020/8/18 18:31:00,189.818,-20.191,29462.6626
2020/8/18 18:32:00,190.137,-20.347,29673.88291
2020/8/18 18:33:00,190.453,-20.503,29885.33282
2020/8/18 18:34:00,190.766,-20.659,30096.99152
2020/8/18 18:35:00,191.075,-20.816,30308.8386
2020/8/18 18:36:00,191.38,-20.973,30520.85411
2020/8/18 18:37:00,191.683,-21.13,30733.01854
2020/8/18 18:38:00,191.982,-21.287,30945.31277
2020/8/18 18:39:00,192.278,-21.445,31157.71809
2020/8/18 18:40:00,192.571,-21.603,31370.21616
2020/8/18 18:41:00,192.861,-21.761,31582.78902
2020/8/18 18:42:00,193.149,-21.919,31795.41911
2020/8/18 18:43:00,193.433,-22.078,32008.08917
2020/8/18 18:44:00,193.715,-22.236,32220.78232
2020/8/18 18:45:00,193.994,-22.395,32433.48199
2020/8/18 18:46:00,194.27,-22.554,32646.17197
2020/8/18 18:47:00,194.544,-22.713,32858.83633
2020/8/18 18:48:00,194.815,-22.872,33071.45946
2020/8/18 18:49:00,195.084,-23.031,33284.02604
2020/8/18 18:50:00,195.351,-23.191,33496.52107
2020/8/18 18:51:00,195.616,-23.35,33708.92978
2020/8/18 18:52:00,195.878,-23.51,33921.23772
2020/8/18 18:53:00,196.138,-23.669,34133.43067
2020/8/18 18:54:00,196.396,-23.829,34345.4947
2020/8/18 18:55:00,196.651,-23.989,34557.4161
2020/8/18 18:56:00,196.905,-24.149,34769.18143
2020/8/18 18:57:00,197.157,-24.309,34980.98563
2020/8/18 18:58:00,197.407,-24.469,35192.39896
2020/8/18 18:59:00,197.655,-24.629,35403.61724
2020/8/18 19:00:00,197.902,-24.789,35614.62795
2020/8/18 19:01:00,198.146,-24.949,35825.41874
2020/8/18 19:02:00,198.389,-25.109,36035.9775
2020/8/18 19:03:00,198.63,-25.269,36246.29231
2020/8/18 19:04:00,198.87,-25.429,36456.35143
2020/8/18 19:05:00,199.108,-25.589,36666.14333
2020/8/18 19:06:00,199.345,-25.749,36875.65666
2020/8/18 19:07:00,199.58,-25.909,37084.88024
2020/8/18 19:08:00,199.814,-26.069,37293.80309
2020/8/18 19:09:00,200.046,-26.229,37502.41438
2020/8/18 19:10:00,200.277,-26.389,37710.70344
2020/8/18 19:11:00,200.507,-26.549,37918.65979
2020/8/18 19:12:00,200.735,-26.709,38126.27308
2020/8/18 19:13:00,200.962,-26.869,38333.53314
2020/8/18 19:14:00,201.188,-27.028,38540.42993
2020/8/18 19:15:00,201.413,-27.188,38746.95357
2020/8/18 19:16:00,201.637,-27.348,38953.09432
2020/8/18 19:17:00,201.86,-27.507,39158.84256
2020/8/18 19:18:00,202.081,-27.666,39364.18884
2020/8/18 19:19:00,202.302,-27.826,39569.12383
2020/8/18 19:20:00,202.522,-27.985,39773.63831
2020/8/18 19:21:00,202.74,-28.144,39977.72321
2020/8/18 19:22:00,202.958,-28.303,40181.36957
2020/8/18 19:23:00,203.175,-28.461,40384.56857
2020/8/18 19:24:00,203.391,-28.62,40587.31148
2020/8/18 19:25:00,203.607,-28.778,40789.58971
2020/8/18 19:26:00,203.821,-28.937,40991.39477
2020/8/18 19:27:00,204.035,-29.095,41192.71827
2020/8/18 19:28:00,204.248,-29.253,41393.55195
2020/8/18 19:29:00,204.461,-29.411,41593.88764
2020/8/18 19:30:00,204.672,-29.569,41793.71729
2020/8/18 19:31:00,204.884,-29.726,41993.03291
2020/8/18 19:32:00,205.094,-29.884,42191.82666
2020/8/18 19:33:00,205.304,-30.041,42390.09076
2020/8/18 19:34:00,205.513,-30.198,42587.81753
2020/8/18 19:35:00,205.722,-30.355,42784.99941
2020/8/18 19:36:00,205.931,-30.511,42981.62888
2020/8/18 19:37:00,206.139,-30.668,43177.69856
2020/8/18 19:38:00,206.346,-30.824,43373.20111
2020/8/18 19:39:00,206.553,-30.98,43568.12932
2020/8/18 19:40:00,206.76,-31.136,43762.47603
2020/8/18 19:41:00,206.966,-31.291,43956.23417
2020/8/18 19:42:00,207.172,-31.447,44149.39674
2020/8/18 19:43:00,207.377,-31.602,44341.95686
2020/8/18 19:44:00,207.583,-31.757,44533.90767
2020/8/18 19:45:00,207.788,-31.911,44725.24242
2020/8/18 19:46:00,207.992,-32.066,44915.95443
2020/8/18 19:47:00,208.197,-32.22,45106.03708
2020/8/18 19:48:00,208.401,-32.373,45295.48383
2020/8/18 19:49:00,208.605,-32.527,45484.28822
2020/8/18 19:50:00,208.809,-32.68,45672.44383
2020/8/18 19:51:00,209.013,-32.833,45859.94434
2020/8/18 19:52:00,209.216,-32.986,46046.78348
2020/8/18 19:53:00,209.42,-33.138,46232.95503
2020/8/18 19:54:00,209.623,-33.291,46418.45287
2020/8/18 19:55:00,209.827,-33.442,46603.2709
2020/8/18 19:56:00,210.03,-33.594,46787.40313
2020/8/18 19:57:00,210.233,-33.745,46970.84359
2020/8/18 19:58:00,210.436,-33.896,47153.58639
2020/8/18 19:59:00,210.639,-34.047,47335.62569
2020/8/18 20:00:00,210.843,-34.197,47516.95571
2020/8/18 20:01:00,211.046,-34.347,47697.57074
2020/8/18 20:02:00,211.249,-34.496,47877.46506
2020/8/18 20:03:00,211.452,-34.646,48056.63316
2020/8/18 20:04:00,211.656,-34.795,48235.06942
2020/8/18 20:05:00,211.859,-34.943,48412.76836
2020/8/18 20:06:00,212.063,-35.091,48589.72452
2020/8/18 20:07:00,212.267,-35.239,48765.93251
2020/8/18 20:08:00,212.471,-35.387,48941.38698
2020/8/18 20:09:00,212.675,-35.534,49116.08263
2020/8/18 20:10:00,212.879,-35.68,49290.01422
2020/8/18 20:11:00,213.083,-35.827,49463.17656
2020/8/18 20:12:00,213.288,-35.973,49635.5645
2020/8/18 20:13:00,213.493,-36.118,49807.17294
2020/8/18 20:14:00,213.698,-36.263,49977.99683
2020/8/18 20:15:00,213.904,-36.408,50148.03116
2020/8/18 20:16:00,214.109,-36.552,50317.27098
2020/8/18 20:17:00,214.315,-36.696,50485.71138
2020/8/18 20:18:00,214.521,-36.84,50653.34748
2020/8/18 20:19:00,214.728,-36.983,50820.17446
2020/8/18 20:20:00,214.935,-37.125,50986.18754
2020/8/18 20:21:00,215.142,-37.267,51151.382
2020/8/18 20:22:00,215.35,-37.409,51315.75313
2020/8/18 20:23:00,215.558,-37.55,51479.29628
2020/8/18 20:24:00,215.766,-37.691,51642.00686
2020/8/18 20:25:00,215.975,-37.832,51803.88028
2020/8/18 20:26:00,216.184,-37.972,51964.91204
2020/8/18 20:27:00,216.393,-38.111,52125.09764
2020/8/18 20:28:00,216.603,-38.25,52284.43263
2020/8/18 20:29:00,216.814,-38.388,52442.91263
2020/8/18 20:30:00,217.025,-38.526,52600.53326
2020/8/18 20:31:00,217.236,-38.664,52757.29019
2020/8/18 20:32:00,217.448,-38.801,52913.17915
2020/8/18 20:33:00,217.66,-38.937,53068.19587
2020/8/18 20:34:00,217.873,-39.073,53222.33617
2020/8/18 20:35:00,218.086,-39.209,53375.59586
2020/8/18 20:36:00,218.3,-39.343,53527.9708
2020/8/18 20:37:00,218.514,-39.478,53679.45691
2020/8/18 20:38:00,218.729,-39.612,53830.05012
2020/8/18 20:39:00,218.944,-39.745,53979.74638
2020/8/18 20:40:00,219.16,-39.878,54128.54176
2020/8/18 20:41:00,219.377,-40.01,54276.43228
2020/8/18 20:42:00,219.594,-40.142,54423.41403
2020/8/18 20:43:00,219.812,-40.273,54569.48312
2020/8/18 20:44:00,220.03,-40.403,54714.63571
2020/8/18 20:45:00,220.249,-40.533,54858.86798
2020/8/18 20:46:00,220.469,-40.662,55002.17618
2020/8/18 20:47:00,220.689,-40.791,55144.55654
2020/8/18 20:48:00,220.91,-40.919,55286.00537
2020/8/18 20:49:00,221.131,-41.047,55426.519
2020/8/18 20:50:00,221.353,-41.174,55566.09377
2020/8/18 20:51:00,221.576,-41.3,55704.7261
2020/8/18 20:52:00,221.799,-41.426,55842.4124
2020/8/18 20:53:00,222.024,-41.551,55979.14914
2020/8/18 20:54:00,222.248,-41.675,56114.93281
2020/8/18 20:55:00,222.474,-41.799,56249.75994
2020/8/18 20:56:00,222.7,-41.922,56383.62708
2020/8/18 20:57:00,222.927,-42.045,56516.53083
2020/8/18 20:58:00,223.154,-42.167,56648.46781
2020/8/18 20:59:00,223.383,-42.288,56779.43467
2020/8/18 21:00:00,223.612,-42.408,56909.42811
2020/8/18 21:01:00,223.842,-42.528,57038.44484
2020/8/18 21:02:00,224.072,-42.647,57166.48161
2020/8/18 21:03:00,224.303,-42.766,57293.53521
2020/8/18 21:04:00,224.535,-42.883,57419.60244
2020/8/18 21:05:00,224.768,-43.001,57544.68016
2020/8/18 21:06:00,225.002,-43.117,57668.76523
2020/8/18 21:07:00,225.236,-43.233,57791.85456
2020/8/18 21:08:00,225.471,-43.348,57913.94509
2020/8/18 21:09:00,225.707,-43.462,58035.03379
2020/8/18 21:10:00,225.943,-43.575,58155.11765
2020/8/18 21:11:00,226.181,-43.688,58274.19368
2020/8/18 21:12:00,226.419,-43.8,58392.25898
2020/8/18 21:13:00,226.658,-43.911,58509.31062
2020/8/18 21:14:00,226.898,-44.022,58625.34571
2020/8/18 21:15:00,227.138,-44.131,58740.3614
2020/8/18 21:16:00,227.38,-44.24,58854.35487
2020/8/18 21:17:00,227.622,-44.348,58967.32332
2020/8/18 21:18:00,227.865,-44.456,59079.264
2020/8/18 21:19:00,228.109,-44.562,59190.17417
2020/8/18 21:20:00,228.353,-44.668,59300.05111
2020/8/18 21:21:00,228.599,-44.773,59408.89217
2020/8/18 21:22:00,228.845,-44.877,59516.69469
2020/8/18 21:23:00,229.092,-44.981,59623.45605
2020/8/18 21:24:00,229.34,-45.083,59729.17366
2020/8/18 21:25:00,229.588,-45.185,59833.84498
2020/8/18 21:26:00,229.838,-45.286,59937.46745
2020/8/18 21:27:00,230.088,-45.386,60040.03859
2020/8/18 21:28:00,230.339,-45.485,60141.55592
2020/8/18 21:29:00,230.591,-45.583,60242.01699
2020/8/18 21:30:00,230.844,-45.681,60341.41939
2020/8/18 21:31:00,231.098,-45.777,60439.76074
2020/8/18 21:32:00,231.352,-45.873,60537.03866
2020/8/18 21:33:00,231.607,-45.968,60633.25083
2020/8/18 21:34:00,231.863,-46.062,60728.39495
2020/8/18 21:35:00,232.12,-46.155,60822.46875
2020/8/18 21:36:00,232.378,-46.247,60915.46996
2020/8/18 21:37:00,232.636,-46.338,61007.39639
2020/8/18 21:38:00,232.896,-46.428,61098.24583
2020/8/18 21:39:00,233.156,-46.518,61188.01613
2020/8/18 21:40:00,233.417,-46.606,61276.70513
2020/8/18 21:41:00,233.679,-46.694,61364.31076
2020/8/18 21:42:00,233.941,-46.78,61450.83092
2020/8/18 21:43:00,234.204,-46.866,61536.26357
2020/8/18 21:44:00,234.469,-46.951,61620.60667
2020/8/18 21:45:00,234.733,-47.034,61703.85824
2020/8/18 21:46:00,234.999,-47.117,61786.01631
2020/8/18 21:47:00,235.266,-47.199,61867.07893
2020/8/18 21:48:00,235.533,-47.28,61947.04419
2020/8/18 21:49:00,235.801,-47.359,62025.91021
2020/8/18 21:50:00,236.07,-47.438,62103.67512
2020/8/18 21:51:00,236.339,-47.516,62180.33711
2020/8/18 21:52:00,236.609,-47.593,62255.89435
2020/8/18 21:53:00,236.88,-47.669,62330.34509
2020/8/18 21:54:00,237.152,-47.744,62403.68757
2020/8/18 21:55:00,237.425,-47.817,62475.92006
2020/8/18 21:56:00,237.698,-47.89,62547.04088
2020/8/18 21:57:00,237.972,-47.962,62617.04836
2020/8/18 21:58:00,238.246,-48.033,62685.94086
2020/8/18 21:59:00,238.522,-48.102,62753.71676
2020/8/18 22:00:00,238.798,-48.171,62820.37448
2020/8/18 22:01:00,239.074,-48.238,62885.91247
2020/8/18 22:02:00,239.352,-48.305,62950.32919
2020/8/18 22:03:00,239.63,-48.37,63013.62314
2020/8/18 22:04:00,239.908,-48.434,63075.79283
2020/8/18 22:05:00,240.187,-48.498,63136.83683
2020/8/18 22:06:00,240.467,-48.56,63196.75371
2020/8/18 22:07:00,240.748,-48.621,63255.54206
2020/8/18 22:08:00,241.029,-48.681,63313.20054
2020/8/18 22:09:00,241.311,-48.74,63369.72778
2020/8/18 22:10:00,241.593,-48.798,63425.12247
2020/8/18 22:11:00,241.876,-48.854,63479.38334
2020/8/18 22:12:00,242.159,-48.91,63532.50911
2020/8/18 22:13:00,242.443,-48.964,63584.49856
2020/8/18 22:14:00,242.728,-49.018,63635.35046
2020/8/18 22:15:00,243.013,-49.07,63685.06365
2020/8/18 22:16:00,243.298,-49.121,63733.63697
2020/8/18 22:17:00,243.584,-49.171,63781.06929
2020/8/18 22:18:00,243.871,-49.22,63827.35951
2020/8/18 22:19:00,244.158,-49.267,63872.50655
2020/8/18 22:20:00,244.445,-49.314,63916.50938
2020/8/18 22:21:00,244.733,-49.359,63959.36697
2020/8/18 22:22:00,245.022,-49.403,64001.07832
2020/8/18 22:23:00,245.31,-49.446,64041.64247
2020/8/18 22:24:00,245.599,-49.488,64081.05849
2020/8/18 22:25:00,245.889,-49.529,64119.32544
2020/8/18 22:26:00,246.179,-49.568,64156.44246
2020/8/18 22:27:00,246.469,-49.607,64192.40867
2020/8/18 22:28:00,246.759,-49.644,64227.22325
2020/8/18 22:29:00,247.05,-49.68,64260.88539
2020/8/18 22:30:00,247.341,-49.715,64293.3943
2020/8/18 22:31:00,247.632,-49.748,64324.74924
2020/8/18 22:32:00,247.924,-49.781,64354.94948
2020/8/18 22:33:00,248.216,-49.812,64383.99431
2020/8/18 22:34:00,248.508,-49.842,64411.88307
2020/8/18 22:35:00,248.8,-49.871,64438.61512
2020/8/18 22:36:00,249.093,-49.898,64464.1898
2020/8/18 22:37:00,249.385,-49.925,64488.60655
2020/8/18 22:38:00,249.678,-49.95,64511.8648
2020/8/18 22:39:00,249.971,-49.974,64533.96399
2020/8/18 22:40:00,250.264,-49.996,64554.90363
2020/8/18 22:41:00,250.557,-50.018,64574.68321
2020/8/18 22:42:00,250.85,-50.038,64593.30229
2020/8/18 22:43:00,251.144,-50.057,64610.76042
2020/8/18 22:44:00,251.437,-50.075,64627.05719
2020/8/18 22:45:00,251.73,-50.092,64642.19224
2020/8/18 22:46:00,252.023,-50.107,64656.16519
2020/8/18 22:47:00,252.317,-50.121,64668.97572
2020/8/18 22:48:00,252.61,-50.134,64680.62354
2020/8/18 22:49:00,252.903,-50.146,64691.10836
2020/8/18 22:50:00,253.196,-50.156,64700.42993
2020/8/18 22:51:00,253.489,-50.165,64708.58804
2020/8/18 22:52:00,253.782,-50.173,64715.58249
2020/8/18 22:53:00,254.075,-50.18,64721.41311
2020/8/18 22:54:00,254.367,-50.186,64726.07974
2020/8/18 22:55:00,254.659,-50.19,64729.5823
2020/8/18 22:56:00,254.952,-50.193,64731.92067
2020/8/18 22:57:00,255.244,-50.195,64733.09479
2020/8/18 22:58:00,255.535,-50.195,64733.10464
2020/8/18 22:59:00,255.827,-50.195,64731.95019
2020/8/18 23:00:00,256.118,-50.193,64729.63147
2020/8/18 23:01:00,256.408,-50.19,64726.14855
2020/8/18 23:02:00,256.699,-50.185,64721.50144
2020/8/18 23:03:00,256.989,-50.18,64715.69027
2020/8/18 23:04:00,257.279,-50.173,64708.71515
2020/8/18 23:05:00,257.568,-50.165,64700.57623
2020/8/18 23:06:00,257.857,-50.155,64691.27371
2020/8/18 23:07:00,258.145,-50.145,64680.80776
2020/8/18 23:08:00,258.433,-50.133,64669.17863
2020/8/18 23:09:00,258.721,-50.12,64656.38656
2020/8/18 23:10:00,259.008,-50.106,64642.43185
2020/8/18 23:11:00,259.294,-50.09,64627.31479
2020/8/18 23:12:00,259.58,-50.074,64611.03573
2020/8/18 23:13:00,259.866,-50.056,64593.59502
2020/8/18 23:14:00,260.151,-50.036,64574.99305
2020/8/18 23:15:00,260.435,-50.016,64555.23024
2020/8/18 23:16:00,260.719,-49.994,64534.30703
2020/8/18 23:17:00,261.001,-49.972,64512.22389
2020/8/18 23:18:00,261.284,-49.948,64488.9813
2020/8/18 23:19:00,261.565,-49.922,64464.5798
2020/8/18 23:20:00,261.846,-49.896,64439.01993
2020/8/18 23:21:00,262.127,-49.868,64412.30226
2020/8/18 23:22:00,262.406,-49.839,64384.4274
2020/8/18 23:23:00,262.685,-49.809,64355.39596
2020/8/18 23:24:00,262.963,-49.778,64325.20862
2020/8/18 23:25:00,263.24,-49.746,64293.86603
2020/8/18 23:26:00,263.516,-49.712,64261.36893
2020/8/18 23:27:00,263.792,-49.677,64227.71807
2020/8/18 23:28:00,264.066,-49.641,64192.91415
2020/8/18 23:29:00,264.34,-49.604,64156.95798
2020/8/18 23:30:00,264.613,-49.566,64119.85038
2020/8/18 23:31:00,264.885,-49.526,64081.59219
2020/8/18 23:32:00,265.156,-49.485,64042.18428
2020/8/18 23:33:00,265.426,-49.444,64001.62755
2020/8/18 23:34:00,265.696,-49.4,63959.92291
2020/8/18 23:35:00,265.964,-49.356,63917.07131
2020/8/18 23:36:00,266.231,-49.311,63873.07373
2020/8/18 23:37:00,266.497,-49.264,63827.93117
2020/8/18 23:38:00,266.762,-49.217,63781.64465
2020/8/18 23:39:00,267.027,-49.168,63734.21524
2020/8/18 23:40:00,267.29,-49.118,63685.64401
2020/8/18 23:41:00,267.552,-49.067,63635.93207
2020/8/18 23:42:00,267.813,-49.015,63585.08056
2020/8/18 23:43:00,268.072,-48.961,63533.09064
2020/8/18 23:44:00,268.331,-48.907,63479.9635
2020/8/18 23:45:00,268.589,-48.851,63425.70036
2020/8/18 23:46:00,268.845,-48.795,63370.30245
2020/8/18 23:47:00,269.1,-48.737,63313.77105
2020/8/18 23:48:00,269.354,-48.678,63256.10746
2020/8/18 23:49:00,269.607,-48.618,63197.313
2020/8/18 23:50:00,269.859,-48.557,63137.38902
2020/8/18 23:51:00,270.109,-48.495,63076.3369
2020/8/18 23:52:00,270.359,-48.432,63014.15805
2020/8/18 23:53:00,270.607,-48.368,62950.85389
2020/8/18 23:54:00,270.853,-48.302,62886.42594
2020/8/18 23:55:00,271.099,-48.236,62820.87559
2020/8/18 23:56:00,271.343,-48.169,62754.20438
2020/8/18 23:57:00,271.586,-48.1,62686.41388
2020/8/18 23:58:00,271.827,-48.031,62617.50564
2020/8/18 23:59:00,272.067,-47.96,62547.48126
2020/8/19 0:00:00,272.306,-47.888,62476.34237
2020/8/19 0:01:00,272.544,-47.816,62404.09061
2020/8/19 0:02:00,272.78,-47.742,62330.72766
2020/8/19 0:03:00,273.015,-47.667,62256.25523
2020/8/19 0:04:00,273.248,-47.592,62180.67505
2020/8/19 0:05:00,273.481,-47.515,62103.98887
2020/8/19 0:06:00,273.711,-47.437,62026.19848
2020/8/19 0:07:00,273.94,-47.359,61947.30571
2020/8/19 0:08:00,274.168,-47.279,61867.31238
2020/8/19 0:09:00,274.395,-47.199,61786.22038
2020/8/19 0:10:00,274.62,-47.117,61704.02612
2020/8/19 0:11:00,274.843,-47.034,61620.74237
2020/8/19 0:12:00,275.065,-46.951,61536.36572
2020/8/19 0:13:00,275.286,-46.866,61450.89814
2020/8/19 0:14:00,275.505,-46.781,61364.34165
2020/8/19 0:15:00,275.723,-46.695,61276.69827
2020/8/19 0:16:00,275.939,-46.607,61187.97008
2020/8/19 0:17:00,276.154,-46.519,61098.15917
2020/8/19 0:18:00,276.367,-46.43,61007.26765
2020/8/19 0:19:00,276.579,-46.34,60915.29767
2020/8/19 0:20:00,276.789,-46.249,60822.25142
2020/8/19 0:21:00,276.998,-46.157,60728.13109
2020/8/19 0:22:00,277.205,-46.065,60632.93898
2020/8/19 0:23:00,277.41,-45.971,60536.67722
2020/8/19 0:24:00,277.614,-45.877,60439.34817
2020/8/19 0:25:00,277.817,-45.781,60340.95414
2020/8/19 0:26:00,278.018,-45.685,60241.49748
2020/8/19 0:27:00,278.217,-45.588,60140.98056
2020/8/19 0:28:00,278.415,-45.49,60039.40579
2020/8/19 0:29:00,278.611,-45.391,59936.77559
2020/8/19 0:30:00,278.806,-45.291,59833.09243
2020/8/19 0:31:00,278.999,-45.191,59728.3588
2020/8/19 0:32:00,279.191,-45.09,59622.57722
2020/8/19 0:33:00,279.381,-44.988,59515.75023
2020/8/19 0:34:00,279.569,-44.885,59407.88041
2020/8/19 0:35:00,279.756,-44.781,59298.97036
2020/8/19 0:36:00,279.941,-44.676,59189.02271
2020/8/19 0:37:00,280.124,-44.571,59078.04014
2020/8/19 0:38:00,280.306,-44.465,58966.02534
2020/8/19 0:39:00,280.486,-44.358,58852.98102
2020/8/19 0:40:00,280.665,-44.25,58738.90994
2020/8/19 0:41:00,280.842,-44.142,58623.81488
2020/8/19 0:42:00,281.017,-44.033,58507.69866
2020/8/19 0:43:00,281.191,-43.923,58390.5641
2020/8/19 0:44:00,281.363,-43.812,58272.4141
2020/8/19 0:45:00,281.534,-43.701,58153.25154
2020/8/19 0:46:00,281.702,-43.588,58033.07936
2020/8/19 0:47:00,281.869,-43.475,57911.90052
2020/8/19 0:48:00,282.035,-43.362,57789.71802
2020/8/19 0:49:00,282.199,-43.247,57666.53487
2020/8/19 0:50:00,282.361,-43.132,57542.35414
2020/8/19 0:51:00,282.521,-43.017,57417.1789
2020/8/19 0:52:00,282.68,-42.9,57291.01235
2020/8/19 0:53:00,282.838,-42.783,57163.85748
2020/8/19 0:54:00,282.993,-42.665,57035.71754
2020/8/19 0:55:00,283.147,-42.547,56906.59575
2020/8/19 0:56:00,283.299,-42.427,56776.49535
2020/8/19 0:57:00,283.449,-42.308,56645.4196
2020/8/19 0:58:00,283.598,-42.187,56513.37182
2020/8/19 0:59:00,283.745,-42.066,56380.35534
2020/8/19 1:00:00,283.891,-41.944,56246.37352
2020/8/19 1:01:00,284.034,-41.822,56111.42978
2020/8/19 1:02:00,284.176,-41.699,55975.52754
2020/8/19 1:03:00,284.317,-41.575,55838.67027
2020/8/19 1:04:00,284.455,-41.451,55700.86147
2020/8/19 1:05:00,284.592,-41.326,55562.10467
2020/8/19 1:06:00,284.727,-41.2,55422.40344
2020/8/19 1:07:00,284.861,-41.074,55281.76137
2020/8/19 1:08:00,284.993,-40.947,55140.1821
2020/8/19 1:09:00,285.123,-40.82,54997.6693
2020/8/19 1:10:00,285.251,-40.692,54854.22666
2020/8/19 1:11:00,285.378,-40.564,54709.85793
2020/8/19 1:12:00,285.503,-40.435,54564.56687
2020/8/19 1:13:00,285.626,-40.305,54418.35729
