sat_11node/sr4-dc1.csv

Time (UTCG),Azimuth (deg),Elevation (deg),Range (km)
2020/8/18 4:00:00,336.771,71.586,36081.64852
2020/8/18 4:01:00,337.194,71.584,36081.38002
2020/8/18 4:02:00,337.615,71.583,36081.09515
2020/8/18 4:03:00,338.036,71.583,36080.79375
2020/8/18 4:04:00,338.455,71.583,36080.47567
2020/8/18 4:05:00,338.874,71.583,36080.14076
2020/8/18 4:06:00,339.292,71.585,36079.78887
2020/8/18 4:07:00,339.709,71.586,36079.41988
2020/8/18 4:08:00,340.125,71.589,36079.03366
2020/8/18 4:09:00,340.54,71.591,36078.63007
2020/8/18 4:10:00,340.955,71.595,36078.209
2020/8/18 4:11:00,341.369,71.599,36077.77033
2020/8/18 4:12:00,341.782,71.603,36077.31396
2020/8/18 4:13:00,342.194,71.608,36076.83978
2020/8/18 4:14:00,342.606,71.614,36076.3477
2020/8/18 4:15:00,343.018,71.62,36075.83762
2020/8/18 4:16:00,343.428,71.627,36075.30946
2020/8/18 4:17:00,343.838,71.635,36074.76315
2020/8/18 4:18:00,344.248,71.643,36074.19859
2020/8/18 4:19:00,344.657,71.651,36073.61574
2020/8/18 4:20:00,345.065,71.661,36073.01452
2020/8/18 4:21:00,345.473,71.671,36072.39487
2020/8/18 4:22:00,345.881,71.681,36071.75675
2020/8/18 4:23:00,346.288,71.692,36071.10011
2020/8/18 4:24:00,346.695,71.704,36070.42492
2020/8/18 4:25:00,347.102,71.716,36069.73112
2020/8/18 4:26:00,347.508,71.729,36069.01871
2020/8/18 4:27:00,347.914,71.743,36068.28765
2020/8/18 4:28:00,348.32,71.757,36067.53793
2020/8/18 4:29:00,348.726,71.772,36066.76953
2020/8/18 4:30:00,349.131,71.787,36065.98246
2020/8/18 4:31:00,349.537,71.803,36065.1767
2020/8/18 4:32:00,349.942,71.82,36064.35228
2020/8/18 4:33:00,350.347,71.837,36063.50919
2020/8/18 4:34:00,350.752,71.855,36062.64746
2020/8/18 4:35:00,351.157,71.874,36061.76712
2020/8/18 4:36:00,351.562,71.893,36060.86818
2020/8/18 4:37:00,351.967,71.913,36059.95069
2020/8/18 4:38:00,352.372,71.933,36059.01468
2020/8/18 4:39:00,352.777,71.954,36058.0602
2020/8/18 4:40:00,353.183,71.976,36057.08731
2020/8/18 4:41:00,353.588,71.999,36056.09606
2020/8/18 4:42:00,353.994,72.022,36055.08652
2020/8/18 4:43:00,354.4,72.045,36054.05875
2020/8/18 4:44:00,354.806,72.07,36053.01283
2020/8/18 4:45:00,355.213,72.095,36051.94885
2020/8/18 4:46:00,355.62,72.12,36050.86688
2020/8/18 4:47:00,356.027,72.147,36049.76702
2020/8/18 4:48:00,356.434,72.174,36048.64937
2020/8/18 4:49:00,356.843,72.201,36047.51403
2020/8/18 4:50:00,357.251,72.229,36046.36111
2020/8/18 4:51:00,357.66,72.258,36045.19073
2020/8/18 4:52:00,358.07,72.288,36044.00301
2020/8/18 4:53:00,358.48,72.318,36042.79808
2020/8/18 4:54:00,358.891,72.348,36041.57606
2020/8/18 4:55:00,359.302,72.38,36040.33709
2020/8/18 4:56:00,359.714,72.412,36039.08133
2020/8/18 4:57:00,0.127,72.444,36037.80891
2020/8/18 4:58:00,0.54,72.478,36036.52
2020/8/18 4:59:00,0.955,72.512,36035.21475
2020/8/18 5:00:00,1.37,72.546,36033.89332
2020/8/18 5:01:00,1.786,72.581,36032.5559
2020/8/18 5:02:00,2.203,72.617,36031.20266
2020/8/18 5:03:00,2.621,72.653,36029.83378
2020/8/18 5:04:00,3.04,72.69,36028.44946
2020/8/18 5:05:00,3.46,72.728,36027.04987
2020/8/18 5:06:00,3.881,72.766,36025.63523
2020/8/18 5:07:00,4.303,72.805,36024.20574
2020/8/18 5:08:00,4.726,72.844,36022.76161
2020/8/18 5:09:00,5.151,72.885,36021.30305
2020/8/18 5:10:00,5.577,72.925,36019.83029
2020/8/18 5:11:00,6.004,72.966,36018.34356
2020/8/18 5:12:00,6.432,73.008,36016.84308
2020/8/18 5:13:00,6.862,73.051,36015.3291
2020/8/18 5:14:00,7.293,73.094,36013.80186
2020/8/18 5:15:00,7.726,73.137,36012.2616
2020/8/18 5:16:00,8.16,73.181,36010.70858
2020/8/18 5:17:00,8.596,73.226,36009.14307
2020/8/18 5:18:00,9.033,73.271,36007.56531
2020/8/18 5:19:00,9.472,73.317,36005.9756
2020/8/18 5:20:00,9.913,73.363,36004.37419
2020/8/18 5:21:00,10.356,73.41,36002.76138
2020/8/18 5:22:00,10.8,73.458,36001.13744
2020/8/18 5:23:00,11.246,73.506,35999.50267
2020/8/18 5:24:00,11.695,73.554,35997.85736
2020/8/18 5:25:00,12.145,73.603,35996.20182
2020/8/18 5:26:00,12.597,73.653,35994.53635
2020/8/18 5:27:00,13.052,73.703,35992.86126
2020/8/18 5:28:00,13.508,73.754,35991.17687
2020/8/18 5:29:00,13.967,73.805,35989.48351
2020/8/18 5:30:00,14.428,73.856,35987.78149
2020/8/18 5:31:00,14.891,73.908,35986.07115
2020/8/18 5:32:00,15.357,73.961,35984.35283
2020/8/18 5:33:00,15.825,74.014,35982.62687
2020/8/18 5:34:00,16.296,74.067,35980.89362
2020/8/18 5:35:00,16.769,74.121,35979.15342
2020/8/18 5:36:00,17.245,74.176,35977.40663
2020/8/18 5:37:00,17.724,74.23,35975.65362
2020/8/18 5:38:00,18.205,74.286,35973.89475
2020/8/18 5:39:00,18.689,74.341,35972.13039
2020/8/18 5:40:00,19.177,74.397,35970.36092
2020/8/18 5:41:00,19.667,74.454,35968.58672
2020/8/18 5:42:00,20.16,74.51,35966.80817
2020/8/18 5:43:00,20.656,74.567,35965.02566
2020/8/18 5:44:00,21.156,74.625,35963.23959
2020/8/18 5:45:00,21.659,74.683,35961.45035
2020/8/18 5:46:00,22.165,74.741,35959.65836
2020/8/18 5:47:00,22.674,74.799,35957.86401
2020/8/18 5:48:00,23.188,74.858,35956.06772
2020/8/18 5:49:00,23.704,74.917,35954.2699
2020/8/18 5:50:00,24.225,74.977,35952.47098
2020/8/18 5:51:00,24.749,75.036,35950.67139
2020/8/18 5:52:00,25.277,75.096,35948.87155
2020/8/18 5:53:00,25.808,75.156,35947.07189
2020/8/18 5:54:00,26.344,75.217,35945.27287
2020/8/18 5:55:00,26.884,75.277,35943.47491
2020/8/18 5:56:00,27.428,75.338,35941.67847
2020/8/18 5:57:00,27.976,75.399,35939.88399
2020/8/18 5:58:00,28.529,75.46,35938.09194
2020/8/18 5:59:00,29.086,75.521,35936.30276
2020/8/18 6:00:00,29.648,75.583,35934.51694
2020/8/18 6:01:00,30.214,75.644,35932.73492
2020/8/18 6:02:00,30.785,75.706,35930.95719
2020/8/18 6:03:00,31.36,75.767,35929.18421
2020/8/18 6:04:00,31.941,75.829,35927.41648
2020/8/18 6:05:00,32.526,75.891,35925.65446
2020/8/18 6:06:00,33.117,75.953,35923.89865
2020/8/18 6:07:00,33.713,76.014,35922.14954
2020/8/18 6:08:00,34.314,76.076,35920.40762
2020/8/18 6:09:00,34.92,76.138,35918.67338
2020/8/18 6:10:00,35.532,76.199,35916.94734
2020/8/18 6:11:00,36.149,76.261,35915.22999
2020/8/18 6:12:00,36.772,76.322,35913.52185
2020/8/18 6:13:00,37.4,76.383,35911.82342
2020/8/18 6:14:00,38.035,76.444,35910.13522
2020/8/18 6:15:00,38.675,76.505,35908.45777
2020/8/18 6:16:00,39.322,76.566,35906.79159
2020/8/18 6:17:00,39.974,76.626,35905.13721
2020/8/18 6:18:00,40.633,76.686,35903.49515
2020/8/18 6:19:00,41.298,76.746,35901.86594
2020/8/18 6:20:00,41.969,76.806,35900.25013
2020/8/18 6:21:00,42.647,76.865,35898.64824
2020/8/18 6:22:00,43.332,76.924,35897.06082
2020/8/18 6:23:00,44.023,76.982,35895.48842
2020/8/18 6:24:00,44.721,77.04,35893.93157
2020/8/18 6:25:00,45.425,77.097,35892.39083
2020/8/18 6:26:00,46.137,77.154,35890.86675
2020/8/18 6:27:00,46.855,77.21,35889.35989
2020/8/18 6:28:00,47.58,77.266,35887.8708
2020/8/18 6:29:00,48.313,77.321,35886.40005
2020/8/18 6:30:00,49.053,77.376,35884.94819
2020/8/18 6:31:00,49.8,77.429,35883.5158
2020/8/18 6:32:00,50.554,77.482,35882.10343
2020/8/18 6:33:00,51.316,77.535,35880.71167
2020/8/18 6:34:00,52.085,77.586,35879.34108
2020/8/18 6:35:00,52.861,77.637,35877.99224
2020/8/18 6:36:00,53.645,77.687,35876.66572
2020/8/18 6:37:00,54.436,77.735,35875.36212
2020/8/18 6:38:00,55.235,77.783,35874.082
2020/8/18 6:39:00,56.041,77.83,35872.82595
2020/8/18 6:40:00,56.855,77.876,35871.59457
2020/8/18 6:41:00,57.676,77.921,35870.38842
2020/8/18 6:42:00,58.505,77.965,35869.20812
2020/8/18 6:43:00,59.342,78.007,35868.05424
2020/8/18 6:44:00,60.186,78.049,35866.92739
2020/8/18 6:45:00,61.037,78.089,35865.82815
2020/8/18 6:46:00,61.896,78.128,35864.75713
2020/8/18 6:47:00,62.762,78.165,35863.71492
2020/8/18 6:48:00,63.635,78.201,35862.70212
2020/8/18 6:49:00,64.516,78.236,35861.71934
2020/8/18 6:50:00,65.403,78.269,35860.76718
2020/8/18 6:51:00,66.298,78.301,35859.84624
2020/8/18 6:52:00,67.199,78.331,35858.95713
2020/8/18 6:53:00,68.107,78.36,35858.10045
2020/8/18 6:54:00,69.022,78.387,35857.27683
2020/8/18 6:55:00,69.943,78.412,35856.48685
2020/8/18 6:56:00,70.871,78.436,35855.73114
2020/8/18 6:57:00,71.805,78.458,35855.01031
2020/8/18 6:58:00,72.744,78.478,35854.32497
2020/8/18 6:59:00,73.69,78.496,35853.67573
2020/8/18 7:00:00,74.641,78.513,35853.06321
2020/8/18 7:01:00,75.597,78.527,35852.48803
2020/8/18 7:02:00,76.558,78.54,35851.95079
2020/8/18 7:03:00,77.524,78.55,35851.45212
2020/8/18 7:04:00,78.495,78.558,35850.99263
2020/8/18 7:05:00,79.47,78.565,35850.57294
2020/8/18 7:06:00,80.448,78.569,35850.19367
2020/8/18 7:07:00,81.431,78.571,35849.85543
2020/8/18 7:08:00,82.417,78.571,35849.55885
2020/8/18 7:09:00,83.406,78.569,35849.30455
2020/8/18 7:10:00,84.398,78.564,35849.09314
2020/8/18 7:11:00,85.392,78.557,35848.92524
2020/8/18 7:12:00,86.388,78.548,35848.80147
2020/8/18 7:13:00,87.386,78.537,35848.72246
2020/8/18 7:14:00,88.385,78.523,35848.68882
2020/8/18 7:15:00,89.385,78.507,35848.70117
2020/8/18 7:16:00,90.386,78.488,35848.76012
2020/8/18 7:17:00,91.387,78.467,35848.86631
2020/8/18 7:18:00,92.389,78.444,35849.02034
2020/8/18 7:19:00,93.389,78.418,35849.22283
2020/8/18 7:20:00,94.389,78.39,35849.4744
2020/8/18 7:21:00,95.388,78.359,35849.77568
2020/8/18 7:22:00,96.385,78.325,35850.12726
2020/8/18 7:23:00,97.38,78.29,35850.52978
2020/8/18 7:24:00,98.373,78.251,35850.98383
2020/8/18 7:25:00,99.364,78.21,35851.49005
2020/8/18 7:26:00,100.351,78.167,35852.04904
2020/8/18 7:27:00,101.335,78.121,35852.66141
2020/8/18 7:28:00,102.315,78.072,35853.32777
2020/8/18 7:29:00,103.292,78.021,35854.04874
2020/8/18 7:30:00,104.264,77.968,35854.82492
2020/8/18 7:31:00,105.231,77.912,35855.65692
2020/8/18 7:32:00,106.194,77.853,35856.54534
2020/8/18 7:33:00,107.151,77.792,35857.4908
2020/8/18 7:34:00,108.103,77.728,35858.49388
2020/8/18 7:35:00,109.049,77.662,35859.55521
2020/8/18 7:36:00,109.989,77.593,35860.67537
2020/8/18 7:37:00,110.923,77.522,35861.85496
2020/8/18 7:38:00,111.85,77.448,35863.09458
2020/8/18 7:39:00,112.771,77.372,35864.39483
2020/8/18 7:40:00,113.685,77.294,35865.7563
2020/8/18 7:41:00,114.591,77.213,35867.17958
2020/8/18 7:42:00,115.491,77.129,35868.66526
2020/8/18 7:43:00,116.382,77.044,35870.21392
2020/8/18 7:44:00,117.267,76.956,35871.82616
2020/8/18 7:45:00,118.143,76.865,35873.50255
2020/8/18 7:46:00,119.012,76.772,35875.24367
2020/8/18 7:47:00,119.872,76.677,35877.05011
2020/8/18 7:48:00,120.725,76.58,35878.92244
2020/8/18 7:49:00,121.569,76.48,35880.86122
2020/8/18 7:50:00,122.405,76.378,35882.86704
2020/8/18 7:51:00,123.232,76.274,35884.94046
2020/8/18 7:52:00,124.051,76.168,35887.08204
2020/8/18 7:53:00,124.862,76.06,35889.29236
2020/8/18 7:54:00,125.664,75.949,35891.57196
2020/8/18 7:55:00,126.457,75.836,35893.9214
2020/8/18 7:56:00,127.242,75.722,35896.34124
2020/8/18 7:57:00,128.018,75.605,35898.83204
2020/8/18 7:58:00,128.786,75.486,35901.39433
2020/8/18 7:59:00,129.545,75.365,35904.02866
2020/8/18 8:00:00,130.295,75.242,35906.73557
2020/8/18 8:01:00,131.037,75.118,35909.5156
2020/8/18 8:02:00,131.77,74.991,35912.3693
2020/8/18 8:03:00,132.495,74.862,35915.29717
2020/8/18 8:04:00,133.211,74.732,35918.29976
2020/8/18 8:05:00,133.919,74.6,35921.37759
2020/8/18 8:06:00,134.618,74.465,35924.53118
2020/8/18 8:07:00,135.309,74.33,35927.76105
2020/8/18 8:08:00,135.992,74.192,35931.0677
2020/8/18 8:09:00,136.667,74.052,35934.45165
2020/8/18 8:10:00,137.333,73.911,35937.91341
2020/8/18 8:11:00,137.991,73.768,35941.45347
2020/8/18 8:12:00,138.641,73.624,35945.07233
2020/8/18 8:13:00,139.283,73.478,35948.77049
2020/8/18 8:14:00,139.918,73.33,35952.54843
2020/8/18 8:15:00,140.544,73.181,35956.40664
2020/8/18 8:16:00,141.163,73.03,35960.3456
2020/8/18 8:17:00,141.774,72.877,35964.36578
2020/8/18 8:18:00,142.378,72.723,35968.46767
2020/8/18 8:19:00,142.974,72.568,35972.65171
2020/8/18 8:20:00,143.563,72.411,35976.91839
2020/8/18 8:21:00,144.145,72.252,35981.26815
2020/8/18 8:22:00,144.719,72.092,35985.70146
2020/8/18 8:23:00,145.286,71.931,35990.21875
2020/8/18 8:24:00,145.847,71.768,35994.82047
2020/8/18 8:25:00,146.4,71.604,35999.50706
2020/8/18 8:26:00,146.947,71.439,36004.27896
2020/8/18 8:27:00,147.486,71.272,36009.1366
2020/8/18 8:28:00,148.02,71.104,36014.0804
2020/8/18 8:29:00,148.546,70.935,36019.11077
2020/8/18 8:30:00,149.066,70.764,36024.22814
2020/8/18 8:31:00,149.58,70.592,36029.43291
2020/8/18 8:32:00,150.088,70.419,36034.72549
2020/8/18 8:33:00,150.589,70.245,36040.10627
2020/8/18 8:34:00,151.085,70.069,36045.57565
2020/8/18 8:35:00,151.574,69.893,36051.13402
2020/8/18 8:36:00,152.057,69.715,36056.78175
2020/8/18 8:37:00,152.535,69.536,36062.51923
2020/8/18 8:38:00,153.007,69.356,36068.34682
2020/8/18 8:39:00,153.473,69.175,36074.2649
2020/8/18 8:40:00,153.934,68.992,36080.27381
2020/8/18 8:41:00,154.389,68.809,36086.37392
2020/8/18 8:42:00,154.839,68.625,36092.56558
2020/8/18 8:43:00,155.284,68.439,36098.84912
2020/8/18 8:44:00,155.723,68.253,36105.22488
2020/8/18 8:45:00,156.157,68.065,36111.6932
2020/8/18 8:46:00,156.586,67.877,36118.25439
2020/8/18 8:47:00,157.01,67.687,36124.90878
2020/8/18 8:48:00,157.43,67.497,36131.65669
2020/8/18 8:49:00,157.844,67.306,36138.4984
2020/8/18 8:50:00,158.254,67.113,36145.43424
2020/8/18 8:51:00,158.658,66.92,36152.46448
2020/8/18 8:52:00,159.059,66.726,36159.58943
2020/8/18 8:53:00,159.455,66.531,36166.80935
2020/8/18 8:54:00,159.846,66.335,36174.12453
2020/8/18 8:55:00,160.233,66.138,36181.53523
2020/8/18 8:56:00,160.615,65.941,36189.04172
2020/8/18 8:57:00,160.994,65.742,36196.64426
2020/8/18 8:58:00,161.368,65.543,36204.34308
2020/8/18 8:59:00,161.738,65.343,36212.13844
2020/8/18 9:00:00,162.104,65.142,36220.03057
2020/8/18 9:01:00,162.466,64.94,36228.01971
2020/8/18 9:02:00,162.824,64.738,36236.10606
2020/8/18 9:03:00,163.178,64.535,36244.28986
2020/8/18 9:04:00,163.528,64.331,36252.5713
2020/8/18 9:05:00,163.875,64.126,36260.9506
2020/8/18 9:06:00,164.217,63.92,36269.42794
2020/8/18 9:07:00,164.556,63.714,36278.00352
2020/8/18 9:08:00,164.892,63.507,36286.67752
2020/8/18 9:09:00,165.224,63.299,36295.45012
2020/8/18 9:10:00,165.552,63.091,36304.32148
2020/8/18 9:11:00,165.877,62.882,36313.29176
2020/8/18 9:12:00,166.199,62.672,36322.36112
2020/8/18 9:13:00,166.517,62.462,36331.5297
2020/8/18 9:14:00,166.832,62.251,36340.79765
2020/8/18 9:15:00,167.144,62.039,36350.1651
2020/8/18 9:16:00,167.453,61.827,36359.63217
2020/8/18 9:17:00,167.758,61.614,36369.19898
2020/8/18 9:18:00,168.06,61.401,36378.86565
2020/8/18 9:19:00,168.36,61.187,36388.63227
2020/8/18 9:20:00,168.656,60.972,36398.49895
2020/8/18 9:21:00,168.949,60.756,36408.46578
2020/8/18 9:22:00,169.239,60.541,36418.53283
2020/8/18 9:23:00,169.527,60.324,36428.70018
2020/8/18 9:24:00,169.811,60.107,36438.9679
2020/8/18 9:25:00,170.093,59.889,36449.33606
2020/8/18 9:26:00,170.372,59.671,36459.8047
2020/8/18 9:27:00,170.648,59.453,36470.37386
2020/8/18 9:28:00,170.922,59.234,36481.04359
2020/8/18 9:29:00,171.193,59.014,36491.81393
2020/8/18 9:30:00,171.461,58.794,36502.68488
2020/8/18 9:31:00,171.727,58.573,36513.65647
2020/8/18 9:32:00,171.99,58.352,36524.7287
2020/8/18 9:33:00,172.25,58.13,36535.90158
2020/8/18 9:34:00,172.508,57.908,36547.1751
2020/8/18 9:35:00,172.764,57.685,36558.54924
2020/8/18 9:36:00,173.017,57.462,36570.02399
2020/8/18 9:37:00,173.268,57.239,36581.59931
2020/8/18 9:38:00,173.516,57.015,36593.27517
2020/8/18 9:39:00,173.762,56.79,36605.05152
2020/8/18 9:40:00,174.006,56.565,36616.92831
2020/8/18 9:41:00,174.248,56.34,36628.90548
2020/8/18 9:42:00,174.487,56.114,36640.98296
2020/8/18 9:43:00,174.724,55.888,36653.16069
2020/8/18 9:44:00,174.959,55.662,36665.43857
2020/8/18 9:45:00,175.192,55.435,36677.81651
2020/8/18 9:46:00,175.422,55.207,36690.29443
2020/8/18 9:47:00,175.651,54.98,36702.87221
2020/8/18 9:48:00,175.877,54.752,36715.54974
2020/8/18 9:49:00,176.101,54.523,36728.32689
2020/8/18 9:50:00,176.324,54.294,36741.20355
2020/8/18 9:51:00,176.544,54.065,36754.17958
2020/8/18 9:52:00,176.762,53.836,36767.25483
2020/8/18 9:53:00,176.978,53.606,36780.42915
2020/8/18 9:54:00,177.193,53.376,36793.70238
2020/8/18 9:55:00,177.405,53.145,36807.07436
2020/8/18 9:56:00,177.616,52.914,36820.54491
2020/8/18 9:57:00,177.824,52.683,36834.11385
2020/8/18 9:58:00,178.031,52.452,36847.781
2020/8/18 9:59:00,178.236,52.22,36861.54615
2020/8/18 10:00:00,178.439,51.988,36875.4091
2020/8/18 10:01:00,178.64,51.756,36889.36964
2020/8/18 10:02:00,178.84,51.523,36903.42755
2020/8/18 10:03:00,179.038,51.29,36917.5826
2020/8/18 10:04:00,179.234,51.057,36931.83456
2020/8/18 10:05:00,179.428,50.823,36946.18319
2020/8/18 10:06:00,179.62,50.59,36960.62823
2020/8/18 10:07:00,179.811,50.356,36975.16943
2020/8/18 10:08:00,180.001,50.121,36989.80653
2020/8/18 10:09:00,180.188,49.887,37004.53925
2020/8/18 10:10:00,180.374,49.652,37019.36731
2020/8/18 10:11:00,180.558,49.417,37034.29043
2020/8/18 10:12:00,180.741,49.182,37049.30832
2020/8/18 10:13:00,180.922,48.947,37064.42066
2020/8/18 10:14:00,181.102,48.711,37079.62715
2020/8/18 10:15:00,181.28,48.476,37094.92748
2020/8/18 10:16:00,181.456,48.24,37110.32131
2020/8/18 10:17:00,181.631,48.003,37125.80833
2020/8/18 10:18:00,181.804,47.767,37141.38819
2020/8/18 10:19:00,181.976,47.531,37157.06054
2020/8/18 10:20:00,182.147,47.294,37172.82503
2020/8/18 10:21:00,182.315,47.057,37188.6813
2020/8/18 10:22:00,182.483,46.82,37204.62899
2020/8/18 10:23:00,182.649,46.583,37220.66771
2020/8/18 10:24:00,182.813,46.345,37236.79709
2020/8/18 10:25:00,182.977,46.108,37253.01674
2020/8/18 10:26:00,183.138,45.87,37269.32626
2020/8/18 10:27:00,183.299,45.632,37285.72524
2020/8/18 10:28:00,183.457,45.394,37302.21328
2020/8/18 10:29:00,183.615,45.156,37318.78997
2020/8/18 10:30:00,183.771,44.918,37335.45486
2020/8/18 10:31:00,183.926,44.68,37352.20754
2020/8/18 10:32:00,184.08,44.441,37369.04757
2020/8/18 10:33:00,184.232,44.203,37385.9745
2020/8/18 10:34:00,184.382,43.964,37402.98787
2020/8/18 10:35:00,184.532,43.725,37420.08723
2020/8/18 10:36:00,184.68,43.486,37437.27212
2020/8/18 10:37:00,184.827,43.247,37454.54206
2020/8/18 10:38:00,184.973,43.008,37471.89656
2020/8/18 10:39:00,185.117,42.769,37489.33516
2020/8/18 10:40:00,185.26,42.53,37506.85734
2020/8/18 10:41:00,185.402,42.291,37524.46262
2020/8/18 10:42:00,185.543,42.052,37542.15049
2020/8/18 10:43:00,185.682,41.812,37559.92043
2020/8/18 10:44:00,185.82,41.573,37577.77193
2020/8/18 10:45:00,185.957,41.333,37595.70445
2020/8/18 10:46:00,186.093,41.094,37613.71748
2020/8/18 10:47:00,186.227,40.854,37631.81047
2020/8/18 10:48:00,186.361,40.615,37649.98287
2020/8/18 10:49:00,186.493,40.375,37668.23413
2020/8/18 10:50:00,186.624,40.136,37686.56371
2020/8/18 10:51:00,186.754,39.896,37704.97103
2020/8/18 10:52:00,186.882,39.656,37723.45552
2020/8/18 10:53:00,187.01,39.417,37742.01661
2020/8/18 10:54:00,187.136,39.177,37760.6541
2020/8/18 10:55:00,187.262,38.937,37779.36659
2020/8/18 10:56:00,187.386,38.698,37798.15391
2020/8/18 10:57:00,187.509,38.458,37817.01547
2020/8/18 10:58:00,187.63,38.218,37835.95066
2020/8/18 10:59:00,187.751,37.979,37854.95886
2020/8/18 11:00:00,187.871,37.739,37874.03946
2020/8/18 11:01:00,187.989,37.499,37893.19185
2020/8/18 11:02:00,188.107,37.26,37912.41537
2020/8/18 11:03:00,188.223,37.02,37931.70942
2020/8/18 11:04:00,188.338,36.781,37951.07333
2020/8/18 11:05:00,188.453,36.541,37970.50647
2020/8/18 11:06:00,188.566,36.302,37990.00819
2020/8/18 11:07:00,188.678,36.063,38009.57783
2020/8/18 11:08:00,188.789,35.823,38029.21472
2020/8/18 11:09:00,188.899,35.584,38048.9182
2020/8/18 11:10:00,189.008,35.345,38068.6876
2020/8/18 11:11:00,189.116,35.106,38088.52223
2020/8/18 11:12:00,189.223,34.867,38108.42142
2020/8/18 11:13:00,189.328,34.628,38128.38447
2020/8/18 11:14:00,189.433,34.389,38148.4107
2020/8/18 11:15:00,189.537,34.151,38168.49939
2020/8/18 11:16:00,189.64,33.912,38188.64985
2020/8/18 11:17:00,189.742,33.674,38208.86138
2020/8/18 11:18:00,189.842,33.435,38229.13325
2020/8/18 11:19:00,189.942,33.197,38249.46474
2020/8/18 11:20:00,190.041,32.959,38269.85514
2020/8/18 11:21:00,190.139,32.721,38290.30371
2020/8/18 11:22:00,190.235,32.483,38310.80972
2020/8/18 11:23:00,190.331,32.245,38331.37244
2020/8/18 11:24:00,190.426,32.007,38351.99112
2020/8/18 11:25:00,190.52,31.77,38372.66502
2020/8/18 11:26:00,190.613,31.532,38393.39338
2020/8/18 11:27:00,190.705,31.295,38414.17545
2020/8/18 11:28:00,190.796,31.058,38435.01046
2020/8/18 11:29:00,190.886,30.821,38455.89766
2020/8/18 11:30:00,190.975,30.584,38476.83628
2020/8/18 11:31:00,191.063,30.347,38497.82554
2020/8/18 11:32:00,191.15,30.111,38518.86467
2020/8/18 11:33:00,191.236,29.875,38539.95288
2020/8/18 11:34:00,191.322,29.638,38561.08939
2020/8/18 11:35:00,191.406,29.402,38582.27342
2020/8/18 11:36:00,191.489,29.167,38603.50416
2020/8/18 11:37:00,191.572,28.931,38624.78082
2020/8/18 11:38:00,191.653,28.696,38646.10261
2020/8/18 11:39:00,191.734,28.46,38667.46871
2020/8/18 11:40:00,191.814,28.225,38688.87832
2020/8/18 11:41:00,191.893,27.991,38710.33064
2020/8/18 11:42:00,191.97,27.756,38731.82483
2020/8/18 11:43:00,192.047,27.522,38753.36009
2020/8/18 11:44:00,192.123,27.287,38774.93559
2020/8/18 11:45:00,192.199,27.054,38796.55051
2020/8/18 11:46:00,192.273,26.82,38818.20401
2020/8/18 11:47:00,192.346,26.586,38839.89528
2020/8/18 11:48:00,192.419,26.353,38861.62346
2020/8/18 11:49:00,192.49,26.12,38883.38773
2020/8/18 11:50:00,192.561,25.887,38905.18724
2020/8/18 11:51:00,192.631,25.655,38927.02115
2020/8/18 11:52:00,192.7,25.422,38948.88861
2020/8/18 11:53:00,192.768,25.19,38970.78877
2020/8/18 11:54:00,192.835,24.959,38992.72077
2020/8/18 11:55:00,192.901,24.727,39014.68377
2020/8/18 11:56:00,192.966,24.496,39036.6769
2020/8/18 11:57:00,193.031,24.265,39058.6993
2020/8/18 11:58:00,193.095,24.034,39080.7501
2020/8/18 11:59:00,193.157,23.804,39102.82845
2020/8/18 12:00:00,193.219,23.574,39124.93347
2020/8/18 12:01:00,193.28,23.344,39147.06429
2020/8/18 12:02:00,193.34,23.114,39169.22004
2020/8/18 12:03:00,193.4,22.885,39191.39984
2020/8/18 12:04:00,193.458,22.656,39213.60281
2020/8/18 12:05:00,193.516,22.427,39235.82807
2020/8/18 12:06:00,193.572,22.199,39258.07475
2020/8/18 12:07:00,193.628,21.971,39280.34195
2020/8/18 12:08:00,193.683,21.743,39302.62878
2020/8/18 12:09:00,193.737,21.516,39324.93437
2020/8/18 12:10:00,193.791,21.289,39347.25781
2020/8/18 12:11:00,193.843,21.062,39369.59823
2020/8/18 12:12:00,193.895,20.835,39391.95471
2020/8/18 12:13:00,193.946,20.609,39414.32637
2020/8/18 12:14:00,193.995,20.384,39436.71231
2020/8/18 12:15:00,194.045,20.158,39459.11163
2020/8/18 12:16:00,194.093,19.933,39481.52344
2020/8/18 12:17:00,194.14,19.708,39503.94681
2020/8/18 12:18:00,194.187,19.484,39526.38087
2020/8/18 12:19:00,194.232,19.26,39548.82469
2020/8/18 12:20:00,194.277,19.036,39571.27737
2020/8/18 12:21:00,194.321,18.813,39593.73801
2020/8/18 12:22:00,194.364,18.59,39616.2057
2020/8/18 12:23:00,194.407,18.368,39638.67952
2020/8/18 12:24:00,194.448,18.146,39661.15857
2020/8/18 12:25:00,194.489,17.924,39683.64193
2020/8/18 12:26:00,194.529,17.703,39706.1287
2020/8/18 12:27:00,194.568,17.482,39728.61795
2020/8/18 12:28:00,194.606,17.261,39751.10878
2020/8/18 12:29:00,194.643,17.041,39773.60026
2020/8/18 12:30:00,194.68,16.821,39796.09148
2020/8/18 12:31:00,194.716,16.602,39818.58153
2020/8/18 12:32:00,194.751,16.383,39841.06949
2020/8/18 12:33:00,194.785,16.164,39863.55443
2020/8/18 12:34:00,194.818,15.946,39886.03545
2020/8/18 12:35:00,194.85,15.728,39908.51162
2020/8/18 12:36:00,194.882,15.511,39930.98202
2020/8/18 12:37:00,194.913,15.294,39953.44574
2020/8/18 12:38:00,194.943,15.078,39975.90185
2020/8/18 12:39:00,194.972,14.862,39998.34943
2020/8/18 12:40:00,195,14.646,40020.78757
2020/8/18 12:41:00,195.028,14.431,40043.21534
2020/8/18 12:42:00,195.054,14.217,40065.63182
2020/8/18 12:43:00,195.08,14.003,40088.03609
2020/8/18 12:44:00,195.105,13.789,40110.42723
2020/8/18 12:45:00,195.129,13.576,40132.80433
2020/8/18 12:46:00,195.153,13.363,40155.16646
2020/8/18 12:47:00,195.175,13.151,40177.51269
2020/8/18 12:48:00,195.197,12.939,40199.84212
2020/8/18 12:49:00,195.218,12.728,40222.15382
2020/8/18 12:50:00,195.238,12.517,40244.44688
2020/8/18 12:51:00,195.258,12.307,40266.72037
2020/8/18 12:52:00,195.276,12.097,40288.97337
2020/8/18 12:53:00,195.294,11.887,40311.20498
2020/8/18 12:54:00,195.311,11.679,40333.41426
2020/8/18 12:55:00,195.327,11.47,40355.60032
2020/8/18 12:56:00,195.342,11.262,40377.76222
2020/8/18 12:57:00,195.357,11.055,40399.89906
2020/8/18 12:58:00,195.371,10.848,40422.00992
2020/8/18 12:59:00,195.384,10.642,40444.09388
2020/8/18 13:00:00,195.396,10.436,40466.15005
2020/8/18 13:01:00,195.407,10.231,40488.1775
2020/8/18 13:02:00,195.417,10.027,40510.17532
2020/8/18 13:03:00,195.427,9.822,40532.14261
2020/8/18 13:04:00,195.436,9.619,40554.07845
2020/8/18 13:05:00,195.444,9.416,40575.98195
2020/8/18 13:06:00,195.451,9.213,40597.85218
2020/8/18 13:07:00,195.458,9.011,40619.68826
2020/8/18 13:08:00,195.463,8.81,40641.48927
2020/8/18 13:09:00,195.468,8.609,40663.25432
2020/8/18 13:10:00,195.472,8.409,40684.9825
2020/8/18 13:11:00,195.475,8.209,40706.67291
2020/8/18 13:12:00,195.478,8.01,40728.32466
2020/8/18 13:13:00,195.479,7.812,40749.93685
2020/8/18 13:14:00,195.48,7.614,40771.50859
2020/8/18 13:15:00,195.48,7.417,40793.03897
2020/8/18 13:16:00,195.479,7.22,40814.52712
2020/8/18 13:17:00,195.478,7.024,40835.97214
2020/8/18 13:18:00,195.475,6.828,40857.37315
2020/8/18 13:19:00,195.472,6.633,40878.72925
2020/8/18 13:20:00,195.468,6.439,40900.03957
2020/8/18 13:21:00,195.463,6.245,40921.30322
2020/8/18 13:22:00,195.458,6.052,40942.51932
2020/8/18 13:23:00,195.452,5.86,40963.68699
2020/8/18 13:24:00,195.444,5.668,40984.80536
2020/8/18 13:25:00,195.436,5.477,41005.87356
2020/8/18 13:26:00,195.428,5.287,41026.8907
2020/8/18 13:27:00,195.418,5.097,41047.85593
2020/8/18 13:28:00,195.408,4.907,41068.76837
2020/8/18 13:29:00,195.397,4.719,41089.62716
2020/8/18 13:30:00,195.385,4.531,41110.43143
2020/8/18 13:31:00,195.372,4.344,41131.18033
2020/8/18 13:32:00,195.358,4.157,41151.87299
2020/8/18 13:33:00,195.344,3.971,41172.50857
2020/8/18 13:34:00,195.329,3.786,41193.0862
2020/8/18 13:35:00,195.313,3.601,41213.60504
2020/8/18 13:36:00,195.296,3.417,41234.06424
2020/8/18 13:37:00,195.279,3.234,41254.46295
2020/8/18 13:38:00,195.26,3.052,41274.80033
2020/8/18 13:39:00,195.241,2.87,41295.07553
2020/8/18 13:40:00,195.221,2.689,41315.28773
2020/8/18 13:41:00,195.201,2.508,41335.43609
2020/8/18 13:42:00,195.179,2.328,41355.51977
2020/8/18 13:43:00,195.157,2.149,41375.53794
2020/8/18 13:44:00,195.134,1.971,41395.48979
2020/8/18 13:45:00,195.11,1.794,41415.37448
2020/8/18 13:46:00,195.086,1.617,41435.19119
2020/8/18 13:47:00,195.06,1.441,41454.93911
2020/8/18 13:48:00,195.034,1.265,41474.61742
2020/8/18 13:49:00,195.007,1.091,41494.22532
2020/8/18 13:50:00,194.979,0.917,41513.76199
2020/8/18 13:51:00,194.951,0.744,41533.22662
2020/8/18 13:52:00,194.922,0.571,41552.61842
2020/8/18 13:53:00,194.891,0.399,41571.93659
2020/8/18 13:54:00,194.861,0.229,41591.18033
2020/8/18 13:55:00,194.829,0.058,41610.34885
2020/8/18 13:55:21,194.818,0,41616.93749
2020/8/18 19:09:52,169.928,0,41713.3047
2020/8/18 19:10:51,169.906,0.166,41695.09551
2020/8/18 19:11:51,169.885,0.334,41676.65831
2020/8/18 19:12:51,169.864,0.503,41658.14887
2020/8/18 19:13:51,169.844,0.673,41639.56796
2020/8/18 19:14:51,169.825,0.843,41620.91639
2020/8/18 19:15:51,169.807,1.014,41602.19494
2020/8/18 19:16:51,169.79,1.186,41583.40441
2020/8/18 19:17:51,169.773,1.358,41564.5456
2020/8/18 19:18:51,169.758,1.532,41545.61931
2020/8/18 19:19:51,169.743,1.705,41526.62636
2020/8/18 19:20:51,169.729,1.88,41507.56754
2020/8/18 19:21:51,169.716,2.055,41488.44368
2020/8/18 19:22:51,169.704,2.231,41469.25557
2020/8/18 19:23:51,169.692,2.407,41450.00405
2020/8/18 19:24:51,169.682,2.585,41430.68992
2020/8/18 19:25:51,169.672,2.763,41411.31401
2020/8/18 19:26:51,169.663,2.941,41391.87715
2020/8/18 19:27:51,169.655,3.12,41372.38015
2020/8/18 19:28:51,169.648,3.3,41352.82384
2020/8/18 19:29:51,169.642,3.481,41333.20906
2020/8/18 19:30:51,169.637,3.662,41313.53665
2020/8/18 19:31:51,169.632,3.843,41293.80742
2020/8/18 19:32:51,169.629,4.026,41274.02223
2020/8/18 19:33:51,169.626,4.209,41254.1819
2020/8/18 19:34:51,169.624,4.392,41234.28729
2020/8/18 19:35:51,169.623,4.577,41214.33924
2020/8/18 19:36:51,169.623,4.761,41194.33858
2020/8/18 19:37:51,169.623,4.947,41174.28617
2020/8/18 19:38:51,169.625,5.133,41154.18286
2020/8/18 19:39:51,169.627,5.32,41134.0295
2020/8/18 19:40:51,169.631,5.507,41113.82694
2020/8/18 19:41:51,169.635,5.695,41093.57604
2020/8/18 19:42:51,169.64,5.883,41073.27764
2020/8/18 19:43:51,169.646,6.072,41052.93262
2020/8/18 19:44:51,169.652,6.262,41032.54183
2020/8/18 19:45:51,169.66,6.452,41012.10614
2020/8/18 19:46:51,169.669,6.642,40991.6264
2020/8/18 19:47:51,169.678,6.834,40971.10348
2020/8/18 19:48:51,169.688,7.025,40950.53824
2020/8/18 19:49:51,169.699,7.218,40929.93156
2020/8/18 19:50:51,169.711,7.411,40909.2843
2020/8/18 19:51:51,169.724,7.604,40888.59734
2020/8/18 19:52:51,169.738,7.798,40867.87154
2020/8/18 19:53:51,169.752,7.993,40847.10778
2020/8/18 19:54:51,169.768,8.188,40826.30693
2020/8/18 19:55:51,169.784,8.383,40805.46986
2020/8/18 19:56:51,169.802,8.579,40784.59746
2020/8/18 19:57:51,169.82,8.776,40763.6906
2020/8/18 19:58:51,169.839,8.973,40742.75015
2020/8/18 19:59:51,169.859,9.171,40721.77701
2020/8/18 20:00:51,169.879,9.369,40700.77204
2020/8/18 20:01:51,169.901,9.568,40679.73613
2020/8/18 20:02:51,169.924,9.767,40658.67016
2020/8/18 20:03:51,169.947,9.966,40637.57501
2020/8/18 20:04:51,169.971,10.167,40616.45157
2020/8/18 20:05:51,169.997,10.367,40595.30072
2020/8/18 20:06:51,170.023,10.568,40574.12334
2020/8/18 20:07:51,170.05,10.77,40552.92032
2020/8/18 20:08:51,170.077,10.972,40531.69255
2020/8/18 20:09:51,170.106,11.174,40510.44091
2020/8/18 20:10:51,170.136,11.377,40489.16628
2020/8/18 20:11:51,170.166,11.581,40467.86957
2020/8/18 20:12:51,170.198,11.784,40446.55164
2020/8/18 20:13:51,170.23,11.989,40425.21339
2020/8/18 20:14:51,170.263,12.194,40403.85571
2020/8/18 20:15:51,170.298,12.399,40382.47948
2020/8/18 20:16:51,170.333,12.604,40361.08559
2020/8/18 20:17:51,170.369,12.81,40339.67494
2020/8/18 20:18:51,170.405,13.017,40318.2484
2020/8/18 20:19:51,170.443,13.224,40296.80686
2020/8/18 20:20:51,170.482,13.431,40275.35122
2020/8/18 20:21:51,170.521,13.639,40253.88237
2020/8/18 20:22:51,170.562,13.847,40232.40117
2020/8/18 20:23:51,170.603,14.055,40210.90854
2020/8/18 20:24:51,170.645,14.264,40189.40535
2020/8/18 20:25:51,170.688,14.474,40167.89248
2020/8/18 20:26:51,170.732,14.683,40146.37083
2020/8/18 20:27:51,170.777,14.893,40124.84128
2020/8/18 20:28:51,170.823,15.104,40103.30471
2020/8/18 20:29:51,170.87,15.315,40081.76201
2020/8/18 20:30:51,170.918,15.526,40060.21406
2020/8/18 20:31:51,170.967,15.737,40038.66175
2020/8/18 20:32:51,171.016,15.949,40017.10596
2020/8/18 20:33:51,171.067,16.162,39995.54757
2020/8/18 20:34:51,171.118,16.374,39973.98745
2020/8/18 20:35:51,171.17,16.587,39952.4265
2020/8/18 20:36:51,171.224,16.801,39930.86558
2020/8/18 20:37:51,171.278,17.014,39909.30558
2020/8/18 20:38:51,171.333,17.228,39887.74737
2020/8/18 20:39:51,171.389,17.443,39866.19182
2020/8/18 20:40:51,171.446,17.657,39844.63982
2020/8/18 20:41:51,171.504,17.872,39823.09224
2020/8/18 20:42:51,171.563,18.088,39801.54994
2020/8/18 20:43:51,171.622,18.303,39780.01379
2020/8/18 20:44:51,171.683,18.519,39758.48468
2020/8/18 20:45:51,171.745,18.736,39736.96345
2020/8/18 20:46:51,171.807,18.952,39715.45099
2020/8/18 20:47:51,171.871,19.169,39693.94814
2020/8/18 20:48:51,171.935,19.386,39672.45579
2020/8/18 20:49:51,172.001,19.604,39650.97478
2020/8/18 20:50:51,172.067,19.822,39629.50597
2020/8/18 20:51:51,172.134,20.04,39608.05023
2020/8/18 20:52:51,172.203,20.258,39586.60841
2020/8/18 20:53:51,172.272,20.476,39565.18136
2020/8/18 20:54:51,172.342,20.695,39543.76994
2020/8/18 20:55:51,172.413,20.914,39522.37499
2020/8/18 20:56:51,172.485,21.134,39500.99736
2020/8/18 20:57:51,172.558,21.353,39479.63789
2020/8/18 20:58:51,172.632,21.573,39458.29744
2020/8/18 20:59:51,172.708,21.793,39436.97684
2020/8/18 21:00:51,172.784,22.014,39415.67693
2020/8/18 21:01:51,172.86,22.234,39394.39854
2020/8/18 21:02:51,172.938,22.455,39373.14252
2020/8/18 21:03:51,173.017,22.676,39351.90968
2020/8/18 21:04:51,173.097,22.897,39330.70087
2020/8/18 21:05:51,173.178,23.119,39309.5169
2020/8/18 21:06:51,173.26,23.341,39288.3586
2020/8/18 21:07:51,173.343,23.562,39267.2268
2020/8/18 21:08:51,173.427,23.785,39246.1223
2020/8/18 21:09:51,173.512,24.007,39225.04592
2020/8/18 21:10:51,173.598,24.229,39203.99849
2020/8/18 21:11:51,173.684,24.452,39182.98079
2020/8/18 21:12:51,173.772,24.675,39161.99365
2020/8/18 21:13:51,173.861,24.898,39141.03787
2020/8/18 21:14:51,173.951,25.121,39120.11424
2020/8/18 21:15:51,174.042,25.345,39099.22357
2020/8/18 21:16:51,174.134,25.568,39078.36665
2020/8/18 21:17:51,174.227,25.792,39057.54426
2020/8/18 21:18:51,174.321,26.016,39036.7572
2020/8/18 21:19:51,174.416,26.24,39016.00624
2020/8/18 21:20:51,174.512,26.464,38995.29218
2020/8/18 21:21:51,174.609,26.689,38974.61579
2020/8/18 21:22:51,174.707,26.913,38953.97783
2020/8/18 21:23:51,174.806,27.138,38933.37909
2020/8/18 21:24:51,174.907,27.363,38912.82033
2020/8/18 21:25:51,175.008,27.588,38892.3023
2020/8/18 21:26:51,175.11,27.813,38871.82577
2020/8/18 21:27:51,175.214,28.038,38851.3915
2020/8/18 21:28:51,175.318,28.263,38831.00023
2020/8/18 21:29:51,175.423,28.488,38810.65272
2020/8/18 21:30:51,175.53,28.714,38790.3497
2020/8/18 21:31:51,175.638,28.939,38770.09191
2020/8/18 21:32:51,175.746,29.165,38749.8801
2020/8/18 21:33:51,175.856,29.391,38729.71498
2020/8/18 21:34:51,175.967,29.617,38709.5973
2020/8/18 21:35:51,176.079,29.843,38689.52776
2020/8/18 21:36:51,176.192,30.069,38669.50709
2020/8/18 21:37:51,176.306,30.295,38649.53601
2020/8/18 21:38:51,176.422,30.521,38629.61521
2020/8/18 21:39:51,176.538,30.747,38609.74542
2020/8/18 21:40:51,176.656,30.973,38589.92732
2020/8/18 21:41:51,176.774,31.2,38570.16162
2020/8/18 21:42:51,176.894,31.426,38550.449
2020/8/18 21:43:51,177.015,31.652,38530.79015
2020/8/18 21:44:51,177.137,31.879,38511.18576
2020/8/18 21:45:51,177.26,32.105,38491.6365
2020/8/18 21:46:51,177.385,32.332,38472.14305
2020/8/18 21:47:51,177.51,32.558,38452.70606
2020/8/18 21:48:51,177.637,32.785,38433.32621
2020/8/18 21:49:51,177.765,33.011,38414.00416
2020/8/18 21:50:51,177.894,33.238,38394.74055
2020/8/18 21:51:51,178.024,33.465,38375.53603
2020/8/18 21:52:51,178.155,33.691,38356.39125
2020/8/18 21:53:51,178.288,33.918,38337.30684
2020/8/18 21:54:51,178.421,34.144,38318.28344
2020/8/18 21:55:51,178.556,34.371,38299.32167
2020/8/18 21:56:51,178.692,34.597,38280.42215
2020/8/18 21:57:51,178.83,34.824,38261.58551
2020/8/18 21:58:51,178.968,35.05,38242.81234
2020/8/18 21:59:51,179.108,35.277,38224.10327
2020/8/18 22:00:51,179.249,35.503,38205.45888
2020/8/18 22:01:51,179.391,35.729,38186.87978
2020/8/18 22:02:51,179.535,35.956,38168.36655
2020/8/18 22:03:51,179.68,36.182,38149.91978
2020/8/18 22:04:51,179.826,36.408,38131.54003
2020/8/18 22:05:51,179.973,36.634,38113.2279
2020/8/18 22:06:51,180.121,36.86,38094.98394
2020/8/18 22:07:51,180.271,37.086,38076.80871
2020/8/18 22:08:51,180.422,37.312,38058.70276
2020/8/18 22:09:51,180.575,37.537,38040.66666
2020/8/18 22:10:51,180.728,37.763,38022.70094
2020/8/18 22:11:51,180.883,37.989,38004.80613
2020/8/18 22:12:51,181.04,38.214,37986.98277
2020/8/18 22:13:51,181.197,38.439,37969.23139
2020/8/18 22:14:51,181.356,38.665,37951.5525
2020/8/18 22:15:51,181.517,38.89,37933.94662
2020/8/18 22:16:51,181.678,39.115,37916.41425
2020/8/18 22:17:51,181.841,39.34,37898.95589
2020/8/18 22:18:51,182.006,39.564,37881.57205
2020/8/18 22:19:51,182.171,39.789,37864.2632
2020/8/18 22:20:51,182.339,40.013,37847.02983
2020/8/18 22:21:51,182.507,40.238,37829.87242
2020/8/18 22:22:51,182.677,40.462,37812.79143
2020/8/18 22:23:51,182.848,40.686,37795.78734
2020/8/18 22:24:51,183.021,40.909,37778.86058
2020/8/18 22:25:51,183.195,41.133,37762.01162
2020/8/18 22:26:51,183.371,41.356,37745.24091
2020/8/18 22:27:51,183.548,41.579,37728.54887
2020/8/18 22:28:51,183.727,41.802,37711.93593
2020/8/18 22:29:51,183.907,42.025,37695.40253
2020/8/18 22:30:51,184.088,42.248,37678.94908
2020/8/18 22:31:51,184.271,42.47,37662.57598
2020/8/18 22:32:51,184.456,42.692,37646.28366
2020/8/18 22:33:51,184.642,42.914,37630.07249
2020/8/18 22:34:51,184.829,43.136,37613.94288
2020/8/18 22:35:51,185.018,43.358,37597.89521
2020/8/18 22:36:51,185.209,43.579,37581.92985
2020/8/18 22:37:51,185.401,43.8,37566.04718
2020/8/18 22:38:51,185.594,44.021,37550.24756
2020/8/18 22:39:51,185.79,44.241,37534.53134
2020/8/18 22:40:51,185.987,44.461,37518.89889
2020/8/18 22:41:51,186.185,44.681,37503.35053
2020/8/18 22:42:51,186.385,44.901,37487.88661
2020/8/18 22:43:51,186.587,45.12,37472.50746
2020/8/18 22:44:51,186.79,45.339,37457.2134
2020/8/18 22:45:51,186.995,45.558,37442.00475
2020/8/18 22:46:51,187.202,45.777,37426.8818
2020/8/18 22:47:51,187.41,45.995,37411.84488
2020/8/18 22:48:51,187.62,46.213,37396.89426
2020/8/18 22:49:51,187.831,46.43,37382.03024
2020/8/18 22:50:51,188.045,46.647,37367.2531
2020/8/18 22:51:51,188.26,46.864,37352.56311
2020/8/18 22:52:51,188.477,47.081,37337.96054
2020/8/18 22:53:51,188.695,47.297,37323.44565
2020/8/18 22:54:51,188.916,47.513,37309.01869
2020/8/18 22:55:51,189.138,47.728,37294.67991
2020/8/18 22:56:51,189.362,47.943,37280.42953
2020/8/18 22:57:51,189.587,48.158,37266.26781
2020/8/18 22:58:51,189.815,48.372,37252.19494
2020/8/18 22:59:51,190.044,48.586,37238.21117
2020/8/18 23:00:51,190.275,48.8,37224.31669
2020/8/18 23:01:51,190.508,49.013,37210.5117
2020/8/18 23:02:51,190.743,49.226,37196.7964
2020/8/18 23:03:51,190.98,49.438,37183.17098
2020/8/18 23:04:51,191.219,49.65,37169.63563
2020/8/18 23:05:51,191.459,49.861,37156.1905
2020/8/18 23:06:51,191.702,50.072,37142.83577
2020/8/18 23:07:51,191.947,50.283,37129.5716
2020/8/18 23:08:51,192.193,50.493,37116.39814
2020/8/18 23:09:51,192.442,50.703,37103.31554
2020/8/18 23:10:51,192.692,50.912,37090.32392
2020/8/18 23:11:51,192.945,51.121,37077.42343
2020/8/18 23:12:51,193.199,51.329,37064.61418
2020/8/18 23:13:51,193.456,51.537,37051.89628
2020/8/18 23:14:51,193.714,51.744,37039.26986
2020/8/18 23:15:51,193.975,51.951,37026.73501
2020/8/18 23:16:51,194.238,52.157,37014.29182
2020/8/18 23:17:51,194.503,52.363,37001.94037
2020/8/18 23:18:51,194.77,52.568,36989.68076
2020/8/18 23:19:51,195.039,52.772,36977.51305
2020/8/18 23:20:51,195.311,52.976,36965.4373
2020/8/18 23:21:51,195.585,53.18,36953.45358
2020/8/18 23:22:51,195.86,53.383,36941.56194
2020/8/18 23:23:51,196.139,53.586,36929.76241
2020/8/18 23:24:51,196.419,53.787,36918.05504
2020/8/18 23:25:51,196.702,53.989,36906.43985
2020/8/18 23:26:51,196.986,54.189,36894.91687
2020/8/18 23:27:51,197.274,54.39,36883.48611
2020/8/18 23:28:51,197.563,54.589,36872.14757
2020/8/18 23:29:51,197.855,54.788,36860.90127
2020/8/18 23:30:51,198.149,54.986,36849.74719
2020/8/18 23:31:51,198.446,55.184,36838.68532
2020/8/18 23:32:51,198.745,55.381,36827.71563
2020/8/18 23:33:51,199.047,55.577,36816.83811
2020/8/18 23:34:51,199.351,55.773,36806.05272
2020/8/18 23:35:51,199.657,55.968,36795.35941
2020/8/18 23:36:51,199.966,56.162,36784.75813
2020/8/18 23:37:51,200.277,56.356,36774.24884
2020/8/18 23:38:51,200.591,56.549,36763.83147
2020/8/18 23:39:51,200.908,56.741,36753.50594
2020/8/18 23:40:51,201.227,56.933,36743.27218
2020/8/18 23:41:51,201.548,57.124,36733.13011
2020/8/18 23:42:51,201.873,57.314,36723.07964
2020/8/18 23:43:51,202.2,57.503,36713.12067
2020/8/18 23:44:51,202.529,57.692,36703.2531
2020/8/18 23:45:51,202.862,57.88,36693.47681
2020/8/18 23:46:51,203.197,58.067,36683.79169
2020/8/18 23:47:51,203.534,58.254,36674.19762
2020/8/18 23:48:51,203.875,58.439,36664.69446
2020/8/18 23:49:51,204.218,58.624,36655.28207
2020/8/18 23:50:51,204.564,58.808,36645.96031
2020/8/18 23:51:51,204.913,58.992,36636.72903
2020/8/18 23:52:51,205.264,59.174,36627.58808
2020/8/18 23:53:51,205.619,59.356,36618.53728
2020/8/18 23:54:51,205.976,59.536,36609.57647
2020/8/18 23:55:51,206.337,59.716,36600.70547
2020/8/18 23:56:51,206.7,59.895,36591.9241
2020/8/18 23:57:51,207.066,60.074,36583.23216
2020/8/18 23:58:51,207.435,60.251,36574.62946
2020/8/18 23:59:51,207.807,60.427,36566.1158
2020/8/19 0:00:51,208.183,60.603,36557.69096
2020/8/19 0:01:51,208.561,60.778,36549.35473
2020/8/19 0:02:51,208.942,60.951,36541.1069
2020/8/19 0:03:51,209.326,61.124,36532.94722
2020/8/19 0:04:51,209.714,61.296,36524.87547
2020/8/19 0:05:51,210.104,61.467,36516.8914
2020/8/19 0:06:51,210.498,61.637,36508.99478
2020/8/19 0:07:51,210.895,61.806,36501.18534
2020/8/19 0:08:51,211.295,61.974,36493.46282
2020/8/19 0:09:51,211.698,62.141,36485.82697
2020/8/19 0:10:51,212.105,62.308,36478.27751
2020/8/19 0:11:51,212.515,62.473,36470.81417
2020/8/19 0:12:51,212.928,62.637,36463.43666
2020/8/19 0:13:51,213.344,62.8,36456.14469
2020/8/19 0:14:51,213.764,62.962,36448.93797
2020/8/19 0:15:51,214.186,63.123,36441.8162
2020/8/19 0:16:51,214.613,63.283,36434.77908
2020/8/19 0:17:51,215.042,63.442,36427.82628
2020/8/19 0:18:51,215.475,63.6,36420.95751
2020/8/19 0:19:51,215.912,63.756,36414.17243
2020/8/19 0:20:51,216.352,63.912,36407.47071
2020/8/19 0:21:51,216.795,64.066,36400.85203
2020/8/19 0:22:51,217.242,64.22,36394.31604
2020/8/19 0:23:51,217.692,64.372,36387.8624
2020/8/19 0:24:51,218.145,64.523,36381.49076
2020/8/19 0:25:51,218.602,64.673,36375.20076
2020/8/19 0:26:51,219.063,64.822,36368.99205
2020/8/19 0:27:51,219.527,64.97,36362.86425
2020/8/19 0:28:51,219.995,65.116,36356.81701
2020/8/19 0:29:51,220.466,65.262,36350.84995
2020/8/19 0:30:51,220.941,65.406,36344.96267
2020/8/19 0:31:51,221.419,65.549,36339.15481
2020/8/19 0:32:51,221.901,65.69,36333.42596
2020/8/19 0:33:51,222.386,65.831,36327.77574
2020/8/19 0:34:51,222.875,65.97,36322.20374
2020/8/19 0:35:51,223.368,66.108,36316.70956
2020/8/19 0:36:51,223.864,66.245,36311.29279
2020/8/19 0:37:51,224.363,66.38,36305.95302
2020/8/19 0:38:51,224.867,66.514,36300.68982
2020/8/19 0:39:51,225.374,66.647,36295.50278
2020/8/19 0:40:51,225.884,66.779,36290.39147
2020/8/19 0:41:51,226.398,66.909,36285.35545
2020/8/19 0:42:51,226.916,67.038,36280.39429
2020/8/19 0:43:51,227.437,67.166,36275.50755
2020/8/19 0:44:51,227.962,67.292,36270.69479
2020/8/19 0:45:51,228.49,67.417,36265.95555
2020/8/19 0:46:51,229.022,67.54,36261.28939
2020/8/19 0:47:51,229.558,67.663,36256.69584
2020/8/19 0:48:51,230.097,67.784,36252.17444
2020/8/19 0:49:51,230.639,67.903,36247.72474
2020/8/19 0:50:51,231.185,68.021,36243.34625
2020/8/19 0:51:51,231.735,68.138,36239.03852
2020/8/19 0:52:51,232.288,68.253,36234.80106
2020/8/19 0:53:51,232.844,68.367,36230.63339
2020/8/19 0:54:51,233.404,68.479,36226.53503
2020/8/19 0:55:51,233.967,68.59,36222.50549
2020/8/19 0:56:51,234.534,68.7,36218.54428
2020/8/19 0:57:51,235.104,68.808,36214.65091
2020/8/19 0:58:51,235.677,68.915,36210.82488
2020/8/19 0:59:51,236.254,69.02,36207.06569
2020/8/19 1:00:51,236.834,69.124,36203.37283
2020/8/19 1:01:51,237.417,69.226,36199.7458
2020/8/19 1:02:51,238.004,69.327,36196.18409
2020/8/19 1:03:51,238.593,69.426,36192.68718
2020/8/19 1:04:51,239.186,69.524,36189.25456
2020/8/19 1:05:51,239.782,69.62,36185.88571
2020/8/19 1:06:51,240.381,69.715,36182.5801
2020/8/19 1:07:51,240.982,69.808,36179.33721
2020/8/19 1:08:51,241.587,69.9,36176.15652
2020/8/19 1:09:51,242.195,69.99,36173.03749
2020/8/19 1:10:51,242.805,70.079,36169.97959
2020/8/19 1:11:51,243.419,70.166,36166.98228
2020/8/19 1:12:51,244.035,70.252,36164.04503
2020/8/19 1:13:51,244.653,70.336,36161.16729
2020/8/19 1:14:51,245.275,70.419,36158.34853
2020/8/19 1:15:51,245.899,70.5,36155.58819
2020/8/19 1:16:51,246.525,70.58,36152.88574
2020/8/19 1:17:51,247.154,70.658,36150.24061
2020/8/19 1:18:51,247.785,70.735,36147.65227
2020/8/19 1:19:51,248.419,70.81,36145.12015
2020/8/19 1:20:51,249.055,70.883,36142.6437
2020/8/19 1:21:51,249.693,70.955,36140.22236
2020/8/19 1:22:51,250.333,71.026,36137.85558
2020/8/19 1:23:51,250.975,71.095,36135.54278
2020/8/19 1:24:51,251.619,71.162,36133.28342
2020/8/19 1:25:51,252.265,71.228,36131.07693
2020/8/19 1:26:51,252.912,71.292,36128.92273
2020/8/19 1:27:51,253.562,71.355,36126.82026
2020/8/19 1:28:51,254.213,71.416,36124.76896
2020/8/19 1:29:51,254.866,71.476,36122.76825
2020/8/19 1:30:51,255.52,71.534,36120.81756
2020/8/19 1:31:51,256.175,71.591,36118.91632
2020/8/19 1:32:51,256.832,71.647,36117.06396
2020/8/19 1:33:51,257.49,71.7,36115.2599
2020/8/19 1:34:51,258.149,71.753,36113.50356
2020/8/19 1:35:51,258.809,71.804,36111.79436
2020/8/19 1:36:51,259.471,71.853,36110.13174
2020/8/19 1:37:51,260.133,71.901,36108.5151
2020/8/19 1:38:51,260.795,71.948,36106.94388
2020/8/19 1:39:51,261.459,71.993,36105.41749
2020/8/19 1:40:51,262.123,72.036,36103.93534
2020/8/19 1:41:51,262.788,72.078,36102.49687
2020/8/19 1:42:51,263.453,72.119,36101.10148
2020/8/19 1:43:51,264.118,72.159,36099.7486
2020/8/19 1:44:51,264.784,72.197,36098.43763
2020/8/19 1:45:51,265.45,72.233,36097.16801
2020/8/19 1:46:51,266.116,72.268,36095.93914
2020/8/19 1:47:51,266.782,72.302,36094.75044
2020/8/19 1:48:51,267.447,72.335,36093.60133
2020/8/19 1:49:51,268.113,72.366,36092.49122
2020/8/19 1:50:51,268.778,72.396,36091.41954
2020/8/19 1:51:51,269.443,72.425,36090.38569
2020/8/19 1:52:51,270.108,72.452,36089.38909
2020/8/19 1:53:51,270.772,72.478,36088.42917
2020/8/19 1:54:51,271.435,72.503,36087.50533
2020/8/19 1:55:51,272.098,72.526,36086.61699
2020/8/19 1:56:51,272.76,72.549,36085.76358
2020/8/19 1:57:51,273.421,72.57,36084.94451
2020/8/19 1:58:51,274.082,72.59,36084.1592
2020/8/19 1:59:51,274.741,72.608,36083.40706
2020/8/19 2:00:51,275.399,72.626,36082.68753
2020/8/19 2:01:51,276.056,72.642,36082.00001
2020/8/19 2:02:51,276.712,72.658,36081.34393
2020/8/19 2:03:51,277.366,72.672,36080.71872
2020/8/19 2:04:51,278.019,72.685,36080.12379
2020/8/19 2:05:51,278.671,72.697,36079.55857
2020/8/19 2:06:51,279.321,72.708,36079.02248
2020/8/19 2:07:51,279.97,72.718,36078.51496
2020/8/19 2:08:51,280.617,72.726,36078.03542
2020/8/19 2:09:51,281.262,72.734,36077.5833
2020/8/19 2:10:51,281.905,72.741,36077.15802
2020/8/19 2:11:51,282.547,72.747,36076.75902
2020/8/19 2:12:51,283.187,72.752,36076.38574
2020/8/19 2:13:51,283.825,72.756,36076.03759
2020/8/19 2:14:51,284.461,72.759,36075.71402
2020/8/19 2:15:51,285.095,72.762,36075.41447
2020/8/19 2:16:51,285.727,72.763,36075.13837
2020/8/19 2:17:51,286.357,72.763,36074.88516
2020/8/19 2:18:51,286.985,72.763,36074.65429
2020/8/19 2:19:51,287.61,72.762,36074.4452
2020/8/19 2:20:51,288.234,72.76,36074.25733
2020/8/19 2:21:51,288.855,72.758,36074.09013
2020/8/19 2:22:51,289.474,72.754,36073.94306
2020/8/19 2:23:51,290.09,72.75,36073.81556
2020/8/19 2:24:51,290.704,72.745,36073.70708
2020/8/19 2:25:51,291.316,72.74,36073.61708
2020/8/19 2:26:51,291.925,72.734,36073.54502
2020/8/19 2:27:51,292.532,72.727,36073.49036
2020/8/19 2:28:51,293.137,72.719,36073.45256
2020/8/19 2:29:51,293.739,72.711,36073.43109
2020/8/19 2:30:51,294.338,72.703,36073.42541
2020/8/19 2:31:51,294.935,72.693,36073.43499
2020/8/19 2:32:51,295.529,72.684,36073.4593
2020/8/19 2:33:51,296.121,72.673,36073.49781
2020/8/19 2:34:51,296.71,72.663,36073.55002
2020/8/19 2:35:51,297.297,72.651,36073.61538
2020/8/19 2:36:51,297.881,72.639,36073.69339
2020/8/19 2:37:51,298.463,72.627,36073.78353
2020/8/19 2:38:51,299.041,72.615,36073.88529
2020/8/19 2:39:51,299.618,72.602,36073.99816
2020/8/19 2:40:51,300.191,72.588,36074.12163
2020/8/19 2:41:51,300.762,72.574,36074.25521
2020/8/19 2:42:51,301.331,72.56,36074.39838
2020/8/19 2:43:51,301.896,72.546,36074.55065
2020/8/19 2:44:51,302.459,72.531,36074.71153
2020/8/19 2:45:51,303.02,72.516,36074.88052
2020/8/19 2:46:51,303.578,72.5,36075.05715
2020/8/19 2:47:51,304.133,72.484,36075.24091
2020/8/19 2:48:51,304.686,72.469,36075.43134
2020/8/19 2:49:51,305.236,72.452,36075.62796
2020/8/19 2:50:51,305.783,72.436,36075.83028
2020/8/19 2:51:51,306.328,72.419,36076.03784
2020/8/19 2:52:51,306.87,72.403,36076.25017
2020/8/19 2:53:51,307.41,72.386,36076.46681
2020/8/19 2:54:51,307.947,72.369,36076.68729
2020/8/19 2:55:51,308.481,72.351,36076.91116
2020/8/19 2:56:51,309.013,72.334,36077.13796
2020/8/19 2:57:51,309.543,72.317,36077.36726
2020/8/19 2:58:51,310.07,72.299,36077.59859
2020/8/19 2:59:51,310.595,72.282,36077.83151
2020/8/19 3:00:51,311.117,72.264,36078.0656
2020/8/19 3:01:51,311.636,72.246,36078.30041
2020/8/19 3:02:51,312.154,72.229,36078.53551
2020/8/19 3:03:51,312.668,72.211,36078.77048
2020/8/19 3:04:51,313.181,72.193,36079.0049
2020/8/19 3:05:51,313.691,72.176,36079.23834
2020/8/19 3:06:51,314.199,72.158,36079.47039
2020/8/19 3:07:51,314.704,72.14,36079.70064
2020/8/19 3:08:51,315.207,72.123,36079.92869
2020/8/19 3:09:51,315.708,72.106,36080.15413
2020/8/19 3:10:51,316.206,72.088,36080.37657
2020/8/19 3:11:51,316.702,72.071,36080.5956
2020/8/19 3:12:51,317.197,72.054,36080.81085
2020/8/19 3:13:51,317.688,72.037,36081.02193
2020/8/19 3:14:51,318.178,72.02,36081.22845
2020/8/19 3:15:51,318.666,72.003,36081.43004
2020/8/19 3:16:51,319.151,71.987,36081.62633
2020/8/19 3:17:51,319.634,71.971,36081.81695
2020/8/19 3:18:51,320.115,71.955,36082.00154
2020/8/19 3:19:51,320.595,71.939,36082.17975
2020/8/19 3:20:51,321.072,71.923,36082.3512
2020/8/19 3:21:51,321.547,71.907,36082.51557
2020/8/19 3:22:51,322.02,71.892,36082.6725
2020/8/19 3:23:51,322.491,71.877,36082.82165
2020/8/19 3:24:51,322.961,71.863,36082.96269
2020/8/19 3:25:51,323.428,71.848,36083.09529
2020/8/19 3:26:51,323.894,71.834,36083.21912
2020/8/19 3:27:51,324.358,71.82,36083.33387
2020/8/19 3:28:51,324.82,71.807,36083.43921
2020/8/19 3:29:51,325.28,71.793,36083.53484
2020/8/19 3:30:51,325.738,71.78,36083.62044
2020/8/19 3:31:51,326.195,71.768,36083.69573
2020/8/19 3:32:51,326.65,71.756,36083.7604
2020/8/19 3:33:51,327.103,71.744,36083.81416
2020/8/19 3:34:51,327.555,71.732,36083.85672
2020/8/19 3:35:51,328.005,71.721,36083.88781
2020/8/19 3:36:51,328.453,71.71,36083.90714
2020/8/19 3:37:51,328.9,71.7,36083.91446
2020/8/19 3:38:51,329.346,71.69,36083.90948
2020/8/19 3:39:51,329.789,71.68,36083.89195
2020/8/19 3:40:51,330.232,71.671,36083.86162
2020/8/19 3:41:51,330.673,71.662,36083.81823
2020/8/19 3:42:51,331.112,71.654,36083.76153
2020/8/19 3:43:51,331.551,71.646,36083.6913
2020/8/19 3:44:51,331.987,71.639,36083.60729
2020/8/19 3:45:51,332.423,71.632,36083.50927
2020/8/19 3:46:51,332.857,71.625,36083.39703
2020/8/19 3:47:51,333.29,71.619,36083.27033
2020/8/19 3:48:51,333.721,71.613,36083.12897
2020/8/19 3:49:51,334.152,71.608,36082.97274
2020/8/19 3:50:51,334.581,71.604,36082.80143
2020/8/19 3:51:51,335.009,71.599,36082.61486
2020/8/19 3:52:51,335.436,71.596,36082.41282
2020/8/19 3:53:51,335.862,71.593,36082.19512
2020/8/19 3:54:51,336.286,71.59,36081.9616
2020/8/19 3:55:51,336.71,71.588,36081.71207
2020/8/19 3:56:51,337.133,71.586,36081.44636
2020/8/19 3:57:51,337.554,71.585,36081.16431
2020/8/19 3:58:51,337.975,71.584,36080.86576
2020/8/19 3:59:51,338.395,71.584,36080.55055
2020/8/19 4:00:00,338.457,71.584,36080.50247
