sat_transfer/group3-sr1.csv

Time (UTCG),Azimuth (deg),Elevation (deg),Range (km)
2020/8/18 4:37:37,34.03,-24.662,44596.80304
2020/8/18 4:38:36,33.335,-21.983,44275.30477
2020/8/18 4:39:36,32.743,-19.23,43940.82836
2020/8/18 4:40:36,32.258,-16.432,43597.74091
2020/8/18 4:41:36,31.874,-13.593,43247.12836
2020/8/18 4:42:36,31.588,-10.713,42890.13355
2020/8/18 4:43:36,31.399,-7.797,42527.95517
2020/8/18 4:44:36,31.305,-4.844,42161.84665
2020/8/18 4:45:36,31.307,-1.858,41793.11449
2020/8/18 4:46:36,31.406,1.159,41423.11609
2020/8/18 4:47:36,31.605,4.206,41053.25708
2020/8/18 4:48:36,31.909,7.28,40684.98802
2020/8/18 4:49:36,32.324,10.377,40319.8004
2020/8/18 4:50:36,32.856,13.494,39959.22181
2020/8/18 4:51:36,33.517,16.627,39604.81037
2020/8/18 4:52:36,34.317,19.771,39258.14821
2020/8/18 4:53:36,35.273,22.92,38920.83391
2020/8/18 4:54:36,36.402,26.066,38594.47412
2020/8/18 4:55:36,37.725,29.201,38280.67394
2020/8/18 4:56:36,39.27,32.313,37981.02654
2020/8/18 4:57:36,41.069,35.39,37697.10161
2020/8/18 4:58:36,43.159,38.415,37430.43306
2020/8/18 4:59:36,45.584,41.368,37182.50586
2020/8/18 5:00:36,48.395,44.223,36954.74241
2020/8/18 5:01:36,51.649,46.952,36748.48834
2020/8/18 5:02:36,55.405,49.517,36564.99837
2020/8/18 5:03:36,59.723,51.873,36405.42217
2020/8/18 5:04:36,64.646,53.97,36270.79079
2020/8/18 5:05:36,70.194,55.75,36162.00383
2020/8/18 5:06:36,76.34,57.152,36079.81789
2020/8/18 5:07:36,82.991,58.12,36024.83633
2020/8/18 5:08:36,89.987,58.606,35997.50106
2020/8/18 5:09:36,97.106,58.586,35998.08615
2020/8/18 5:10:36,104.108,58.058,36026.69391
2020/8/18 5:11:36,110.774,57.046,36083.25318
2020/8/18 5:12:36,116.94,55.596,36167.52027
2020/8/18 5:13:36,122.518,53.763,36279.08197
2020/8/18 5:14:36,127.478,51.606,36417.3613
2020/8/18 5:15:36,131.841,49.184,36581.62483
2020/8/18 5:16:36,135.652,46.545,36770.99235
2020/8/18 5:17:36,138.97,43.735,36984.44768
2020/8/18 5:18:36,141.853,40.789,37220.85103
2020/8/18 5:19:36,144.36,37.738,37478.95192
2020/8/18 5:20:36,146.542,34.607,37757.40301
2020/8/18 5:21:36,148.443,31.415,38054.77376
2020/8/18 5:22:36,150.102,28.179,38369.56443
2020/8/18 5:23:36,151.55,24.912,38700.21936
2020/8/18 5:24:36,152.814,21.624,39045.14012
2020/8/18 5:25:36,153.918,18.325,39402.69757
2020/8/18 5:26:36,154.881,15.021,39771.24339
2020/8/18 5:27:36,155.716,11.718,40149.12067
2020/8/18 5:28:36,156.439,8.421,40534.67331
2020/8/18 5:29:36,157.059,5.134,40926.25474
2020/8/18 5:30:36,157.585,1.859,41322.23552
2020/8/18 5:31:36,158.024,-1.402,41721.0101
2020/8/18 5:32:36,158.381,-4.645,42121.00264
2020/8/18 5:33:36,158.661,-7.871,42520.67208
2020/8/18 5:34:36,158.866,-11.077,42918.51638
2020/8/18 5:35:36,158.998,-14.263,43313.07621
2020/8/18 5:36:36,159.059,-17.428,43702.93792
2020/8/18 5:37:36,159.046,-20.572,44086.73604
2020/8/18 5:38:36,158.958,-23.694,44463.1553
2020/8/18 5:38:57,158.91,-24.772,44591.85448
2020/8/18 6:20:12,12.105,-24.807,44581.75893
2020/8/18 6:21:12,11.701,-21.564,44192.54999
2020/8/18 6:22:12,11.349,-18.276,43792.18072
2020/8/18 6:23:12,11.047,-14.952,43383.30914
2020/8/18 6:24:12,10.789,-11.591,42967.30075
2020/8/18 6:25:12,10.573,-8.194,42545.58591
2020/8/18 6:26:12,10.396,-4.759,42119.6587
2020/8/18 6:27:12,10.257,-1.285,41691.07529
2020/8/18 6:28:12,10.154,2.229,41261.45154
2020/8/18 6:29:12,10.088,5.782,40832.4601
2020/8/18 6:30:12,10.059,9.377,40405.82657
2020/8/18 6:31:12,10.067,13.012,39983.32481
2020/8/18 6:32:12,10.116,16.69,39566.77123
2020/8/18 6:33:12,10.207,20.409,39158.0179
2020/8/18 6:34:12,10.344,24.171,38758.94445
2020/8/18 6:35:12,10.535,27.974,38371.44863
2020/8/18 6:36:12,10.786,31.817,37997.4355
2020/8/18 6:37:12,11.107,35.701,37638.8051
2020/8/18 6:38:12,11.513,39.622,37297.43889
2020/8/18 6:39:12,12.024,43.579,36975.18457
2020/8/18 6:40:12,12.666,47.568,36673.83992
2020/8/18 6:41:12,13.48,51.587,36395.13538
2020/8/18 6:42:12,14.524,55.628,36140.71594
2020/8/18 6:43:12,15.888,59.684,35912.12254
2020/8/18 6:44:12,17.718,63.744,35710.77342
2020/8/18 6:45:12,20.266,67.79,35537.94583
2020/8/18 6:46:12,23.997,71.79,35394.7587
2020/8/18 6:47:12,29.856,75.683,35282.15669
2020/8/18 6:48:12,39.967,79.325,35200.89617
2020/8/18 6:49:12,59.171,82.321,35151.53372
2020/8/18 6:50:12,92.868,83.655,35134.41737
2020/8/18 6:51:12,126.912,82.388,35149.68111
2020/8/18 6:52:12,146.497,79.419,35197.24267
2020/8/18 6:53:12,156.805,75.783,35276.80494
2020/8/18 6:54:12,162.779,71.889,35387.86062
2020/8/18 6:55:12,166.594,67.883,35529.70025
2020/8/18 6:56:12,169.218,63.828,35701.42309
2020/8/18 6:57:12,171.123,59.758,35901.95052
2020/8/18 6:58:12,172.567,55.688,36130.04158
2020/8/18 6:59:12,173.698,51.633,36384.30988
2020/8/18 7:00:12,174.608,47.598,36663.24172
2020/8/18 7:01:12,175.357,43.59,36965.21453
2020/8/18 7:02:12,175.985,39.613,37288.51553
2020/8/18 7:03:12,176.52,35.67,37631.35981
2020/8/18 7:04:12,176.984,31.763,37991.90787
2020/8/18 7:05:12,177.391,27.894,38368.28198
2020/8/18 7:06:12,177.753,24.064,38758.58153
2020/8/18 7:07:12,178.079,20.274,39160.89687
2020/8/18 7:08:12,178.375,16.524,39573.32184
2020/8/18 7:09:12,178.649,12.813,39993.96489
2020/8/18 7:10:12,178.904,9.142,40420.95872
2020/8/18 7:11:12,179.144,5.51,40852.46865
2020/8/18 7:12:12,179.373,1.917,41286.69974
2020/8/18 7:13:12,179.594,-1.64,41721.90271
2020/8/18 7:14:12,179.81,-5.16,42156.37887
2020/8/18 7:15:12,180.023,-8.644,42588.48408
2020/8/18 7:16:12,180.236,-12.094,43016.63189
2020/8/18 7:17:12,180.451,-15.512,43439.29604
2020/8/18 7:18:12,180.67,-18.898,43855.01223
2020/8/18 7:19:12,180.897,-22.253,44262.37951
2020/8/18 7:19:59,181.082,-24.856,44574.05991
2020/8/18 8:01:24,349.769,-24.881,44566.84883
2020/8/18 8:02:24,349.715,-21.614,44174.86927
2020/8/18 8:03:24,349.623,-18.297,43771.22069
2020/8/18 8:04:24,349.495,-14.954,43360.1822
2020/8/18 8:05:24,349.328,-11.585,42943.17004
2020/8/18 8:06:24,349.122,-8.189,42521.65843
2020/8/18 8:07:24,348.875,-4.764,42097.17757
2020/8/18 8:08:24,348.583,-1.312,41671.31116
2020/8/18 8:09:24,348.243,2.169,41245.69332
2020/8/18 8:10:24,347.849,5.678,40822.0047
2020/8/18 8:11:24,347.397,9.215,40401.96781
2020/8/18 8:12:24,346.879,12.779,39987.34142
2020/8/18 8:13:24,346.285,16.369,39579.91397
2020/8/18 8:14:24,345.604,19.983,39181.49583
2020/8/18 8:15:24,344.823,23.619,38793.91048
2020/8/18 8:16:24,343.924,27.273,38418.98434
2020/8/18 8:17:24,342.885,30.941,38058.53555
2020/8/18 8:18:24,341.678,34.617,37714.36137
2020/8/18 8:19:24,340.268,38.294,37388.22438
2020/8/18 8:20:24,338.61,41.96,37081.83784
2020/8/18 8:21:24,336.642,45.604,36796.84989
2020/8/18 8:22:24,334.287,49.207,36534.82733
2020/8/18 8:23:24,331.439,52.745,36297.23871
2020/8/18 8:24:24,327.958,56.186,36085.43776
2020/8/18 8:25:24,323.66,59.482,35900.64683
2020/8/18 8:26:24,318.31,62.57,35743.94138
2020/8/18 8:27:24,311.628,65.358,35616.23547
2020/8/18 8:28:24,303.344,67.722,35518.26921
2020/8/18 8:29:24,293.326,69.507,35450.59805
2020/8/18 8:30:24,281.811,70.547,35413.58473
2020/8/18 8:31:24,269.559,70.718,35407.3939
2020/8/18 8:32:24,257.669,70,35431.98979
2020/8/18 8:33:24,247.071,68.485,35487.13691
2020/8/18 8:34:24,238.184,66.335,35572.40373
2020/8/18 8:35:24,230.983,63.713,35687.16948
2020/8/18 8:36:24,225.226,60.756,35830.63333
2020/8/18 8:37:24,220.627,57.567,36001.82623
2020/8/18 8:38:24,216.934,54.219,36199.62446
2020/8/18 8:39:24,213.944,50.765,36422.76485
2020/8/18 8:40:24,211.504,47.241,36669.86102
2020/8/18 8:41:24,209.496,43.674,36939.4202
2020/8/18 8:42:24,207.834,40.085,37229.86034
2020/8/18 8:43:24,206.452,36.487,37539.52687
2020/8/18 8:44:24,205.301,32.893,37866.70913
2020/8/18 8:45:24,204.341,29.31,38209.65582
2020/8/18 8:46:24,203.545,25.745,38566.58962
2020/8/18 8:47:24,202.888,22.203,38935.72056
2020/8/18 8:48:24,202.353,18.688,39315.25814
2020/8/18 8:49:24,201.926,15.203,39703.42232
2020/8/18 8:50:24,201.596,11.75,40098.45304
2020/8/18 8:51:24,201.356,8.331,40498.61866
2020/8/18 8:52:24,201.197,4.947,40902.22316
2020/8/18 8:53:24,201.117,1.599,41307.61224
2020/8/18 8:54:24,201.112,-1.712,41713.17841
2020/8/18 8:55:24,201.18,-4.986,42117.3652
2020/8/18 8:56:24,201.321,-8.222,42518.67055
2020/8/18 8:57:24,201.535,-11.42,42915.64946
2020/8/18 8:58:24,201.825,-14.579,43306.91606
2020/8/18 8:59:24,202.193,-17.7,43691.14513
2020/8/18 9:00:24,202.643,-20.78,44067.07315
2020/8/18 9:01:24,203.182,-23.82,44433.49903
2020/8/18 9:01:47,203.413,-24.973,44570.98173
2020/8/18 9:42:27,327.967,-24.899,44557.75305
2020/8/18 9:43:27,328.251,-22.092,44221.45131
2020/8/18 9:44:27,328.434,-19.245,43876.12745
2020/8/18 9:45:27,328.517,-16.38,43525.06114
2020/8/18 9:46:27,328.502,-13.499,43169.47594
2020/8/18 9:47:27,328.392,-10.603,42810.63348
2020/8/18 9:48:27,328.186,-7.696,42449.83079
2020/8/18 9:49:27,327.883,-4.779,42088.39738
2020/8/18 9:50:27,327.481,-1.856,41727.69155
2020/8/18 9:51:27,326.978,1.07,41369.09643
2020/8/18 9:52:27,326.367,3.995,41014.01542
2020/8/18 9:53:27,325.643,6.915,40663.86694
2020/8/18 9:54:27,324.799,9.824,40320.07872
2020/8/18 9:55:27,323.827,12.718,39984.08128
2020/8/18 9:56:27,322.716,15.589,39657.30093
2020/8/18 9:57:27,321.454,18.428,39341.1519
2020/8/18 9:58:27,320.029,21.228,39037.02817
2020/8/18 9:59:27,318.425,23.977,38746.29442
2020/8/18 10:00:27,316.626,26.664,38470.27654
2020/8/18 10:01:27,314.613,29.273,38210.25195
2020/8/18 10:02:27,312.369,31.789,37967.43924
2020/8/18 10:03:27,309.875,34.194,37742.98803
2020/8/18 10:04:27,307.113,36.465,37537.9685
2020/8/18 10:05:27,304.068,38.581,37353.36154
2020/8/18 10:06:27,300.73,40.516,37190.04878
2020/8/18 10:07:27,297.097,42.243,37048.80385
2020/8/18 10:08:27,293.178,43.735,36930.28391
2020/8/18 10:09:27,288.996,44.965,36835.02276
2020/8/18 10:10:27,284.587,45.909,36763.42472
2020/8/18 10:11:27,280.008,46.547,36715.76041
2020/8/18 10:12:27,275.325,46.865,36692.16359
2020/8/18 10:13:27,270.618,46.857,36692.63015
2020/8/18 10:14:27,265.965,46.525,36717.01832
2020/8/18 10:15:27,261.442,45.879,36765.05097
2020/8/18 10:16:27,257.115,44.936,36836.3192
2020/8/18 10:17:27,253.033,43.72,36930.28772
2020/8/18 10:18:27,249.229,42.257,37046.30146
2020/8/18 10:19:27,245.721,40.575,37183.59347
2020/8/18 10:20:27,242.516,38.702,37341.29374
2020/8/18 10:21:27,239.608,36.664,37518.43892
2020/8/18 10:22:27,236.987,34.489,37713.98253
2020/8/18 10:23:27,234.635,32.197,37926.8055
2020/8/18 10:24:27,232.535,29.809,38155.72689
2020/8/18 10:25:27,230.669,27.345,38399.51454
2020/8/18 10:26:27,229.018,24.818,38656.89547
2020/8/18 10:27:27,227.565,22.244,38926.56586
2020/8/18 10:28:27,226.295,19.634,39207.20067
2020/8/18 10:29:27,225.192,16.999,39497.46256
2020/8/18 10:30:27,224.244,14.347,39796.01016
2020/8/18 10:31:27,223.441,11.687,40101.50571
2020/8/18 10:32:27,222.772,9.025,40412.622
2020/8/18 10:33:27,222.23,6.366,40728.04848
2020/8/18 10:34:27,221.807,3.718,41046.49687
2020/8/18 10:35:27,221.499,1.083,41366.70591
2020/8/18 10:36:27,221.301,-1.533,41687.44561
2020/8/18 10:37:27,221.209,-4.127,42007.52082
2020/8/18 10:38:27,221.222,-6.696,42325.77436
2020/8/18 10:39:27,221.338,-9.235,42641.08951
2020/8/18 10:40:27,221.556,-11.743,42952.39221
2020/8/18 10:41:27,221.878,-14.215,43258.65273
2020/8/18 10:42:27,222.304,-16.648,43558.88704
2020/8/18 10:43:27,222.837,-19.04,43852.1579
2020/8/18 10:44:27,223.48,-21.386,44137.57563
2020/8/18 10:45:27,224.236,-23.684,44414.29856
2020/8/18 10:46:03,224.747,-25.043,44576.42793
2020/8/18 11:24:49,308.476,-24.9,44561.41918
2020/8/18 11:25:48,309.039,-22.897,44322.10046
2020/8/18 11:26:48,309.498,-20.845,44074.51583
2020/8/18 11:27:48,309.85,-18.772,43822.29796
2020/8/18 11:28:48,310.098,-16.683,43566.27788
2020/8/18 11:29:48,310.245,-14.58,43307.30502
2020/8/18 11:30:48,310.292,-12.469,43046.24517
2020/8/18 11:31:48,310.24,-10.353,42783.97826
2020/8/18 11:32:48,310.092,-8.236,42521.39589
2020/8/18 11:33:48,309.846,-6.123,42259.39883
2020/8/18 11:34:48,309.504,-4.017,41998.8941
2020/8/18 11:35:48,309.065,-1.924,41740.79206
2020/8/18 11:36:48,308.527,0.153,41486.00313
2020/8/18 11:37:48,307.889,2.207,41235.43445
2020/8/18 11:38:48,307.15,4.235,40989.98619
2020/8/18 11:39:48,306.309,6.23,40750.54782
2020/8/18 11:40:48,305.362,8.186,40517.9941
2020/8/18 11:41:48,304.308,10.097,40293.181
2020/8/18 11:42:48,303.145,11.957,40076.94142
2020/8/18 11:43:48,301.87,13.758,39870.08091
2020/8/18 11:44:48,300.483,15.492,39673.37314
2020/8/18 11:45:48,298.983,17.152,39487.55567
2020/8/18 11:46:48,297.368,18.73,39313.32554
2020/8/18 11:47:48,295.64,20.217,39151.33486
2020/8/18 11:48:48,293.801,21.604,39002.18685
2020/8/18 11:49:48,291.853,22.884,38866.43188
2020/8/18 11:50:48,289.801,24.047,38744.56367
2020/8/18 11:51:48,287.652,25.086,38637.01617
2020/8/18 11:52:48,285.416,25.992,38544.16051
2020/8/18 11:53:48,283.101,26.76,38466.30244
2020/8/18 11:54:48,280.721,27.382,38403.68042
2020/8/18 11:55:48,278.29,27.855,38356.46401
2020/8/18 11:56:48,275.823,28.174,38324.75305
2020/8/18 11:57:48,273.337,28.338,38308.57713
2020/8/18 11:58:48,270.851,28.346,38307.89596
2020/8/18 11:59:48,268.38,28.199,38322.60007
2020/8/18 12:00:48,265.942,27.9,38352.51223
2020/8/18 12:01:48,263.552,27.452,38397.38933
2020/8/18 12:02:48,261.227,26.862,38456.92487
2020/8/18 12:03:48,258.977,26.135,38530.75179
2020/8/18 12:04:48,256.815,25.28,38618.44583
2020/8/18 12:05:48,254.748,24.304,38719.52918
2020/8/18 12:06:48,252.785,23.215,38833.47448
2020/8/18 12:07:48,250.93,22.023,38959.70903
2020/8/18 12:08:48,249.187,20.737,39097.61916
2020/8/18 12:09:48,247.557,19.365,39246.55471
2020/8/18 12:10:48,246.042,17.916,39405.83362
2020/8/18 12:11:48,244.64,16.4,39574.74646
2020/8/18 12:12:48,243.351,14.823,39752.56084
2020/8/18 12:13:48,242.173,13.193,39938.52589
2020/8/18 12:14:48,241.104,11.519,40131.87645
2020/8/18 12:15:48,240.141,9.806,40331.83712
2020/8/18 12:16:48,239.282,8.061,40537.62614
2020/8/18 12:17:48,238.524,6.291,40748.45904
2020/8/18 12:18:48,237.865,4.5,40963.55203
2020/8/18 12:19:48,237.301,2.695,41182.12515
2020/8/18 12:20:48,236.831,0.88,41403.40527
2020/8/18 12:21:48,236.453,-0.941,41626.62863
2020/8/18 12:22:48,236.165,-2.763,41851.04332
2020/8/18 12:23:48,235.965,-4.581,42075.91149
2020/8/18 12:24:48,235.853,-6.393,42300.51126
2020/8/18 12:25:48,235.826,-8.194,42524.13845
2020/8/18 12:26:48,235.885,-9.98,42746.10814
2020/8/18 12:27:48,236.029,-11.749,42965.75599
2020/8/18 12:28:48,236.257,-13.496,43182.43937
2020/8/18 12:29:48,236.57,-15.219,43395.53838
2020/8/18 12:30:48,236.969,-16.914,43604.45668
2020/8/18 12:31:48,237.452,-18.578,43808.62217
2020/8/18 12:32:48,238.022,-20.208,44007.48759
2020/8/18 12:33:48,238.679,-21.799,44200.53096
2020/8/18 12:34:48,239.423,-23.349,44387.25598
2020/8/18 12:35:44,240.203,-24.765,44556.55257
2020/8/18 13:12:23,298.382,-24.833,44572.75718
2020/8/18 13:13:23,299.158,-23.381,44399.6838
2020/8/18 13:14:23,299.849,-21.891,44220.62267
2020/8/18 13:15:23,300.454,-20.365,44036.10265
2020/8/18 13:16:23,300.976,-18.808,43846.61296
2020/8/18 13:17:23,301.415,-17.223,43652.66172
2020/8/18 13:18:23,301.771,-15.613,43454.77533
2020/8/18 13:19:23,302.046,-13.981,43253.49795
2020/8/18 13:20:23,302.241,-12.331,43049.39062
2020/8/18 13:21:23,302.354,-10.665,42843.03058
2020/8/18 13:22:23,302.388,-8.987,42635.01025
2020/8/18 13:23:23,302.341,-7.301,42425.93629
2020/8/18 13:24:23,302.214,-5.61,42216.42843
2020/8/18 13:25:23,302.005,-3.917,42007.11817
2020/8/18 13:26:23,301.715,-2.226,41798.64743
2020/8/18 13:27:23,301.342,-0.54,41591.66697
2020/8/18 13:28:23,300.886,1.135,41386.83471
2020/8/18 13:29:23,300.345,2.797,41184.81387
2020/8/18 13:30:23,299.718,4.44,40986.27099
2020/8/18 13:31:23,299.003,6.061,40791.87374
2020/8/18 13:32:23,298.2,7.654,40602.28865
2020/8/18 13:33:23,297.307,9.213,40418.17856
2020/8/18 13:34:23,296.323,10.735,40240.20003
2020/8/18 13:35:23,295.246,12.213,40069.00061
2020/8/18 13:36:23,294.075,13.64,39905.21584
2020/8/18 13:37:23,292.811,15.012,39749.46634
2020/8/18 13:38:23,291.453,16.32,39602.35465
2020/8/18 13:39:23,290.002,17.56,39464.46209
2020/8/18 13:40:23,288.46,18.724,39336.34546
2020/8/18 13:41:23,286.827,19.805,39218.53392
2020/8/18 13:42:23,285.109,20.797,39111.52566
2020/8/18 13:43:23,283.309,21.693,39015.78483
2020/8/18 13:44:23,281.433,22.486,38931.73839
2020/8/18 13:45:23,279.487,23.171,38859.77325
2020/8/18 13:46:23,277.481,23.741,38800.23346
2020/8/18 13:47:23,275.422,24.193,38753.41765
2020/8/18 13:48:23,273.322,24.522,38719.57674
2020/8/18 13:49:23,271.192,24.725,38698.91193
2020/8/18 13:50:23,269.044,24.799,38691.57294
2020/8/18 13:51:23,266.891,24.744,38697.65671
2020/8/18 13:52:23,264.744,24.559,38717.20634
2020/8/18 13:53:23,262.617,24.244,38750.2105
2020/8/18 13:54:23,260.522,23.802,38796.60314
2020/8/18 13:55:23,258.469,23.236,38856.26375
2020/8/18 13:56:23,256.469,22.55,38929.01781
2020/8/18 13:57:23,254.531,21.748,39014.63771
2020/8/18 13:58:23,252.664,20.834,39112.84417
2020/8/18 13:59:23,250.874,19.816,39223.3077
2020/8/18 14:00:23,249.167,18.699,39345.65061
2020/8/18 14:01:23,247.547,17.49,39479.44933
2020/8/18 14:02:23,246.017,16.194,39624.23673
2020/8/18 14:03:23,244.58,14.82,39779.50488
2020/8/18 14:04:23,243.237,13.373,39944.70798
2020/8/18 14:05:23,241.99,11.859,40119.26527
2020/8/18 14:06:23,240.837,10.286,40302.56417
2020/8/18 14:07:23,239.779,8.659,40493.96343
2020/8/18 14:08:23,238.816,6.984,40692.79649
2020/8/18 14:09:23,237.946,5.267,40898.37444
2020/8/18 14:10:23,237.169,3.514,41109.9894
2020/8/18 14:11:23,236.484,1.729,41326.91755
2020/8/18 14:12:23,235.889,-0.082,41548.42227
2020/8/18 14:13:23,235.384,-1.915,41773.75701
2020/8/18 14:14:23,234.969,-3.765,42002.16833
2020/8/18 14:15:23,234.642,-5.628,42232.89842
2020/8/18 14:16:23,234.404,-7.5,42465.18789
2020/8/18 14:17:23,234.255,-9.376,42698.27824
2020/8/18 14:18:23,234.195,-11.253,42931.41418
2020/8/18 14:19:23,234.224,-13.126,43163.8459
2020/8/18 14:20:23,234.344,-14.993,43394.83113
2020/8/18 14:21:23,234.556,-16.849,43623.63714
2020/8/18 14:22:23,234.861,-18.69,43849.54257
2020/8/18 14:23:23,235.262,-20.512,44071.83913
2020/8/18 14:24:23,235.761,-22.312,44289.83324
2020/8/18 14:25:23,236.361,-24.086,44502.84748
2020/8/18 14:25:39,236.541,-24.561,44559.60116
2020/8/18 15:03:54,309.008,-24.657,44584.50013
2020/8/18 15:04:54,309.851,-22.685,44348.66014
2020/8/18 15:05:54,310.587,-20.66,44104.16733
2020/8/18 15:06:54,311.218,-18.588,43851.91204
2020/8/18 15:07:54,311.744,-16.473,43592.61311
2020/8/18 15:08:54,312.169,-14.317,43327.03044
2020/8/18 15:09:54,312.493,-12.126,43055.9643
2020/8/18 15:10:54,312.718,-9.902,42780.25474
2020/8/18 15:11:54,312.842,-7.649,42500.78063
2020/8/18 15:12:54,312.867,-5.37,42218.45841
2020/8/18 15:13:54,312.79,-3.07,41934.24067
2020/8/18 15:14:54,312.61,-0.752,41649.11433
2020/8/18 15:15:54,312.324,1.58,41364.09851
2020/8/18 15:16:54,311.93,3.922,41080.24197
2020/8/18 15:17:54,311.422,6.268,40798.62022
2020/8/18 15:18:54,310.798,8.613,40520.33206
2020/8/18 15:19:54,310.05,10.951,40246.49579
2020/8/18 15:20:54,309.173,13.275,39978.2448
2020/8/18 15:21:54,308.16,15.579,39716.72268
2020/8/18 15:22:54,307.002,17.855,39463.07785
2020/8/18 15:23:54,305.691,20.092,39218.45759
2020/8/18 15:24:54,304.218,22.281,38984.00163
2020/8/18 15:25:54,302.574,24.411,38760.83516
2020/8/18 15:26:54,300.748,26.469,38550.0615
2020/8/18 15:27:54,298.733,28.441,38352.75433
2020/8/18 15:28:54,296.521,30.311,38169.94955
2020/8/18 15:29:54,294.105,32.065,38002.63708
2020/8/18 15:30:54,291.483,33.683,37851.75237
2020/8/18 15:31:54,288.656,35.149,37718.16807
2020/8/18 15:32:54,285.631,36.443,37602.68582
2020/8/18 15:33:54,282.418,37.547,37506.0283
2020/8/18 15:34:54,279.038,38.445,37428.83184
2020/8/18 15:35:54,275.518,39.12,37371.63957
2020/8/18 15:36:54,271.891,39.56,37334.89542
2020/8/18 15:37:54,268.196,39.755,37318.93894
2020/8/18 15:38:54,264.477,39.7,37324.00128
2020/8/18 15:39:54,260.777,39.396,37350.2021
2020/8/18 15:40:54,257.141,38.844,37397.54796
2020/8/18 15:41:54,253.606,38.054,37465.93162
2020/8/18 15:42:54,250.208,37.036,37555.13294
2020/8/18 15:43:54,246.972,35.805,37664.82063
2020/8/18 15:44:54,243.917,34.377,37794.55558
2020/8/18 15:45:54,241.057,32.769,37943.79481
2020/8/18 15:46:54,238.396,31,38111.89688
2020/8/18 15:47:54,235.937,29.086,38298.12766
2020/8/18 15:48:54,233.675,27.045,38501.66731
2020/8/18 15:49:54,231.606,24.892,38721.61728
2020/8/18 15:50:54,229.722,22.642,38957.00826
2020/8/18 15:51:54,228.013,20.309,39206.80791
2020/8/18 15:52:54,226.471,17.905,39469.92898
2020/8/18 15:53:54,225.086,15.442,39745.23751
2020/8/18 15:54:54,223.848,12.929,40031.56051
2020/8/18 15:55:54,222.751,10.375,40327.69384
2020/8/18 15:56:54,221.785,7.788,40632.40962
2020/8/18 15:57:54,220.944,5.175,40944.46319
2020/8/18 15:58:54,220.222,2.543,41262.59982
2020/8/18 15:59:54,219.614,-0.103,41585.5609
2020/8/18 16:00:54,219.116,-2.758,41912.08963
2020/8/18 16:01:54,218.724,-5.417,42240.93633
2020/8/18 16:02:54,218.436,-8.076,42570.86327
2020/8/18 16:03:54,218.251,-10.732,42900.64895
2020/8/18 16:04:54,218.169,-13.38,43229.09204
2020/8/18 16:05:54,218.189,-16.018,43555.01492
2020/8/18 16:06:54,218.314,-18.642,43877.26676
2020/8/18 16:07:54,218.547,-21.249,44194.72634
2020/8/18 16:08:54,218.891,-23.835,44506.30443
2020/8/18 16:09:12,219.016,-24.6,44597.69993
2020/8/18 16:49:33,329.161,-24.8,44636.72384
2020/8/18 16:50:33,329.827,-21.997,44300.95567
2020/8/18 16:51:33,330.387,-19.142,43954.49562
2020/8/18 16:52:33,330.847,-16.244,43599.34402
2020/8/18 16:53:33,331.211,-13.306,43236.63514
2020/8/18 16:54:33,331.482,-10.328,42867.56163
2020/8/18 16:55:33,331.662,-7.312,42493.3737
2020/8/18 16:56:33,331.753,-4.26,42115.37794
2020/8/18 16:57:33,331.753,-1.172,41734.93561
2020/8/18 16:58:33,331.662,1.948,41353.46046
2020/8/18 16:59:33,331.476,5.1,40972.41601
2020/8/18 17:00:33,331.192,8.281,40593.31208
2020/8/18 17:01:33,330.802,11.49,40217.70065
2020/8/18 17:02:33,330.299,14.722,39847.17083
2020/8/18 17:03:33,329.673,17.975,39483.34296
2020/8/18 17:04:33,328.911,21.244,39127.86167
2020/8/18 17:05:33,327.997,24.524,38782.38802
2020/8/18 17:06:33,326.912,27.807,38448.59036
2020/8/18 17:07:33,325.63,31.087,38128.13432
2020/8/18 17:08:33,324.123,34.351,37822.67148
2020/8/18 17:09:33,322.353,37.589,37533.82721
2020/8/18 17:10:33,320.276,40.783,37263.18735
2020/8/18 17:11:33,317.837,43.914,37012.28426
2020/8/18 17:12:33,314.969,46.955,36782.58208
2020/8/18 17:13:33,311.597,49.874,36575.46171
2020/8/18 17:14:33,307.634,52.631,36392.20563
2020/8/18 17:15:33,302.989,55.174,36233.9829
2020/8/18 17:16:33,297.581,57.442,36101.83484
2020/8/18 17:17:33,291.362,59.363,35996.66155
2020/8/18 17:18:33,284.349,60.856,35919.20984
2020/8/18 17:19:33,276.664,61.848,35870.06279
2020/8/18 17:20:33,268.548,62.276,35849.63145
2020/8/18 17:21:33,260.337,62.112,35858.14865
2020/8/18 17:22:33,252.388,61.364,35895.66556
2020/8/18 17:23:33,244.996,60.077,35962.05055
2020/8/18 17:24:33,238.344,58.319,36056.99107
2020/8/18 17:25:33,232.496,56.167,36179.99768
2020/8/18 17:26:33,227.433,53.698,36330.41098
2020/8/18 17:27:33,223.087,50.979,36507.41022
2020/8/18 17:28:33,219.369,48.065,36710.02429
2020/8/18 17:29:33,216.189,45.001,36937.14383
2020/8/18 17:30:33,213.464,41.825,37187.53492
2020/8/18 17:31:33,211.124,38.564,37459.85319
2020/8/18 17:32:33,209.107,35.242,37752.65877
2020/8/18 17:33:33,207.364,31.877,38064.43091
2020/8/18 17:34:33,205.854,28.484,38393.58287
2020/8/18 17:35:33,204.541,25.072,38738.47585
2020/8/18 17:36:33,203.4,21.653,39097.43275
2020/8/18 17:37:33,202.406,18.232,39468.75064
2020/8/18 17:38:33,201.542,14.816,39850.71258
2020/8/18 17:39:33,200.793,11.409,40241.59838
2020/8/18 17:40:33,200.146,8.015,40639.69413
2020/8/18 17:41:33,199.59,4.637,41043.30091
2020/8/18 17:42:33,199.118,1.276,41450.74233
2020/8/18 17:43:33,198.723,-2.065,41860.37115
2020/8/18 17:44:33,198.4,-5.385,42270.575
2020/8/18 17:45:33,198.145,-8.684,42679.78118
2020/8/18 17:46:33,197.956,-11.96,43086.46082
2020/8/18 17:47:33,197.83,-15.214,43489.13224
2020/8/18 17:48:33,197.767,-18.445,43886.36376
2020/8/18 17:49:33,197.768,-21.654,44276.77597
2020/8/18 17:50:30,197.83,-24.667,44638.5129
2020/8/18 18:31:50,351.17,-24.945,44685.49843
2020/8/18 18:32:49,351.523,-21.69,44295.19068
2020/8/18 18:33:49,351.838,-18.371,43891.53137
2020/8/18 18:34:49,352.116,-15.019,43479.42496
2020/8/18 18:35:49,352.361,-11.631,43060.25142
2020/8/18 18:36:49,352.576,-8.208,42635.4553
2020/8/18 18:37:49,352.763,-4.748,42206.54458
2020/8/18 18:38:49,352.924,-1.249,41775.08899
2020/8/18 18:39:49,353.061,2.289,41342.71769
2020/8/18 18:40:49,353.175,5.867,40911.11632
2020/8/18 18:41:49,353.266,9.485,40482.02313
2020/8/18 18:42:49,353.334,13.146,40057.2243
2020/8/18 18:43:49,353.38,16.849,39638.54814
2020/8/18 18:44:49,353.403,20.594,39227.85819
2020/8/18 18:45:49,353.401,24.383,38827.04497
2020/8/18 18:46:49,353.372,28.215,38438.01652
2020/8/18 18:47:49,353.314,32.09,38062.68742
2020/8/18 18:48:49,353.222,36.006,37702.96635
2020/8/18 18:49:49,353.09,39.964,37360.74234
2020/8/18 18:50:49,352.912,43.962,37037.86949
2020/8/18 18:51:49,352.674,47.998,36736.15059
2020/8/18 18:52:49,352.359,52.07,36457.31948
2020/8/18 18:53:49,351.943,56.176,36203.02287
2020/8/18 18:54:49,351.385,60.31,35974.80145
2020/8/18 18:55:49,350.616,64.47,35774.07121
2020/8/18 18:56:49,349.516,68.649,35602.10492
2020/8/18 18:57:49,347.846,72.837,35460.01479
2020/8/18 18:58:49,345.056,77.018,35348.73644
2020/8/18 18:59:49,339.585,81.152,35269.01495
2020/8/18 19:00:49,324.946,85.075,35221.39336
2020/8/18 19:01:49,264.794,87.415,35206.20405
2020/8/18 19:02:49,207.285,84.935,35223.56343
2020/8/18 19:03:49,193.297,80.993,35273.36998
2020/8/18 19:04:49,187.966,76.853,35355.3058
2020/8/18 19:05:49,185.206,72.666,35468.84173
2020/8/18 19:06:49,183.524,68.473,35613.24557
2020/8/18 19:07:49,182.39,64.288,35787.59329
2020/8/18 19:08:49,181.572,60.12,35990.78279
2020/8/18 19:09:49,180.95,55.977,36221.54972
2020/8/18 19:10:49,180.459,51.863,36478.48467
2020/8/18 19:11:49,180.057,47.78,36760.05157
2020/8/18 19:12:49,179.72,43.733,37064.60634
2020/8/18 19:13:49,179.429,39.723,37390.41574
2020/8/18 19:14:49,179.172,35.751,37735.6756
2020/8/18 19:15:49,178.941,31.82,38098.52852
2020/8/18 19:16:49,178.729,27.93,38477.08033
2020/8/18 19:17:49,178.531,24.082,38869.41547
2020/8/18 19:18:49,178.343,20.276,39273.6109
2020/8/18 19:19:49,178.162,16.512,39687.74865
2020/8/18 19:20:49,177.984,12.79,40109.927
2020/8/18 19:21:49,177.807,9.109,40538.27004
2020/8/18 19:22:49,177.629,5.468,40970.93611
2020/8/18 19:23:49,177.448,1.868,41406.12485
2020/8/18 19:24:49,177.261,-1.694,41842.08313
2020/8/18 19:25:49,177.067,-5.218,42277.10991
2020/8/18 19:26:49,176.864,-8.705,42709.56025
2020/8/18 19:27:49,176.649,-12.157,43137.84833
2020/8/18 19:28:49,176.42,-15.574,43560.44998
2020/8/18 19:29:49,176.174,-18.958,43975.9044
2020/8/18 19:30:49,175.907,-22.31,44382.81548
2020/8/18 19:31:33,175.695,-24.768,44677.33374
2020/8/18 20:12:56,13.382,-25.008,44715.48016
2020/8/18 20:13:55,13.383,-21.79,44329.67095
2020/8/18 20:14:55,13.433,-18.518,43931.73635
2020/8/18 20:15:55,13.532,-15.221,43526.5745
2020/8/18 20:16:55,13.679,-11.899,43115.58191
2020/8/18 20:17:55,13.876,-8.552,42700.21084
2020/8/18 20:18:55,14.124,-5.18,42281.96721
2020/8/18 20:19:55,14.426,-1.782,41862.40814
2020/8/18 20:20:55,14.787,1.642,41443.13883
2020/8/18 20:21:55,15.211,5.091,41025.80872
2020/8/18 20:22:55,15.705,8.564,40612.10682
2020/8/18 20:23:55,16.275,12.06,40203.75622
2020/8/18 20:24:55,16.932,15.577,39802.50762
2020/8/18 20:25:55,17.688,19.113,39410.13174
2020/8/18 20:26:55,18.557,22.664,39028.41072
2020/8/18 20:27:55,19.558,26.226,38659.12826
2020/8/18 20:28:55,20.712,29.794,38304.0587
2020/8/18 20:29:55,22.048,33.361,37964.95488
2020/8/18 20:30:55,23.601,36.917,37643.53479
2020/8/18 20:31:55,25.417,40.45,37341.46754
2020/8/18 20:32:55,27.551,43.945,37060.35814
2020/8/18 20:33:55,30.077,47.382,36801.73195
2020/8/18 20:34:55,33.086,50.735,36567.0185
2020/8/18 20:35:55,36.693,53.967,36357.53567
2020/8/18 20:36:55,41.041,57.033,36174.4738
2020/8/18 20:37:55,46.293,59.87,36018.88093
2020/8/18 20:38:55,52.62,62.397,35891.6489
2020/8/18 20:39:55,60.149,64.512,35793.50135
2020/8/18 20:40:55,68.889,66.098,35724.98342
2020/8/18 20:41:55,78.621,67.04,35686.45403
2020/8/18 20:42:55,88.858,67.256,35678.0806
2020/8/18 20:43:55,98.937,66.727,35699.83671
2020/8/18 20:44:55,108.253,65.504,35751.50256
2020/8/18 20:45:55,116.436,63.691,35832.66842
2020/8/18 20:46:55,123.382,61.408,35942.74073
2020/8/18 20:47:55,129.165,58.767,36080.95094
2020/8/18 20:48:55,133.939,55.86,36246.36637
2020/8/18 20:49:55,137.877,52.761,36437.90323
2020/8/18 20:50:55,141.131,49.525,36654.34094
2020/8/18 20:51:55,143.833,46.192,36894.33761
2020/8/18 20:52:55,146.085,42.793,37156.44617
2020/8/18 20:53:55,147.97,39.353,37439.13068
2020/8/18 20:54:55,149.552,35.889,37740.78263
2020/8/18 20:55:55,150.882,32.414,38059.73668
2020/8/18 20:56:55,152,28.939,38394.2858
2020/8/18 20:57:55,152.936,25.473,38742.69543
2020/8/18 20:58:55,153.715,22.022,39103.21664
2020/8/18 20:59:55,154.356,18.591,39474.0981
2020/8/18 21:00:55,154.875,15.185,39853.5969
2020/8/18 21:01:55,155.285,11.806,40239.98805
2020/8/18 21:02:55,155.593,8.457,40631.57299
2020/8/18 21:03:55,155.809,5.14,41026.68671
2020/8/18 21:04:55,155.936,1.857,41423.70412
2020/8/18 21:05:55,155.979,-1.392,41821.04511
2020/8/18 21:06:55,155.941,-4.604,42217.17896
2020/8/18 21:07:55,155.822,-7.78,42610.62783
2020/8/18 21:08:55,155.621,-10.917,42999.96962
2020/8/18 21:09:55,155.338,-14.016,43383.84008
2020/8/18 21:10:55,154.97,-17.075,43760.93456
2020/8/18 21:11:55,154.512,-20.094,44130.00911
2020/8/18 21:12:55,153.96,-23.071,44489.88141
2020/8/18 21:13:33,153.564,-24.912,44709.90408
2020/8/18 21:54:01,34.883,-25.014,44725.74509
2020/8/18 21:55:01,34.548,-22.292,44399.64045
2020/8/18 21:56:01,34.322,-19.545,44066.43285
2020/8/18 21:57:01,34.2,-16.779,43727.63038
2020/8/18 21:58:01,34.179,-13.997,43384.40799
2020/8/18 21:59:01,34.258,-11.201,43037.97593
2020/8/18 22:00:01,34.435,-8.395,42689.57711
2020/8/18 22:01:01,34.712,-5.581,42340.48422
2020/8/18 22:02:01,35.09,-2.763,41991.99627
2020/8/18 22:03:01,35.572,0.057,41645.43476
2020/8/18 22:04:01,36.162,2.873,41302.13935
2020/8/18 22:05:01,36.864,5.682,40963.4629
2020/8/18 22:06:01,37.685,8.478,40630.76611
2020/8/18 22:07:01,38.633,11.255,40305.41141
2020/8/18 22:08:01,39.715,14.007,39988.75642
2020/8/18 22:09:01,40.943,16.726,39682.14669
2020/8/18 22:10:01,42.326,19.402,39386.90804
2020/8/18 22:11:01,43.878,22.026,39104.3383
2020/8/18 22:12:01,45.611,24.587,38835.69855
2020/8/18 22:13:01,47.54,27.069,38582.20416
2020/8/18 22:14:01,49.679,29.46,38345.01545
2020/8/18 22:15:01,52.042,31.742,38125.22812
2020/8/18 22:16:01,54.641,33.896,37923.86406
2020/8/18 22:17:01,57.488,35.902,37741.86184
2020/8/18 22:18:01,60.586,37.739,37580.06811
2020/8/18 22:19:01,63.936,39.383,37439.22898
2020/8/18 22:20:01,67.528,40.812,37319.98276
2020/8/18 22:21:01,71.342,42.003,37222.85307
2020/8/18 22:22:01,75.349,42.936,37148.24347
2020/8/18 22:23:01,79.505,43.594,37096.43309
2020/8/18 22:24:01,83.756,43.965,37067.57383
2020/8/18 22:25:01,88.044,44.042,37061.68881
2020/8/18 22:26:01,92.305,43.825,37078.6726
2020/8/18 22:27:01,96.477,43.322,37118.29265
2020/8/18 22:28:01,100.505,42.543,37180.19256
2020/8/18 22:29:01,104.344,41.507,37263.89638
2020/8/18 22:30:01,107.961,40.235,37368.81451
2020/8/18 22:31:01,111.332,38.749,37494.25053
2020/8/18 22:32:01,114.448,37.074,37639.40907
2020/8/18 22:33:01,117.304,35.232,37803.40451
2020/8/18 22:34:01,119.906,33.248,37985.27013
2020/8/18 22:35:01,122.262,31.141,38183.9678
2020/8/18 22:36:01,124.384,28.931,38398.39771
2020/8/18 22:37:01,126.286,26.636,38627.40828
2020/8/18 22:38:01,127.982,24.272,38869.80581
2020/8/18 22:39:01,129.486,21.851,39124.36388
2020/8/18 22:40:01,130.812,19.387,39389.83242
2020/8/18 22:41:01,131.972,16.89,39664.94621
2020/8/18 22:42:01,132.978,14.37,39948.43289
2020/8/18 22:43:01,133.839,11.835,40239.02031
2020/8/18 22:44:01,134.564,9.292,40535.44333
2020/8/18 22:45:01,135.162,6.748,40836.44989
2020/8/18 22:46:01,135.639,4.208,41140.80654
2020/8/18 22:47:01,136,1.678,41447.30324
2020/8/18 22:48:01,136.249,-0.837,41754.7577
2020/8/18 22:49:01,136.391,-3.335,42062.01901
2020/8/18 22:50:01,136.427,-5.81,42367.9709
2020/8/18 22:51:01,136.36,-8.259,42671.5344
2020/8/18 22:52:01,136.19,-10.678,42971.67009
2020/8/18 22:53:01,135.917,-13.065,43267.38001
2020/8/18 22:54:01,135.541,-15.415,43557.70911
2020/8/18 22:55:01,135.06,-17.725,43841.7465
2020/8/18 22:56:01,134.472,-19.992,44118.6263
2020/8/18 22:57:01,133.775,-22.212,44387.52833
2020/8/18 22:58:01,132.964,-24.382,44647.67858
2020/8/18 22:58:19,132.704,-25.008,44722.28128
2020/8/18 23:36:43,53.649,-24.994,44717.7572
2020/8/18 23:37:42,53.047,-23.093,44490.36735
2020/8/18 23:38:42,52.548,-21.148,44255.51022
2020/8/18 23:39:42,52.153,-19.18,44015.99372
2020/8/18 23:40:42,51.86,-17.194,43772.59041
2020/8/18 23:41:42,51.666,-15.194,43526.09018
2020/8/18 23:42:42,51.569,-13.183,43277.29841
2020/8/18 23:43:42,51.568,-11.165,43027.03398
2020/8/18 23:44:42,51.661,-9.145,42776.12717
2020/8/18 23:45:42,51.848,-7.126,42525.41732
2020/8/18 23:46:42,52.129,-5.113,42275.75038
2020/8/18 23:47:42,52.504,-3.11,42027.97624
2020/8/18 23:48:42,52.974,-1.12,41782.94592
2020/8/18 23:49:42,53.539,0.85,41541.50855
2020/8/18 23:50:42,54.2,2.796,41304.50819
2020/8/18 23:51:42,54.959,4.713,41072.78047
2020/8/18 23:52:42,55.818,6.595,40847.14909
2020/8/18 23:53:42,56.778,8.437,40628.42217
2020/8/18 23:54:42,57.84,10.232,40417.38852
2020/8/18 23:55:42,59.006,11.974,40214.81373
2020/8/18 23:56:42,60.277,13.656,40021.43628
2020/8/18 23:57:42,61.654,15.271,39837.96355
2020/8/18 23:58:42,63.137,16.812,39665.06794
2020/8/18 23:59:42,64.726,18.27,39503.38298
2020/8/19 0:00:42,66.418,19.639,39353.49946
2020/8/19 0:01:42,68.212,20.91,39215.96193
2020/8/19 0:02:42,70.104,22.076,39091.26521
2020/8/19 0:03:42,72.087,23.13,38979.85114
2020/8/19 0:04:42,74.156,24.063,38882.10588
2020/8/19 0:05:42,76.301,24.87,38798.3573
2020/8/19 0:06:42,78.512,25.545,38728.8728
2020/8/19 0:07:42,80.778,26.083,38673.85778
2020/8/19 0:08:42,83.085,26.479,38633.45431
2020/8/19 0:09:42,85.419,26.732,38607.74043
2020/8/19 0:10:42,87.766,26.84,38596.72996
2020/8/19 0:11:42,90.109,26.802,38600.37279
2020/8/19 0:12:42,92.433,26.621,38618.55563
2020/8/19 0:13:42,94.725,26.298,38651.1034
2020/8/19 0:14:42,96.97,25.838,38697.78094
2020/8/19 0:15:42,99.154,25.246,38758.29523
2020/8/19 0:16:42,101.268,24.526,38832.29802
2020/8/19 0:17:42,103.302,23.688,38919.38886
2020/8/19 0:18:42,105.247,22.736,39019.11831
2020/8/19 0:19:42,107.098,21.68,39130.99155
2020/8/19 0:20:42,108.849,20.527,39254.47214
2020/8/19 0:21:42,110.498,19.285,39388.98595
2020/8/19 0:22:42,112.042,17.962,39533.9251
2020/8/19 0:23:42,113.48,16.567,39688.65209
2020/8/19 0:24:42,114.813,15.106,39852.50387
2020/8/19 0:25:42,116.041,13.588,40024.79578
2020/8/19 0:26:42,117.166,12.019,40204.82554
2020/8/19 0:27:42,118.188,10.406,40391.87701
2020/8/19 0:28:42,119.11,8.756,40585.22395
2020/8/19 0:29:42,119.935,7.074,40784.13341
2020/8/19 0:30:42,120.663,5.367,40987.86907
2020/8/19 0:31:42,121.298,3.639,41195.69435
2020/8/19 0:32:42,121.84,1.896,41406.87531
2020/8/19 0:33:42,122.293,0.142,41620.68328
2020/8/19 0:34:42,122.658,-1.618,41836.39734
2020/8/19 0:35:42,122.935,-3.38,42053.30659
2020/8/19 0:36:42,123.128,-5.141,42270.7121
2020/8/19 0:37:42,123.236,-6.896,42487.92881
2020/8/19 0:38:42,123.26,-8.641,42704.28711
2020/8/19 0:39:42,123.201,-10.373,42919.13432
2020/8/19 0:40:42,123.059,-12.09,43131.83592
2020/8/19 0:41:42,122.835,-13.786,43341.77669
2020/8/19 0:42:42,122.528,-15.46,43548.36164
2020/8/19 0:43:42,122.138,-17.108,43751.01687
2020/8/19 0:44:42,121.665,-18.726,43949.19021
2020/8/19 0:45:42,121.107,-20.312,44142.35185
2020/8/19 0:46:42,120.465,-21.862,44329.99478
2020/8/19 0:47:42,119.737,-23.372,44511.6352
2020/8/19 0:48:40,118.956,-24.784,44680.15501
2020/8/19 1:25:14,61.447,-24.826,44676.08566
2020/8/19 1:26:14,60.65,-23.376,44502.6613
2020/8/19 1:27:14,59.937,-21.882,44322.47044
2020/8/19 1:28:14,59.309,-20.349,44136.5144
2020/8/19 1:29:14,58.764,-18.783,43945.27564
2020/8/19 1:30:14,58.303,-17.185,43749.25796
2020/8/19 1:31:14,57.925,-15.56,43548.98618
2020/8/19 1:32:14,57.629,-13.91,43345.0054
2020/8/19 1:33:14,57.414,-12.239,43137.88054
2020/8/19 1:34:14,57.282,-10.55,42928.19552
2020/8/19 1:35:14,57.23,-8.847,42716.55245
2020/8/19 1:36:14,57.26,-7.133,42503.57062
2020/8/19 1:37:14,57.373,-5.41,42289.88541
2020/8/19 1:38:14,57.568,-3.684,42076.14703
2020/8/19 1:39:14,57.847,-1.957,41863.01907
2020/8/19 1:40:14,58.211,-0.233,41651.17695
2020/8/19 1:41:14,58.661,1.482,41441.30615
2020/8/19 1:42:14,59.199,3.186,41234.10022
2020/8/19 1:43:14,59.825,4.874,41030.25873
2020/8/19 1:44:14,60.542,6.54,40830.48486
2020/8/19 1:45:14,61.352,8.18,40635.48297
2020/8/19 1:46:14,62.257,9.788,40445.9558
2020/8/19 1:47:14,63.257,11.359,40262.60167
2020/8/19 1:48:14,64.355,12.885,40086.11135
2020/8/19 1:49:14,65.552,14.362,39917.16488
2020/8/19 1:50:14,66.848,15.782,39756.42811
2020/8/19 1:51:14,68.244,17.139,39604.54934
2020/8/19 1:52:14,69.741,18.424,39462.15561
2020/8/19 1:53:14,71.336,19.631,39329.84909
2020/8/19 1:54:14,73.027,20.753,39208.20334
2020/8/19 1:55:14,74.812,21.781,39097.75972
2020/8/19 1:56:14,76.685,22.709,38999.02368
2020/8/19 1:57:14,78.641,23.53,38912.46121
2020/8/19 1:58:14,80.672,24.236,38838.49553
2020/8/19 1:59:14,82.77,24.821,38777.50378
2020/8/19 2:00:14,84.925,25.281,38729.81416
2020/8/19 2:01:14,87.124,25.61,38695.70314
2020/8/19 2:02:14,89.355,25.805,38675.39315
2020/8/19 2:03:14,91.605,25.864,38669.05062
2020/8/19 2:04:14,93.859,25.784,38676.78429
2020/8/19 2:05:14,96.105,25.567,38698.64407
2020/8/19 2:06:14,98.327,25.213,38734.62037
2020/8/19 2:07:14,100.514,24.724,38784.64368
2020/8/19 2:08:14,102.652,24.103,38848.58484
2020/8/19 2:09:14,104.73,23.356,38926.25567
2020/8/19 2:10:14,106.739,22.487,39017.40998
2020/8/19 2:11:14,108.671,21.503,39121.74506
2020/8/19 2:12:14,110.517,20.409,39238.90364
2020/8/19 2:13:14,112.273,19.212,39368.47602
2020/8/19 2:14:14,113.935,17.92,39510.00267
2020/8/19 2:15:14,115.499,16.54,39662.97715
2020/8/19 2:16:14,116.964,15.078,39826.84905
2020/8/19 2:17:14,118.328,13.543,40001.02731
2020/8/19 2:18:14,119.591,11.941,40184.88377
2020/8/19 2:19:14,120.754,10.279,40377.75647
2020/8/19 2:20:14,121.817,8.563,40578.95339
2020/8/19 2:21:14,122.781,6.8,40787.75596
2020/8/19 2:22:14,123.648,4.995,41003.4228
2020/8/19 2:23:14,124.418,3.155,41225.19311
2020/8/19 2:24:14,125.094,1.284,41452.29018
2020/8/19 2:25:14,125.675,-0.612,41683.92484
2020/8/19 2:26:14,126.163,-2.528,41919.29864
2020/8/19 2:27:14,126.56,-4.46,42157.60703
2020/8/19 2:28:14,126.864,-6.403,42398.04231
2020/8/19 2:29:14,127.078,-8.354,42639.79647
2020/8/19 2:30:14,127.199,-10.307,42882.06392
2020/8/19 2:31:14,127.229,-12.26,43124.04391
2020/8/19 2:32:14,127.166,-14.207,43364.94295
2020/8/19 2:33:14,127.009,-16.146,43603.97703
2020/8/19 2:34:14,126.757,-18.072,43840.37363
2020/8/19 2:35:14,126.406,-19.982,44073.37366
2020/8/19 2:36:14,125.955,-21.871,44302.23324
2020/8/19 2:37:14,125.402,-23.735,44526.22533
2020/8/19 2:37:45,125.075,-24.685,44639.44843
2020/8/19 3:16:17,48.817,-24.582,44613.35887
2020/8/19 3:17:17,47.987,-22.501,44363.80358
2020/8/19 3:18:17,47.267,-20.366,44105.20123
2020/8/19 3:19:17,46.655,-18.184,43838.66888
2020/8/19 3:20:17,46.15,-15.958,43564.98195
2020/8/19 3:21:17,45.748,-13.691,43284.95982
2020/8/19 3:22:17,45.449,-11.389,42999.46506
2020/8/19 3:23:17,45.252,-9.053,42709.40276
2020/8/19 3:24:17,45.157,-6.688,42415.71934
2020/8/19 3:25:17,45.164,-4.297,42119.40122
2020/8/19 3:26:17,45.276,-1.883,41821.47312
2020/8/19 3:27:17,45.493,0.548,41522.99597
2020/8/19 3:28:17,45.82,2.994,41225.06444
2020/8/19 3:29:17,46.259,5.449,40928.80405
2020/8/19 3:30:17,46.816,7.909,40635.36779
2020/8/19 3:31:17,47.497,10.367,40345.9322
2020/8/19 3:32:17,48.307,12.818,40061.69297
2020/8/19 3:33:17,49.256,15.255,39783.85992
2020/8/19 3:34:17,50.351,17.669,39513.65144
2020/8/19 3:35:17,51.602,20.052,39252.28828
2020/8/19 3:36:17,53.02,22.394,39000.98683
2020/8/19 3:37:17,54.616,24.684,38760.95181
2020/8/19 3:38:17,56.402,26.908,38533.36839
2020/8/19 3:39:17,58.389,29.054,38319.39393
2020/8/19 3:40:17,60.59,31.103,38120.14924
2020/8/19 3:41:17,63.014,33.041,37936.70962
2020/8/19 3:42:17,65.668,34.846,37770.09566
2020/8/19 3:43:17,68.556,36.5,37621.26403
2020/8/19 3:44:17,71.677,37.982,37491.09842
2020/8/19 3:45:17,75.021,39.269,37380.40071
2020/8/19 3:46:17,78.571,40.342,37289.88258
2020/8/19 3:47:17,82.301,41.18,37220.15788
2020/8/19 3:48:17,86.176,41.768,37171.73562
2020/8/19 3:49:17,90.15,42.092,37145.01418
2020/8/19 3:50:17,94.173,42.145,37140.27632
2020/8/19 3:51:17,98.191,41.923,37157.68581
2020/8/19 3:52:17,102.152,41.43,37197.285
2020/8/19 3:53:17,106.005,40.672,37258.99414
2020/8/19 3:54:17,109.708,39.664,37342.61172
2020/8/19 3:55:17,113.23,38.422,37447.81661
2020/8/19 3:56:17,116.544,36.963,37574.17107
2020/8/19 3:57:17,119.638,35.308,37721.12544
2020/8/19 3:58:17,122.505,33.478,37888.02347
2020/8/19 3:59:17,125.144,31.493,38074.10909
2020/8/19 4:00:00,126.898,29.985,38218.82825
