sat_transfer/sr3-dc1.csv

Time (UTCG),Azimuth (deg),Elevation (deg),Range (km)
2020/08/18 4:00:00,199.161,31.413,38372.01659
2020/08/18 4:01:00,199.232,31.158,38394.36638
2020/08/18 4:02:00,199.303,30.902,38416.77446
2020/08/18 4:03:00,199.373,30.647,38439.23995
2020/08/18 4:04:00,199.442,30.392,38461.76198
2020/08/18 4:05:00,199.51,30.137,38484.33967
2020/08/18 4:06:00,199.578,29.883,38506.97213
2020/08/18 4:07:00,199.645,29.628,38529.65849
2020/08/18 4:08:00,199.71,29.374,38552.39784
2020/08/18 4:09:00,199.775,29.121,38575.1893
2020/08/18 4:10:00,199.84,28.867,38598.03197
2020/08/18 4:11:00,199.903,28.614,38620.92494
2020/08/18 4:12:00,199.966,28.361,38643.8673
2020/08/18 4:13:00,200.028,28.108,38666.85816
2020/08/18 4:14:00,200.089,27.855,38689.89659
2020/08/18 4:15:00,200.149,27.603,38712.98167
2020/08/18 4:16:00,200.208,27.351,38736.11249
2020/08/18 4:17:00,200.267,27.099,38759.28812
2020/08/18 4:18:00,200.325,26.847,38782.50763
2020/08/18 4:19:00,200.382,26.596,38805.77009
2020/08/18 4:20:00,200.438,26.345,38829.07458
2020/08/18 4:21:00,200.494,26.095,38852.42014
2020/08/18 4:22:00,200.548,25.844,38875.80585
2020/08/18 4:23:00,200.602,25.594,38899.23074
2020/08/18 4:24:00,200.655,25.345,38922.6939
2020/08/18 4:25:00,200.708,25.095,38946.19435
2020/08/18 4:26:00,200.759,24.846,38969.73115
2020/08/18 4:27:00,200.81,24.597,38993.30334
2020/08/18 4:28:00,200.86,24.349,39016.90997
2020/08/18 4:29:00,200.909,24.1,39040.55007
2020/08/18 4:30:00,200.958,23.852,39064.22268
2020/08/18 4:31:00,201.005,23.605,39087.92684
2020/08/18 4:32:00,201.052,23.358,39111.66158
2020/08/18 4:33:00,201.098,23.111,39135.42593
2020/08/18 4:34:00,201.143,22.864,39159.21892
2020/08/18 4:35:00,201.188,22.618,39183.03956
2020/08/18 4:36:00,201.232,22.372,39206.88689
2020/08/18 4:37:00,201.275,22.127,39230.75993
2020/08/18 4:38:00,201.317,21.881,39254.65769
2020/08/18 4:39:00,201.358,21.637,39278.57919
2020/08/18 4:40:00,201.399,21.392,39302.52344
2020/08/18 4:41:00,201.439,21.148,39326.48947
2020/08/18 4:42:00,201.478,20.904,39350.47627
2020/08/18 4:43:00,201.517,20.661,39374.48287
2020/08/18 4:44:00,201.554,20.418,39398.50827
2020/08/18 4:45:00,201.591,20.175,39422.55147
2020/08/18 4:46:00,201.627,19.933,39446.61148
2020/08/18 4:47:00,201.662,19.691,39470.68731
2020/08/18 4:48:00,201.697,19.45,39494.77795
2020/08/18 4:49:00,201.731,19.209,39518.88241
2020/08/18 4:50:00,201.764,18.968,39542.99969
2020/08/18 4:51:00,201.796,18.728,39567.12879
2020/08/18 4:52:00,201.827,18.488,39591.2687
2020/08/18 4:53:00,201.858,18.249,39615.41842
2020/08/18 4:54:00,201.888,18.01,39639.57695
2020/08/18 4:55:00,201.917,17.771,39663.74327
2020/08/18 4:56:00,201.946,17.533,39687.91639
2020/08/18 4:57:00,201.973,17.295,39712.0953
2020/08/18 4:58:00,202,17.058,39736.27899
2020/08/18 4:59:00,202.026,16.821,39760.46645
2020/08/18 5:00:00,202.052,16.585,39784.65668
2020/08/18 5:01:00,202.076,16.349,39808.84865
2020/08/18 5:02:00,202.1,16.113,39833.04137
2020/08/18 5:03:00,202.123,15.878,39857.23383
2020/08/18 5:04:00,202.145,15.644,39881.425
2020/08/18 5:05:00,202.167,15.409,39905.61389
2020/08/18 5:06:00,202.188,15.176,39929.79948
2020/08/18 5:07:00,202.208,14.942,39953.98076
2020/08/18 5:08:00,202.227,14.71,39978.15671
2020/08/18 5:09:00,202.245,14.477,40002.32634
2020/08/18 5:10:00,202.263,14.246,40026.48862
2020/08/18 5:11:00,202.28,14.014,40050.64254
2020/08/18 5:12:00,202.296,13.784,40074.78709
2020/08/18 5:13:00,202.312,13.553,40098.92127
2020/08/18 5:14:00,202.326,13.323,40123.04406
2020/08/18 5:15:00,202.34,13.094,40147.15446
2020/08/18 5:16:00,202.353,12.865,40171.25144
2020/08/18 5:17:00,202.366,12.637,40195.33401
2020/08/18 5:18:00,202.377,12.409,40219.40115
2020/08/18 5:19:00,202.388,12.182,40243.45186
2020/08/18 5:20:00,202.398,11.955,40267.48513
2020/08/18 5:21:00,202.407,11.729,40291.49994
2020/08/18 5:22:00,202.416,11.503,40315.49531
2020/08/18 5:23:00,202.424,11.278,40339.47021
2020/08/18 5:24:00,202.431,11.053,40363.42365
2020/08/18 5:25:00,202.437,10.829,40387.35461
2020/08/18 5:26:00,202.442,10.605,40411.26211
2020/08/18 5:27:00,202.447,10.382,40435.14514
2020/08/18 5:28:00,202.451,10.16,40459.00269
2020/08/18 5:29:00,202.454,9.938,40482.83377
2020/08/18 5:30:00,202.457,9.716,40506.63739
2020/08/18 5:31:00,202.458,9.496,40530.41253
2020/08/18 5:32:00,202.459,9.275,40554.15821
2020/08/18 5:33:00,202.459,9.056,40577.87344
2020/08/18 5:34:00,202.458,8.837,40601.55722
2020/08/18 5:35:00,202.457,8.618,40625.20855
2020/08/18 5:36:00,202.455,8.4,40648.82646
2020/08/18 5:37:00,202.452,8.183,40672.40995
2020/08/18 5:38:00,202.448,7.966,40695.95803
2020/08/18 5:39:00,202.443,7.75,40719.46973
2020/08/18 5:40:00,202.438,7.534,40742.94405
2020/08/18 5:41:00,202.432,7.319,40766.38002
2020/08/18 5:42:00,202.425,7.105,40789.77665
2020/08/18 5:43:00,202.417,6.891,40813.13298
2020/08/18 5:44:00,202.409,6.678,40836.44801
2020/08/18 5:45:00,202.4,6.466,40859.72079
2020/08/18 5:46:00,202.39,6.254,40882.95034
2020/08/18 5:47:00,202.379,6.043,40906.13568
2020/08/18 5:48:00,202.368,5.832,40929.27586
2020/08/18 5:49:00,202.355,5.622,40952.36991
2020/08/18 5:50:00,202.342,5.413,40975.41686
2020/08/18 5:51:00,202.328,5.204,40998.41575
2020/08/18 5:52:00,202.314,4.996,41021.36563
2020/08/18 5:53:00,202.298,4.789,41044.26554
2020/08/18 5:54:00,202.282,4.582,41067.11452
2020/08/18 5:55:00,202.265,4.376,41089.91163
2020/08/18 5:56:00,202.247,4.171,41112.65592
2020/08/18 5:57:00,202.229,3.966,41135.34644
2020/08/18 5:58:00,202.209,3.762,41157.98225
2020/08/18 5:59:00,202.189,3.559,41180.5624
2020/08/18 6:00:00,202.168,3.356,41203.08597
2020/08/18 6:01:00,202.147,3.154,41225.55201
2020/08/18 6:02:00,202.124,2.953,41247.95959
2020/08/18 6:03:00,202.101,2.753,41270.30779
2020/08/18 6:04:00,202.077,2.553,41292.59567
2020/08/18 6:05:00,202.052,2.354,41314.82232
2020/08/18 6:06:00,202.027,2.155,41336.98681
2020/08/18 6:07:00,202,1.958,41359.08823
2020/08/18 6:08:00,201.973,1.761,41381.12566
2020/08/18 6:09:00,201.945,1.565,41403.09819
2020/08/18 6:10:00,201.916,1.369,41425.00492
2020/08/18 6:11:00,201.887,1.174,41446.84493
2020/08/18 6:12:00,201.857,0.98,41468.61733
2020/08/18 6:13:00,201.826,0.787,41490.32121
2020/08/18 6:14:00,201.794,0.594,41511.95569
2020/08/18 6:15:00,201.761,0.403,41533.51987
2020/08/18 6:16:00,201.728,0.212,41555.01286
2020/08/18 6:17:00,201.693,0.021,41576.43378
2020/08/18 6:17:00,201.689,0,41578.85361
2020/08/18 11:56:00,173.784,0,41721.97753
2020/08/18 11:57:00,173.782,0.182,41702.19866
2020/08/18 11:58:00,173.781,0.364,41682.33187
2020/08/18 11:59:00,173.781,0.547,41662.40485
2020/08/18 12:00:00,173.782,0.731,41642.41849
2020/08/18 12:01:00,173.785,0.915,41622.37366
2020/08/18 12:02:00,173.788,1.1,41602.27126
2020/08/18 12:03:00,173.792,1.286,41582.11217
2020/08/18 12:04:00,173.797,1.472,41561.89728
2020/08/18 12:05:00,173.803,1.659,41541.62749
2020/08/18 12:06:00,173.81,1.846,41521.30369
2020/08/18 12:07:00,173.818,2.034,41500.92678
2020/08/18 12:08:00,173.827,2.222,41480.49765
2020/08/18 12:09:00,173.837,2.411,41460.01721
2020/08/18 12:10:00,173.848,2.601,41439.48635
2020/08/18 12:11:00,173.86,2.791,41418.90599
2020/08/18 12:12:00,173.873,2.982,41398.27702
2020/08/18 12:13:00,173.887,3.173,41377.60036
2020/08/18 12:14:00,173.903,3.365,41356.87691
2020/08/18 12:15:00,173.919,3.558,41336.10759
2020/08/18 12:16:00,173.936,3.751,41315.2933
2020/08/18 12:17:00,173.954,3.944,41294.43496
2020/08/18 12:18:00,173.973,4.138,41273.53349
2020/08/18 12:19:00,173.993,4.333,41252.58979
2020/08/18 12:20:00,174.014,4.528,41231.60479
2020/08/18 12:21:00,174.036,4.723,41210.57941
2020/08/18 12:22:00,174.059,4.919,41189.51456
2020/08/18 12:23:00,174.083,5.116,41168.41117
2020/08/18 12:24:00,174.108,5.313,41147.27016
2020/08/18 12:25:00,174.135,5.511,41126.09245
2020/08/18 12:26:00,174.162,5.709,41104.87897
2020/08/18 12:27:00,174.19,5.907,41083.63065
2020/08/18 12:28:00,174.219,6.106,41062.3484
2020/08/18 12:29:00,174.249,6.306,41041.03315
2020/08/18 12:30:00,174.281,6.506,41019.68584
2020/08/18 12:31:00,174.313,6.706,40998.30739
2020/08/18 12:32:00,174.346,6.907,40976.89873
2020/08/18 12:33:00,174.38,7.109,40955.46079
2020/08/18 12:34:00,174.416,7.31,40933.9945
2020/08/18 12:35:00,174.452,7.513,40912.5008
2020/08/18 12:36:00,174.489,7.715,40890.98061
2020/08/18 12:37:00,174.528,7.919,40869.43486
2020/08/18 12:38:00,174.567,8.122,40847.86449
2020/08/18 12:39:00,174.607,8.326,40826.27043
2020/08/18 12:40:00,174.649,8.53,40804.65362
2020/08/18 12:41:00,174.691,8.735,40783.01498
2020/08/18 12:42:00,174.735,8.94,40761.35545
2020/08/18 12:43:00,174.779,9.146,40739.67596
2020/08/18 12:44:00,174.825,9.352,40717.97745
2020/08/18 12:45:00,174.871,9.559,40696.26084
2020/08/18 12:46:00,174.919,9.765,40674.52708
2020/08/18 12:47:00,174.968,9.973,40652.7771
2020/08/18 12:48:00,175.017,10.18,40631.01182
2020/08/18 12:49:00,175.068,10.388,40609.23219
2020/08/18 12:50:00,175.12,10.596,40587.43913
2020/08/18 12:51:00,175.172,10.805,40565.63357
2020/08/18 12:52:00,175.226,11.014,40543.81645
2020/08/18 12:53:00,175.281,11.223,40521.9887
2020/08/18 12:54:00,175.337,11.433,40500.15125
2020/08/18 12:55:00,175.394,11.643,40478.30503
2020/08/18 12:56:00,175.452,11.854,40456.45097
2020/08/18 12:57:00,175.511,12.065,40434.58999
2020/08/18 12:58:00,175.571,12.276,40412.72303
2020/08/18 12:59:00,175.632,12.487,40390.85101
2020/08/18 13:00:00,175.695,12.699,40368.97486
2020/08/18 13:01:00,175.758,12.911,40347.0955
2020/08/18 13:02:00,175.822,13.123,40325.21386
2020/08/18 13:03:00,175.888,13.336,40303.33086
2020/08/18 13:04:00,175.954,13.549,40281.44742
2020/08/18 13:05:00,176.022,13.762,40259.56447
2020/08/18 13:06:00,176.09,13.976,40237.68292
2020/08/18 13:07:00,176.16,14.189,40215.8037
2020/08/18 13:08:00,176.231,14.404,40193.92771
2020/08/18 13:09:00,176.303,14.618,40172.05589
2020/08/18 13:10:00,176.375,14.833,40150.18913
2020/08/18 13:11:00,176.449,15.048,40128.32835
2020/08/18 13:12:00,176.524,15.263,40106.47447
2020/08/18 13:13:00,176.6,15.478,40084.62839
2020/08/18 13:14:00,176.678,15.694,40062.79102
2020/08/18 13:15:00,176.756,15.91,40040.96327
2020/08/18 13:16:00,176.835,16.126,40019.14604
2020/08/18 13:17:00,176.916,16.342,39997.34023
2020/08/18 13:18:00,176.997,16.559,39975.54675
2020/08/18 13:19:00,177.08,16.776,39953.76649
2020/08/18 13:20:00,177.164,16.993,39932.00035
2020/08/18 13:21:00,177.248,17.21,39910.24922
2020/08/18 13:22:00,177.334,17.428,39888.51399
2020/08/18 13:23:00,177.421,17.646,39866.79557
2020/08/18 13:24:00,177.51,17.864,39845.09482
2020/08/18 13:25:00,177.599,18.082,39823.41264
2020/08/18 13:26:00,177.689,18.3,39801.74991
2020/08/18 13:27:00,177.781,18.519,39780.10751
2020/08/18 13:28:00,177.873,18.737,39758.48633
2020/08/18 13:29:00,177.967,18.956,39736.88722
2020/08/18 13:30:00,178.062,19.175,39715.31107
2020/08/18 13:31:00,178.158,19.394,39693.75874
2020/08/18 13:32:00,178.255,19.614,39672.23111
2020/08/18 13:33:00,178.353,19.833,39650.72903
2020/08/18 13:34:00,178.452,20.053,39629.25337
2020/08/18 13:35:00,178.553,20.273,39607.80499
2020/08/18 13:36:00,178.654,20.492,39586.38473
2020/08/18 13:37:00,178.757,20.713,39564.99346
2020/08/18 13:38:00,178.861,20.933,39543.63202
2020/08/18 13:39:00,178.966,21.153,39522.30126
2020/08/18 13:40:00,179.072,21.373,39501.00202
2020/08/18 13:41:00,179.18,21.594,39479.73514
2020/08/18 13:42:00,179.288,21.815,39458.50145
2020/08/18 13:43:00,179.398,22.035,39437.30179
2020/08/18 13:44:00,179.509,22.256,39416.13698
2020/08/18 13:45:00,179.621,22.477,39395.00786
2020/08/18 13:46:00,179.734,22.698,39373.91523
2020/08/18 13:47:00,179.848,22.919,39352.85993
2020/08/18 13:48:00,179.964,23.141,39331.84276
2020/08/18 13:49:00,180.081,23.362,39310.86454
2020/08/18 13:50:00,180.199,23.583,39289.92607
2020/08/18 13:51:00,180.318,23.804,39269.02815
2020/08/18 13:52:00,180.438,24.026,39248.17159
2020/08/18 13:53:00,180.559,24.247,39227.35717
2020/08/18 13:54:00,180.682,24.469,39206.58569
2020/08/18 13:55:00,180.806,24.691,39185.85793
2020/08/18 13:56:00,180.931,24.912,39165.17468
2020/08/18 13:57:00,181.058,25.134,39144.53672
2020/08/18 13:58:00,181.185,25.355,39123.94481
2020/08/18 13:59:00,181.314,25.577,39103.39973
2020/08/18 14:00:00,181.444,25.799,39082.90224
2020/08/18 14:01:00,181.575,26.02,39062.4531
2020/08/18 14:02:00,181.708,26.242,39042.05306
2020/08/18 14:03:00,181.842,26.464,39021.70289
2020/08/18 14:04:00,181.977,26.685,39001.40332
2020/08/18 14:05:00,182.113,26.907,38981.1551
2020/08/18 14:06:00,182.251,27.129,38960.95896
2020/08/18 14:07:00,182.389,27.35,38940.81563
2020/08/18 14:08:00,182.529,27.572,38920.72585
2020/08/18 14:09:00,182.671,27.793,38900.69033
2020/08/18 14:10:00,182.813,28.015,38880.7098
2020/08/18 14:11:00,182.957,28.236,38860.78496
2020/08/18 14:12:00,183.103,28.458,38840.91652
2020/08/18 14:13:00,183.249,28.679,38821.10518
2020/08/18 14:14:00,183.397,28.9,38801.35164
2020/08/18 14:15:00,183.546,29.121,38781.6566
2020/08/18 14:16:00,183.696,29.343,38762.02073
2020/08/18 14:17:00,183.848,29.564,38742.44472
2020/08/18 14:18:00,184.001,29.784,38722.92924
2020/08/18 14:19:00,184.156,30.005,38703.47497
2020/08/18 14:20:00,184.311,30.226,38684.08256
2020/08/18 14:21:00,184.468,30.447,38664.75268
2020/08/18 14:22:00,184.627,30.667,38645.48599
2020/08/18 14:23:00,184.786,30.888,38626.28311
2020/08/18 14:24:00,184.948,31.108,38607.14471
2020/08/18 14:25:00,185.11,31.328,38588.07142
2020/08/18 14:26:00,185.274,31.548,38569.06386
2020/08/18 14:27:00,185.439,31.768,38550.12266
2020/08/18 14:28:00,185.606,31.987,38531.24844
2020/08/18 14:29:00,185.774,32.207,38512.44181
2020/08/18 14:30:00,185.943,32.426,38493.70337
2020/08/18 14:31:00,186.114,32.646,38475.03374
2020/08/18 14:32:00,186.286,32.865,38456.4335
2020/08/18 14:33:00,186.46,33.083,38437.90324
2020/08/18 14:34:00,186.635,33.302,38419.44354
2020/08/18 14:35:00,186.811,33.521,38401.05498
2020/08/18 14:36:00,186.989,33.739,38382.73812
2020/08/18 14:37:00,187.168,33.957,38364.49354
2020/08/18 14:38:00,187.349,34.175,38346.32179
2020/08/18 14:39:00,187.531,34.392,38328.22342
2020/08/18 14:40:00,187.715,34.61,38310.19896
2020/08/18 14:41:00,187.9,34.827,38292.24897
2020/08/18 14:42:00,188.087,35.044,38274.37397
2020/08/18 14:43:00,188.275,35.261,38256.57448
2020/08/18 14:44:00,188.464,35.477,38238.85103
2020/08/18 14:45:00,188.656,35.693,38221.20412
2020/08/18 14:46:00,188.848,35.909,38203.63426
2020/08/18 14:47:00,189.042,36.125,38186.14195
2020/08/18 14:48:00,189.238,36.34,38168.72768
2020/08/18 14:49:00,189.435,36.555,38151.39192
2020/08/18 14:50:00,189.634,36.77,38134.13517
2020/08/18 14:51:00,189.834,36.985,38116.95788
2020/08/18 14:52:00,190.036,37.199,38099.86053
2020/08/18 14:53:00,190.239,37.413,38082.84357
2020/08/18 14:54:00,190.444,37.626,38065.90745
2020/08/18 14:55:00,190.651,37.84,38049.05261
2020/08/18 14:56:00,190.859,38.053,38032.27949
2020/08/18 14:57:00,191.068,38.265,38015.58852
2020/08/18 14:58:00,191.28,38.477,37998.98011
2020/08/18 14:59:00,191.493,38.689,37982.45469
2020/08/18 15:00:00,191.707,38.901,37966.01266
2020/08/18 15:01:00,191.923,39.112,37949.65441
2020/08/18 15:02:00,192.141,39.323,37933.38036
2020/08/18 15:03:00,192.36,39.533,37917.19086
2020/08/18 15:04:00,192.581,39.743,37901.08632
2020/08/18 15:05:00,192.804,39.953,37885.06709
2020/08/18 15:06:00,193.029,40.162,37869.13355
2020/08/18 15:07:00,193.255,40.371,37853.28604
2020/08/18 15:08:00,193.482,40.58,37837.52492
2020/08/18 15:09:00,193.712,40.788,37821.85053
2020/08/18 15:10:00,193.943,40.995,37806.2632
2020/08/18 15:11:00,194.176,41.202,37790.76326
2020/08/18 15:12:00,194.41,41.409,37775.35103
2020/08/18 15:13:00,194.647,41.615,37760.02682
2020/08/18 15:14:00,194.885,41.821,37744.79093
2020/08/18 15:15:00,195.124,42.027,37729.64367
2020/08/18 15:16:00,195.366,42.232,37714.58532
2020/08/18 15:17:00,195.609,42.436,37699.61768
2020/08/18 15:18:00,195.854,42.64,37684.73795
2020/08/18 15:19:00,196.101,42.843,37669.94795
2020/08/18 15:20:00,196.349,43.046,37655.24795
2020/08/18 15:21:00,196.6,43.249,37640.63819
2020/08/18 15:22:00,196.852,43.451,37626.11892
2020/08/18 15:23:00,197.106,43.652,37611.69038
2020/08/18 15:24:00,197.362,43.853,37597.35279
2020/08/18 15:25:00,197.62,44.053,37583.10637
2020/08/18 15:26:00,197.879,44.253,37568.95134
2020/08/18 15:27:00,198.141,44.452,37554.8879
2020/08/18 15:28:00,198.404,44.651,37540.91625
2020/08/18 15:29:00,198.669,44.849,37527.03658
2020/08/18 15:30:00,198.936,45.047,37513.24908
2020/08/18 15:31:00,199.205,45.244,37499.55391
2020/08/18 15:32:00,199.476,45.44,37485.95125
2020/08/18 15:33:00,199.749,45.636,37472.44125
2020/08/18 15:34:00,200.024,45.831,37459.02406
2020/08/18 15:35:00,200.3,46.026,37445.69984
2020/08/18 15:36:00,200.579,46.22,37432.46871
2020/08/18 15:37:00,200.86,46.413,37419.3308
2020/08/18 15:38:00,201.142,46.606,37406.28624
2020/08/18 15:39:00,201.427,46.798,37393.33513
2020/08/18 15:40:00,201.713,46.989,37380.47759
2020/08/18 15:41:00,202.001,47.18,37367.71371
2020/08/18 15:42:00,202.292,47.37,37355.04358
2020/08/18 15:43:00,202.584,47.559,37342.46728
2020/08/18 15:44:00,202.879,47.748,37329.98489
2020/08/18 15:45:00,203.175,47.936,37317.59646
2020/08/18 15:46:00,203.474,48.123,37305.30208
2020/08/18 15:47:00,203.774,48.309,37293.10177
2020/08/18 15:48:00,204.077,48.495,37280.99559
2020/08/18 15:49:00,204.382,48.68,37268.98357
2020/08/18 15:50:00,204.688,48.865,37257.06575
2020/08/18 15:51:00,204.997,49.049,37245.24213
2020/08/18 15:52:00,205.308,49.231,37233.51274
2020/08/18 15:53:00,205.621,49.414,37221.87758
2020/08/18 15:54:00,205.936,49.595,37210.33665
2020/08/18 15:55:00,206.253,49.776,37198.88993
2020/08/18 15:56:00,206.572,49.955,37187.53741
2020/08/18 15:57:00,206.894,50.134,37176.27907
2020/08/18 15:58:00,207.217,50.313,37165.11487
2020/08/18 15:59:00,207.543,50.49,37154.04477
2020/08/18 16:00:00,207.871,50.667,37143.06872
2020/08/18 16:01:00,208.201,50.843,37132.18668
2020/08/18 16:02:00,208.533,51.018,37121.39857
2020/08/18 16:03:00,208.867,51.192,37110.70432
2020/08/18 16:04:00,209.204,51.365,37100.10387
2020/08/18 16:05:00,209.542,51.537,37089.59711
2020/08/18 16:06:00,209.883,51.709,37079.18397
2020/08/18 16:07:00,210.226,51.88,37068.86433
2020/08/18 16:08:00,210.572,52.05,37058.6381
2020/08/18 16:09:00,210.919,52.218,37048.50516
2020/08/18 16:10:00,211.269,52.386,37038.46539
2020/08/18 16:11:00,211.62,52.554,37028.51866
2020/08/18 16:12:00,211.974,52.72,37018.66482
2020/08/18 16:13:00,212.331,52.885,37008.90374
2020/08/18 16:14:00,212.689,53.05,36999.23528
2020/08/18 16:15:00,213.05,53.213,36989.65926
2020/08/18 16:16:00,213.413,53.375,36980.17552
2020/08/18 16:17:00,213.778,53.537,36970.7839
2020/08/18 16:18:00,214.145,53.698,36961.48421
2020/08/18 16:19:00,214.515,53.857,36952.27626
2020/08/18 16:20:00,214.887,54.016,36943.15987
2020/08/18 16:21:00,215.261,54.174,36934.13483
2020/08/18 16:22:00,215.638,54.33,36925.20094
2020/08/18 16:23:00,216.016,54.486,36916.35798
2020/08/18 16:24:00,216.397,54.641,36907.60573
2020/08/18 16:25:00,216.78,54.794,36898.94396
2020/08/18 16:26:00,217.166,54.947,36890.37245
2020/08/18 16:27:00,217.553,55.099,36881.89094
2020/08/18 16:28:00,217.943,55.249,36873.49918
2020/08/18 16:29:00,218.335,55.399,36865.19694
2020/08/18 16:30:00,218.73,55.547,36856.98393
2020/08/18 16:31:00,219.127,55.695,36848.85991
2020/08/18 16:32:00,219.525,55.841,36840.82458
2020/08/18 16:33:00,219.927,55.986,36832.87767
2020/08/18 16:34:00,220.33,56.13,36825.0189
2020/08/18 16:35:00,220.736,56.274,36817.24797
2020/08/18 16:36:00,221.143,56.416,36809.56457
2020/08/18 16:37:00,221.553,56.556,36801.96841
2020/08/18 16:38:00,221.966,56.696,36794.45917
2020/08/18 16:39:00,222.38,56.835,36787.03653
2020/08/18 16:40:00,222.797,56.973,36779.70016
2020/08/18 16:41:00,223.216,57.109,36772.44974
2020/08/18 16:42:00,223.637,57.244,36765.28493
2020/08/18 16:43:00,224.06,57.379,36758.20538
2020/08/18 16:44:00,224.486,57.512,36751.21075
2020/08/18 16:45:00,224.913,57.644,36744.30067
2020/08/18 16:46:00,225.343,57.774,36737.4748
2020/08/18 16:47:00,225.775,57.904,36730.73275
2020/08/18 16:48:00,226.209,58.032,36724.07417
2020/08/18 16:49:00,226.645,58.16,36717.49866
2020/08/18 16:50:00,227.084,58.286,36711.00585
2020/08/18 16:51:00,227.524,58.41,36704.59535
2020/08/18 16:52:00,227.967,58.534,36698.26675
2020/08/18 16:53:00,228.411,58.657,36692.01967
2020/08/18 16:54:00,228.858,58.778,36685.85369
2020/08/18 16:55:00,229.306,58.898,36679.76841
2020/08/18 16:56:00,229.757,59.017,36673.7634
2020/08/18 16:57:00,230.21,59.135,36667.83824
2020/08/18 16:58:00,230.665,59.251,36661.99251
2020/08/18 16:59:00,231.121,59.366,36656.22577
2020/08/18 17:00:00,231.58,59.48,36650.53758
2020/08/18 17:01:00,232.041,59.593,36644.92751
2020/08/18 17:02:00,232.503,59.704,36639.3951
2020/08/18 17:03:00,232.967,59.815,36633.9399
2020/08/18 17:04:00,233.434,59.924,36628.56146
2020/08/18 17:05:00,233.902,60.032,36623.25931
2020/08/18 17:06:00,234.372,60.138,36618.03298
2020/08/18 17:07:00,234.844,60.244,36612.88201
2020/08/18 17:08:00,235.317,60.348,36607.80591
2020/08/18 17:09:00,235.793,60.45,36602.80421
2020/08/18 17:10:00,236.27,60.552,36597.87642
2020/08/18 17:11:00,236.749,60.652,36593.02204
2020/08/18 17:12:00,237.229,60.751,36588.2406
2020/08/18 17:13:00,237.711,60.849,36583.53158
2020/08/18 17:14:00,238.195,60.946,36578.89448
2020/08/18 17:15:00,238.681,61.041,36574.3288
2020/08/18 17:16:00,239.167,61.135,36569.83402
2020/08/18 17:17:00,239.656,61.228,36565.40964
2020/08/18 17:18:00,240.146,61.319,36561.05512
2020/08/18 17:19:00,240.638,61.409,36556.76996
2020/08/18 17:20:00,241.131,61.498,36552.55361
2020/08/18 17:21:00,241.625,61.586,36548.40556
2020/08/18 17:22:00,242.121,61.672,36544.32526
2020/08/18 17:23:00,242.618,61.757,36540.31218
2020/08/18 17:24:00,243.117,61.841,36536.36578
2020/08/18 17:25:00,243.616,61.924,36532.4855
2020/08/18 17:26:00,244.117,62.005,36528.67081
2020/08/18 17:27:00,244.62,62.085,36524.92115
2020/08/18 17:28:00,245.123,62.164,36521.23596
2020/08/18 17:29:00,245.628,62.242,36517.61469
2020/08/18 17:30:00,246.134,62.318,36514.05678
2020/08/18 17:31:00,246.64,62.393,36510.56165
2020/08/18 17:32:00,247.148,62.467,36507.12875
2020/08/18 17:33:00,247.657,62.54,36503.7575
2020/08/18 17:34:00,248.167,62.611,36500.44732
2020/08/18 17:35:00,248.678,62.681,36497.19765
2020/08/18 17:36:00,249.189,62.75,36494.00789
2020/08/18 17:37:00,249.702,62.818,36490.87748
2020/08/18 17:38:00,250.215,62.884,36487.80582
2020/08/18 17:39:00,250.729,62.949,36484.79232
2020/08/18 17:40:00,251.244,63.013,36481.83641
2020/08/18 17:41:00,251.76,63.076,36478.93748
2020/08/18 17:42:00,252.276,63.138,36476.09494
2020/08/18 17:43:00,252.793,63.198,36473.30819
2020/08/18 17:44:00,253.31,63.258,36470.57664
2020/08/18 17:45:00,253.828,63.316,36467.89969
2020/08/18 17:46:00,254.347,63.373,36465.27673
2020/08/18 17:47:00,254.866,63.428,36462.70715
2020/08/18 17:48:00,255.385,63.483,36460.19035
2020/08/18 17:49:00,255.905,63.536,36457.72572
2020/08/18 17:50:00,256.425,63.588,36455.31265
2020/08/18 17:51:00,256.945,63.64,36452.95054
2020/08/18 17:52:00,257.466,63.69,36450.63875
2020/08/18 17:53:00,257.987,63.738,36448.37668
2020/08/18 17:54:00,258.507,63.786,36446.16371
2020/08/18 17:55:00,259.029,63.833,36443.99923
2020/08/18 17:56:00,259.55,63.878,36441.88261
2020/08/18 17:57:00,260.071,63.923,36439.81323
2020/08/18 17:58:00,260.592,63.966,36437.79047
2020/08/18 17:59:00,261.114,64.009,36435.81371
2020/08/18 18:00:00,261.635,64.05,36433.88232
2020/08/18 18:01:00,262.156,64.09,36431.99567
2020/08/18 18:02:00,262.677,64.129,36430.15315
2020/08/18 18:03:00,263.198,64.168,36428.35412
2020/08/18 18:04:00,263.718,64.205,36426.59795
2020/08/18 18:05:00,264.239,64.241,36424.88402
2020/08/18 18:06:00,264.759,64.276,36423.2117
2020/08/18 18:07:00,265.278,64.31,36421.58036
2020/08/18 18:08:00,265.798,64.343,36419.98936
2020/08/18 18:09:00,266.316,64.376,36418.43808
2020/08/18 18:10:00,266.835,64.407,36416.92588
2020/08/18 18:11:00,267.353,64.437,36415.45214
2020/08/18 18:12:00,267.87,64.467,36414.01621
2020/08/18 18:13:00,268.387,64.495,36412.61748
2020/08/18 18:14:00,268.904,64.523,36411.25531
2020/08/18 18:15:00,269.42,64.55,36409.92906
2020/08/18 18:16:00,269.935,64.575,36408.6381
2020/08/18 18:17:00,270.449,64.6,36407.38181
2020/08/18 18:18:00,270.963,64.625,36406.15955
2020/08/18 18:19:00,271.476,64.648,36404.97069
2020/08/18 18:20:00,271.988,64.67,36403.81459
2020/08/18 18:21:00,272.5,64.692,36402.69064
2020/08/18 18:22:00,273.01,64.713,36401.59819
2020/08/18 18:23:00,273.52,64.733,36400.53662
2020/08/18 18:24:00,274.029,64.753,36399.5053
2020/08/18 18:25:00,274.537,64.771,36398.50359
2020/08/18 18:26:00,275.044,64.789,36397.53089
2020/08/18 18:27:00,275.55,64.806,36396.58655
2020/08/18 18:28:00,276.055,64.823,36395.66994
2020/08/18 18:29:00,276.559,64.838,36394.78046
2020/08/18 18:30:00,277.062,64.853,36393.91746
2020/08/18 18:31:00,277.564,64.868,36393.08034
2020/08/18 18:32:00,278.065,64.881,36392.26846
2020/08/18 18:33:00,278.564,64.894,36391.48121
2020/08/18 18:34:00,279.063,64.907,36390.71796
2020/08/18 18:35:00,279.56,64.919,36389.9781
2020/08/18 18:36:00,280.057,64.93,36389.26101
2020/08/18 18:37:00,280.552,64.941,36388.56609
2020/08/18 18:38:00,281.046,64.951,36387.8927
2020/08/18 18:39:00,281.538,64.96,36387.24024
2020/08/18 18:40:00,282.03,64.969,36386.60811
2020/08/18 18:41:00,282.52,64.978,36385.99569
2020/08/18 18:42:00,283.009,64.986,36385.40237
2020/08/18 18:43:00,283.496,64.993,36384.82756
2020/08/18 18:44:00,283.983,65,36384.27063
2020/08/18 18:45:00,284.468,65.007,36383.73101
2020/08/18 18:46:00,284.951,65.013,36383.20808
2020/08/18 18:47:00,285.433,65.018,36382.70125
2020/08/18 18:48:00,285.914,65.023,36382.20993
2020/08/18 18:49:00,286.394,65.028,36381.73351
2020/08/18 18:50:00,286.872,65.033,36381.27142
2020/08/18 18:51:00,287.348,65.037,36380.82306
2020/08/18 18:52:00,287.824,65.04,36380.38784
2020/08/18 18:53:00,288.298,65.044,36379.96519
2020/08/18 18:54:00,288.77,65.047,36379.55452
2020/08/18 18:55:00,289.241,65.049,36379.15525
2020/08/18 18:56:00,289.71,65.051,36378.76681
2020/08/18 18:57:00,290.179,65.053,36378.38863
2020/08/18 18:58:00,290.645,65.055,36378.02013
2020/08/18 18:59:00,291.11,65.057,36377.66075
2020/08/18 19:00:00,291.574,65.058,36377.30992
2020/08/18 19:01:00,292.036,65.059,36376.96708
2020/08/18 19:02:00,292.497,65.06,36376.63167
2020/08/18 19:03:00,292.956,65.06,36376.30314
2020/08/18 19:04:00,293.414,65.061,36375.98093
2020/08/18 19:05:00,293.87,65.061,36375.66449
2020/08/18 19:06:00,294.325,65.061,36375.35328
2020/08/18 19:07:00,294.778,65.061,36375.04675
2020/08/18 19:08:00,295.23,65.06,36374.74437
2020/08/18 19:09:00,295.68,65.06,36374.44559
2020/08/18 19:10:00,296.129,65.059,36374.14988
2020/08/18 19:11:00,296.576,65.059,36373.85672
2020/08/18 19:12:00,297.022,65.058,36373.56558
2020/08/18 19:13:00,297.466,65.057,36373.27593
2020/08/18 19:14:00,297.909,65.056,36372.98725
2020/08/18 19:15:00,298.35,65.055,36372.69903
2020/08/18 19:16:00,298.79,65.054,36372.41076
2020/08/18 19:17:00,299.228,65.053,36372.12193
2020/08/18 19:18:00,299.665,65.052,36371.83204
2020/08/18 19:19:00,300.1,65.051,36371.54058
2020/08/18 19:20:00,300.534,65.05,36371.24705
2020/08/18 19:21:00,300.966,65.049,36370.95097
2020/08/18 19:22:00,301.397,65.049,36370.65185
2020/08/18 19:23:00,301.827,65.048,36370.34919
2020/08/18 19:24:00,302.254,65.047,36370.04253
2020/08/18 19:25:00,302.681,65.046,36369.73138
2020/08/18 19:26:00,303.106,65.045,36369.41528
2020/08/18 19:27:00,303.529,65.045,36369.09374
2020/08/18 19:28:00,303.951,65.044,36368.76632
2020/08/18 19:29:00,304.372,65.044,36368.43255
2020/08/18 19:30:00,304.791,65.044,36368.09197
2020/08/18 19:31:00,305.209,65.044,36367.74413
2020/08/18 19:32:00,305.625,65.044,36367.38859
2020/08/18 19:33:00,306.04,65.044,36367.02491
2020/08/18 19:34:00,306.454,65.045,36366.65265
2020/08/18 19:35:00,306.866,65.045,36366.27137
2020/08/18 19:36:00,307.277,65.046,36365.88065
2020/08/18 19:37:00,307.686,65.047,36365.48006
2020/08/18 19:38:00,308.094,65.048,36365.06918
2020/08/18 19:39:00,308.5,65.05,36364.64761
2020/08/18 19:40:00,308.906,65.051,36364.21492
2020/08/18 19:41:00,309.31,65.053,36363.77073
2020/08/18 19:42:00,309.712,65.056,36363.31461
2020/08/18 19:43:00,310.113,65.058,36362.84619
2020/08/18 19:44:00,310.513,65.061,36362.36507
2020/08/18 19:45:00,310.912,65.064,36361.87087
2020/08/18 19:46:00,311.309,65.067,36361.3632
2020/08/18 19:47:00,311.705,65.071,36360.8417
2020/08/18 19:48:00,312.099,65.075,36360.30598
2020/08/18 19:49:00,312.493,65.079,36359.75569
2020/08/18 19:50:00,312.885,65.084,36359.19047
2020/08/18 19:51:00,313.276,65.089,36358.60995
2020/08/18 19:52:00,313.665,65.094,36358.0138
2020/08/18 19:53:00,314.054,65.1,36357.40167
2020/08/18 19:54:00,314.441,65.106,36356.77322
2020/08/18 19:55:00,314.827,65.112,36356.12811
2020/08/18 19:56:00,315.211,65.119,36355.46602
2020/08/18 19:57:00,315.595,65.126,36354.78662
2020/08/18 19:58:00,315.977,65.134,36354.08959
2020/08/18 19:59:00,316.358,65.142,36353.37464
2020/08/18 20:00:00,316.738,65.151,36352.64144
2020/08/18 20:01:00,317.117,65.16,36351.88969
2020/08/18 20:02:00,317.495,65.169,36351.11911
2020/08/18 20:03:00,317.871,65.179,36350.3294
2020/08/18 20:04:00,318.247,65.189,36349.52027
2020/08/18 20:05:00,318.621,65.2,36348.69145
2020/08/18 20:06:00,318.994,65.211,36347.84266
2020/08/18 20:07:00,319.367,65.222,36346.97364
2020/08/18 20:08:00,319.738,65.235,36346.08412
2020/08/18 20:09:00,320.108,65.247,36345.17384
2020/08/18 20:10:00,320.477,65.26,36344.24257
2020/08/18 20:11:00,320.845,65.274,36343.29005
2020/08/18 20:12:00,321.212,65.288,36342.31603
2020/08/18 20:13:00,321.577,65.303,36341.3203
2020/08/18 20:14:00,321.942,65.318,36340.30262
2020/08/18 20:15:00,322.306,65.334,36339.26277
2020/08/18 20:16:00,322.669,65.35,36338.20053
2020/08/18 20:17:00,323.031,65.367,36337.11569
2020/08/18 20:18:00,323.392,65.384,36336.00806
2020/08/18 20:19:00,323.752,65.402,36334.87743
2020/08/18 20:20:00,324.111,65.42,36333.7236
2020/08/18 20:21:00,324.47,65.439,36332.5464
2020/08/18 20:22:00,324.827,65.459,36331.34565
2020/08/18 20:23:00,325.183,65.479,36330.12116
2020/08/18 20:24:00,325.539,65.5,36328.87277
2020/08/18 20:25:00,325.894,65.521,36327.60032
2020/08/18 20:26:00,326.248,65.543,36326.30366
2020/08/18 20:27:00,326.601,65.566,36324.98263
2020/08/18 20:28:00,326.953,65.589,36323.63708
2020/08/18 20:29:00,327.304,65.613,36322.26689
2020/08/18 20:30:00,327.655,65.638,36320.87191
2020/08/18 20:31:00,328.004,65.663,36319.45203
2020/08/18 20:32:00,328.353,65.688,36318.00713
2020/08/18 20:33:00,328.702,65.715,36316.53708
2020/08/18 20:34:00,329.049,65.742,36315.04179
2020/08/18 20:35:00,329.396,65.769,36313.52116
2020/08/18 20:36:00,329.742,65.797,36311.97508
2020/08/18 20:37:00,330.087,65.826,36310.40347
2020/08/18 20:38:00,330.432,65.856,36308.80625
2020/08/18 20:39:00,330.776,65.886,36307.18334
2020/08/18 20:40:00,331.119,65.917,36305.53468
2020/08/18 20:41:00,331.462,65.949,36303.86019
2020/08/18 20:42:00,331.804,65.981,36302.15983
2020/08/18 20:43:00,332.145,66.014,36300.43353
2020/08/18 20:44:00,332.486,66.048,36298.68127
2020/08/18 20:45:00,332.826,66.082,36296.90299
2020/08/18 20:46:00,333.165,66.117,36295.09866
2020/08/18 20:47:00,333.504,66.153,36293.26827
2020/08/18 20:48:00,333.843,66.189,36291.41179
2020/08/18 20:49:00,334.181,66.226,36289.5292
2020/08/18 20:50:00,334.518,66.264,36287.62051
2020/08/18 20:51:00,334.855,66.303,36285.68571
2020/08/18 20:52:00,335.191,66.342,36283.7248
2020/08/18 20:53:00,335.527,66.382,36281.73781
2020/08/18 20:54:00,335.862,66.423,36279.72474
2020/08/18 20:55:00,336.197,66.464,36277.68563
2020/08/18 20:56:00,336.531,66.506,36275.62049
2020/08/18 20:57:00,336.865,66.549,36273.52938
2020/08/18 20:58:00,337.199,66.593,36271.41234
2020/08/18 20:59:00,337.532,66.637,36269.26941
2020/08/18 21:00:00,337.865,66.682,36267.10066
2020/08/18 21:01:00,338.197,66.728,36264.90614
2020/08/18 21:02:00,338.529,66.775,36262.68592
2020/08/18 21:03:00,338.861,66.822,36260.44009
2020/08/18 21:04:00,339.193,66.87,36258.16872
2020/08/18 21:05:00,339.524,66.919,36255.8719
2020/08/18 21:06:00,339.854,66.969,36253.54973
2020/08/18 21:07:00,340.185,67.019,36251.20231
2020/08/18 21:08:00,340.515,67.07,36248.82974
2020/08/18 21:09:00,340.845,67.122,36246.43214
2020/08/18 21:10:00,341.175,67.175,36244.00963
2020/08/18 21:11:00,341.505,67.228,36241.56234
2020/08/18 21:12:00,341.834,67.282,36239.09039
2020/08/18 21:13:00,342.163,67.337,36236.59393
2020/08/18 21:14:00,342.492,67.393,36234.07311
2020/08/18 21:15:00,342.821,67.45,36231.52807
2020/08/18 21:16:00,343.15,67.507,36228.95898
2020/08/18 21:17:00,343.479,67.565,36226.36599
2020/08/18 21:18:00,343.808,67.624,36223.74928
2020/08/18 21:19:00,344.136,67.683,36221.10902
2020/08/18 21:20:00,344.465,67.744,36218.4454
2020/08/18 21:21:00,344.793,67.805,36215.75861
2020/08/18 21:22:00,345.122,67.867,36213.04884
2020/08/18 21:23:00,345.45,67.93,36210.3163
2020/08/18 21:24:00,345.779,67.993,36207.56119
2020/08/18 21:25:00,346.108,68.058,36204.78372
2020/08/18 21:26:00,346.436,68.123,36201.98413
2020/08/18 21:27:00,346.765,68.189,36199.16263
2020/08/18 21:28:00,347.094,68.256,36196.31945
2020/08/18 21:29:00,347.423,68.323,36193.45484
2020/08/18 21:30:00,347.752,68.391,36190.56904
2020/08/18 21:31:00,348.082,68.46,36187.6623
2020/08/18 21:32:00,348.411,68.53,36184.73488
2020/08/18 21:33:00,348.741,68.601,36181.78704
2020/08/18 21:34:00,349.071,68.672,36178.81905
2020/08/18 21:35:00,349.402,68.745,36175.83119
2020/08/18 21:36:00,349.733,68.818,36172.82374
2020/08/18 21:37:00,350.064,68.892,36169.79699
2020/08/18 21:38:00,350.395,68.966,36166.75122
2020/08/18 21:39:00,350.727,69.042,36163.68674
2020/08/18 21:40:00,351.059,69.118,36160.60385
2020/08/18 21:41:00,351.392,69.195,36157.50287
2020/08/18 21:42:00,351.725,69.273,36154.38411
2020/08/18 21:43:00,352.059,69.351,36151.2479
2020/08/18 21:44:00,352.393,69.431,36148.09456
2020/08/18 21:45:00,352.727,69.511,36144.92443
2020/08/18 21:46:00,353.063,69.592,36141.73785
2020/08/18 21:47:00,353.399,69.674,36138.53517
2020/08/18 21:48:00,353.735,69.756,36135.31673
2020/08/18 21:49:00,354.073,69.84,36132.0829
2020/08/18 21:50:00,354.411,69.924,36128.83404
2020/08/18 21:51:00,354.749,70.009,36125.57051
2020/08/18 21:52:00,355.089,70.094,36122.2927
2020/08/18 21:53:00,355.429,70.181,36119.00099
2020/08/18 21:54:00,355.77,70.268,36115.69575
2020/08/18 21:55:00,356.113,70.356,36112.37739
2020/08/18 21:56:00,356.456,70.445,36109.04629
2020/08/18 21:57:00,356.8,70.534,36105.70287
2020/08/18 21:58:00,357.145,70.625,36102.34753
2020/08/18 21:59:00,357.491,70.716,36098.98068
2020/08/18 22:00:00,357.838,70.808,36095.60275
2020/08/18 22:01:00,358.186,70.901,36092.21415
2020/08/18 22:02:00,358.536,70.994,36088.81533
2020/08/18 22:03:00,358.887,71.088,36085.4067
2020/08/18 22:04:00,359.239,71.183,36081.98872
2020/08/18 22:05:00,359.592,71.279,36078.56183
2020/08/18 22:06:00,359.947,71.375,36075.12648
2020/08/18 22:07:00,0.303,71.473,36071.68313
2020/08/18 22:08:00,0.661,71.571,36068.23224
2020/08/18 22:09:00,1.02,71.669,36064.77428
2020/08/18 22:10:00,1.381,71.769,36061.30971
2020/08/18 22:11:00,1.743,71.869,36057.83901
2020/08/18 22:12:00,2.107,71.97,36054.36267
2020/08/18 22:13:00,2.473,72.072,36050.88118
2020/08/18 22:14:00,2.841,72.174,36047.39502
2020/08/18 22:15:00,3.211,72.277,36043.90469
2020/08/18 22:16:00,3.583,72.381,36040.41069
2020/08/18 22:17:00,3.956,72.485,36036.91353
2020/08/18 22:18:00,4.332,72.591,36033.41373
2020/08/18 22:19:00,4.71,72.697,36029.91178
2020/08/18 22:20:00,5.091,72.803,36026.40823
2020/08/18 22:21:00,5.473,72.911,36022.90359
2020/08/18 22:22:00,5.858,73.019,36019.39838
2020/08/18 22:23:00,6.246,73.127,36015.89316
2020/08/18 22:24:00,6.636,73.237,36012.38845
2020/08/18 22:25:00,7.029,73.347,36008.8848
2020/08/18 22:26:00,7.424,73.457,36005.38275
2020/08/18 22:27:00,7.823,73.569,36001.88286
2020/08/18 22:28:00,8.224,73.681,35998.38569
2020/08/18 22:29:00,8.628,73.793,35994.8918
2020/08/18 22:30:00,9.036,73.907,35991.40175
2020/08/18 22:31:00,9.447,74.021,35987.9161
2020/08/18 22:32:00,9.861,74.135,35984.43544
2020/08/18 22:33:00,10.279,74.25,35980.96035
2020/08/18 22:34:00,10.7,74.366,35977.4914
2020/08/18 22:35:00,11.125,74.482,35974.02918
2020/08/18 22:36:00,11.554,74.599,35970.57427
2020/08/18 22:37:00,11.987,74.717,35967.12729
2020/08/18 22:38:00,12.424,74.835,35963.68881
2020/08/18 22:39:00,12.865,74.953,35960.25944
2020/08/18 22:40:00,13.311,75.073,35956.83979
2020/08/18 22:41:00,13.761,75.192,35953.43047
2020/08/18 22:42:00,14.216,75.312,35950.03209
2020/08/18 22:43:00,14.676,75.433,35946.64526
2020/08/18 22:44:00,15.141,75.554,35943.2706
2020/08/18 22:45:00,15.612,75.676,35939.90875
2020/08/18 22:46:00,16.087,75.798,35936.56031
2020/08/18 22:47:00,16.568,75.921,35933.22593
2020/08/18 22:48:00,17.056,76.044,35929.90624
2020/08/18 22:49:00,17.549,76.167,35926.60188
2020/08/18 22:50:00,18.048,76.291,35923.31347
2020/08/18 22:51:00,18.554,76.415,35920.04168
2020/08/18 22:52:00,19.066,76.54,35916.78713
2020/08/18 22:53:00,19.586,76.665,35913.55049
2020/08/18 22:54:00,20.112,76.79,35910.33241
2020/08/18 22:55:00,20.646,76.915,35907.13353
2020/08/18 22:56:00,21.188,77.041,35903.95452
2020/08/18 22:57:00,21.738,77.167,35900.79604
2020/08/18 22:58:00,22.295,77.294,35897.65874
2020/08/18 22:59:00,22.862,77.42,35894.54331
2020/08/18 23:00:00,23.437,77.547,35891.4504
2020/08/18 23:01:00,24.022,77.674,35888.3807
2020/08/18 23:02:00,24.616,77.801,35885.33486
2020/08/18 23:03:00,25.22,77.928,35882.31357
2020/08/18 23:04:00,25.834,78.055,35879.31751
2020/08/18 23:05:00,26.458,78.183,35876.34735
2020/08/18 23:06:00,27.094,78.31,35873.40379
2020/08/18 23:07:00,27.741,78.437,35870.4875
2020/08/18 23:08:00,28.4,78.564,35867.59917
2020/08/18 23:09:00,29.071,78.692,35864.7395
2020/08/18 23:10:00,29.755,78.819,35861.90917
2020/08/18 23:11:00,30.453,78.945,35859.10889
2020/08/18 23:12:00,31.163,79.072,35856.33933
2020/08/18 23:13:00,31.888,79.198,35853.60121
2020/08/18 23:14:00,32.628,79.324,35850.89522
2020/08/18 23:15:00,33.383,79.45,35848.22205
2020/08/18 23:16:00,34.154,79.575,35845.58242
2020/08/18 23:17:00,34.941,79.7,35842.97703
2020/08/18 23:18:00,35.745,79.824,35840.40658
2020/08/18 23:19:00,36.567,79.948,35837.87177
2020/08/18 23:20:00,37.407,80.071,35835.37332
2020/08/18 23:21:00,38.266,80.193,35832.91194
2020/08/18 23:22:00,39.144,80.314,35830.48833
2020/08/18 23:23:00,40.043,80.435,35828.1032
2020/08/18 23:24:00,40.963,80.554,35825.75728
2020/08/18 23:25:00,41.904,80.673,35823.45126
2020/08/18 23:26:00,42.867,80.79,35821.18587
2020/08/18 23:27:00,43.854,80.906,35818.96182
2020/08/18 23:28:00,44.865,81.021,35816.77983
2020/08/18 23:29:00,45.899,81.135,35814.64061
2020/08/18 23:30:00,46.96,81.247,35812.54488
2020/08/18 23:31:00,48.046,81.357,35810.49335
2020/08/18 23:32:00,49.159,81.465,35808.48675
2020/08/18 23:33:00,50.299,81.572,35806.5258
2020/08/18 23:34:00,51.468,81.677,35804.6112
2020/08/18 23:35:00,52.665,81.78,35802.74369
2020/08/18 23:36:00,53.891,81.88,35800.92398
2020/08/18 23:37:00,55.148,81.978,35799.15278
2020/08/18 23:38:00,56.435,82.074,35797.43082
2020/08/18 23:39:00,57.753,82.167,35795.75882
2020/08/18 23:40:00,59.102,82.257,35794.1375
2020/08/18 23:41:00,60.482,82.344,35792.56757
2020/08/18 23:42:00,61.894,82.428,35791.04975
2020/08/18 23:43:00,63.338,82.509,35789.58476
2020/08/18 23:44:00,64.814,82.586,35788.17332
2020/08/18 23:45:00,66.322,82.66,35786.81614
2020/08/18 23:46:00,67.86,82.73,35785.51395
2020/08/18 23:47:00,69.429,82.796,35784.26745
2020/08/18 23:48:00,71.028,82.857,35783.07736
2020/08/18 23:49:00,72.657,82.915,35781.9444
2020/08/18 23:50:00,74.313,82.968,35780.86927
2020/08/18 23:51:00,75.996,83.016,35779.8527
2020/08/18 23:52:00,77.705,83.06,35778.89539
2020/08/18 23:53:00,79.437,83.099,35777.99805
2020/08/18 23:54:00,81.191,83.132,35777.16139
2020/08/18 23:55:00,82.965,83.161,35776.38611
2020/08/18 23:56:00,84.757,83.184,35775.67293
2020/08/18 23:57:00,86.563,83.202,35775.02255
2020/08/18 23:58:00,88.382,83.214,35774.43567
2020/08/18 23:59:00,90.212,83.22,35773.91299
2020/08/19 0:00:00,92.048,83.221,35773.45521
2020/08/19 0:01:00,93.889,83.216,35773.06303
2020/08/19 0:02:00,95.731,83.205,35772.73715
2020/08/19 0:03:00,97.571,83.188,35772.47825
2020/08/19 0:04:00,99.408,83.166,35772.28704
2020/08/19 0:05:00,101.236,83.137,35772.1642
2020/08/19 0:06:00,103.055,83.103,35772.11042
2020/08/19 0:07:00,104.861,83.062,35772.12638
2020/08/19 0:08:00,106.651,83.016,35772.21277
2020/08/19 0:09:00,108.424,82.964,35772.37026
2020/08/19 0:10:00,110.176,82.907,35772.59955
2020/08/19 0:11:00,111.906,82.844,35772.90129
2020/08/19 0:12:00,113.612,82.775,35773.27617
2020/08/19 0:13:00,115.292,82.701,35773.72486
2020/08/19 0:14:00,116.944,82.621,35774.24802
2020/08/19 0:15:00,118.568,82.537,35774.84631
2020/08/19 0:16:00,120.162,82.447,35775.52041
2020/08/19 0:17:00,121.725,82.353,35776.27096
2020/08/19 0:18:00,123.257,82.253,35777.09862
2020/08/19 0:19:00,124.756,82.149,35778.00405
2020/08/19 0:20:00,126.223,82.041,35778.98789
2020/08/19 0:21:00,127.658,81.928,35780.0508
2020/08/19 0:22:00,129.059,81.81,35781.1934
2020/08/19 0:23:00,130.428,81.689,35782.41635
2020/08/19 0:24:00,131.764,81.563,35783.72027
2020/08/19 0:25:00,133.067,81.434,35785.10579
2020/08/19 0:26:00,134.339,81.301,35786.57355
2020/08/19 0:27:00,135.579,81.164,35788.12417
2020/08/19 0:28:00,136.788,81.024,35789.75827
2020/08/19 0:29:00,137.966,80.88,35791.47646
2020/08/19 0:30:00,139.114,80.733,35793.27936
2020/08/19 0:31:00,140.233,80.583,35795.16757
2020/08/19 0:32:00,141.323,80.43,35797.14169
2020/08/19 0:33:00,142.385,80.274,35799.20234
2020/08/19 0:34:00,143.42,80.116,35801.35009
2020/08/19 0:35:00,144.429,79.954,35803.58555
2020/08/19 0:36:00,145.411,79.79,35805.90929
2020/08/19 0:37:00,146.369,79.623,35808.32191
2020/08/19 0:38:00,147.302,79.454,35810.82397
2020/08/19 0:39:00,148.211,79.282,35813.41604
2020/08/19 0:40:00,149.098,79.108,35816.09871
2020/08/19 0:41:00,149.962,78.932,35818.87252
2020/08/19 0:42:00,150.805,78.754,35821.73803
2020/08/19 0:43:00,151.627,78.574,35824.69581
2020/08/19 0:44:00,152.429,78.391,35827.74638
2020/08/19 0:45:00,153.212,78.207,35830.89031
2020/08/19 0:46:00,153.975,78.021,35834.12811
2020/08/19 0:47:00,154.721,77.833,35837.46034
2020/08/19 0:48:00,155.448,77.643,35840.8875
2020/08/19 0:49:00,156.159,77.451,35844.41013
2020/08/19 0:50:00,156.853,77.258,35848.02873
2020/08/19 0:51:00,157.531,77.063,35851.74383
2020/08/19 0:52:00,158.194,76.867,35855.55591
2020/08/19 0:53:00,158.842,76.669,35859.46548
2020/08/19 0:54:00,159.476,76.47,35863.47304
2020/08/19 0:55:00,160.095,76.269,35867.57907
2020/08/19 0:56:00,160.701,76.066,35871.78404
2020/08/19 0:57:00,161.294,75.863,35876.08844
2020/08/19 0:58:00,161.875,75.658,35880.49274
2020/08/19 0:59:00,162.443,75.452,35884.99739
2020/08/19 1:00:00,162.999,75.244,35889.60285
2020/08/19 1:01:00,163.544,75.036,35894.30958
2020/08/19 1:02:00,164.078,74.826,35899.11802
2020/08/19 1:03:00,164.602,74.615,35904.0286
2020/08/19 1:04:00,165.115,74.402,35909.04175
2020/08/19 1:05:00,165.617,74.189,35914.15791
2020/08/19 1:06:00,166.111,73.975,35919.37748
2020/08/19 1:07:00,166.594,73.759,35924.70089
2020/08/19 1:08:00,167.069,73.543,35930.12853
2020/08/19 1:09:00,167.534,73.326,35935.66081
2020/08/19 1:10:00,167.992,73.107,35941.29811
2020/08/19 1:11:00,168.44,72.888,35947.04083
2020/08/19 1:12:00,168.881,72.667,35952.88933
2020/08/19 1:13:00,169.314,72.446,35958.84399
2020/08/19 1:14:00,169.739,72.224,35964.90517
2020/08/19 1:15:00,170.157,72.001,35971.07323
2020/08/19 1:16:00,170.568,71.777,35977.34852
2020/08/19 1:17:00,170.972,71.552,35983.73138
2020/08/19 1:18:00,171.369,71.327,35990.22214
2020/08/19 1:19:00,171.759,71.1,35996.82115
2020/08/19 1:20:00,172.143,70.873,36003.5287
2020/08/19 1:21:00,172.521,70.645,36010.34513
2020/08/19 1:22:00,172.892,70.416,36017.27073
2020/08/19 1:23:00,173.258,70.187,36024.30581
2020/08/19 1:24:00,173.618,69.957,36031.45064
2020/08/19 1:25:00,173.973,69.726,36038.70553
2020/08/19 1:26:00,174.322,69.494,36046.07074
2020/08/19 1:27:00,174.666,69.262,36053.54654
2020/08/19 1:28:00,175.005,69.029,36061.1332
2020/08/19 1:29:00,175.338,68.795,36068.83096
2020/08/19 1:30:00,175.667,68.561,36076.64006
2020/08/19 1:31:00,175.991,68.326,36084.56076
2020/08/19 1:32:00,176.31,68.091,36092.59328
2020/08/19 1:33:00,176.625,67.854,36100.73783
2020/08/19 1:34:00,176.936,67.618,36108.99463
2020/08/19 1:35:00,177.242,67.38,36117.36389
2020/08/19 1:36:00,177.544,67.142,36125.84581
2020/08/19 1:37:00,177.842,66.904,36134.44057
2020/08/19 1:38:00,178.135,66.665,36143.14836
2020/08/19 1:39:00,178.425,66.425,36151.96935
2020/08/19 1:40:00,178.711,66.185,36160.9037
2020/08/19 1:41:00,178.993,65.944,36169.95158
2020/08/19 1:42:00,179.272,65.703,36179.11312
2020/08/19 1:43:00,179.547,65.461,36188.38848
2020/08/19 1:44:00,179.819,65.219,36197.77778
2020/08/19 1:45:00,180.087,64.976,36207.28116
2020/08/19 1:46:00,180.351,64.733,36216.89871
2020/08/19 1:47:00,180.613,64.489,36226.63056
2020/08/19 1:48:00,180.871,64.245,36236.47679
2020/08/19 1:49:00,181.126,64,36246.43751
2020/08/19 1:50:00,181.378,63.755,36256.5128
2020/08/19 1:51:00,181.627,63.51,36266.70271
2020/08/19 1:52:00,181.874,63.264,36277.00734
2020/08/19 1:53:00,182.117,63.017,36287.42672
2020/08/19 1:54:00,182.357,62.771,36297.96091
2020/08/19 1:55:00,182.595,62.523,36308.60995
2020/08/19 1:56:00,182.829,62.276,36319.37387
2020/08/19 1:57:00,183.062,62.028,36330.25269
2020/08/19 1:58:00,183.291,61.779,36341.24644
2020/08/19 1:59:00,183.518,61.53,36352.3551
2020/08/19 2:00:00,183.742,61.281,36363.57867
2020/08/19 2:01:00,183.964,61.032,36374.91716
2020/08/19 2:02:00,184.184,60.782,36386.37053
2020/08/19 2:03:00,184.401,60.531,36397.93876
2020/08/19 2:04:00,184.616,60.281,36409.62182
2020/08/19 2:05:00,184.828,60.03,36421.41964
2020/08/19 2:06:00,185.038,59.779,36433.33219
2020/08/19 2:07:00,185.246,59.527,36445.3594
2020/08/19 2:08:00,185.452,59.275,36457.50118
2020/08/19 2:09:00,185.656,59.023,36469.75747
2020/08/19 2:10:00,185.857,58.77,36482.12818
2020/08/19 2:11:00,186.057,58.517,36494.6132
2020/08/19 2:12:00,186.254,58.264,36507.21243
2020/08/19 2:13:00,186.449,58.011,36519.92575
2020/08/19 2:14:00,186.642,57.757,36532.75304
2020/08/19 2:15:00,186.834,57.503,36545.69417
2020/08/19 2:16:00,187.023,57.249,36558.74899
2020/08/19 2:17:00,187.211,56.994,36571.91735
2020/08/19 2:18:00,187.396,56.739,36585.1991
2020/08/19 2:19:00,187.58,56.484,36598.59406
2020/08/19 2:20:00,187.762,56.229,36612.10206
2020/08/19 2:21:00,187.943,55.974,36625.72292
2020/08/19 2:22:00,188.121,55.718,36639.45644
2020/08/19 2:23:00,188.298,55.462,36653.30242
2020/08/19 2:24:00,188.473,55.205,36667.26065
2020/08/19 2:25:00,188.646,54.949,36681.3309
2020/08/19 2:26:00,188.818,54.692,36695.51295
2020/08/19 2:27:00,188.988,54.436,36709.80657
2020/08/19 2:28:00,189.156,54.178,36724.2115
2020/08/19 2:29:00,189.323,53.921,36738.72749
2020/08/19 2:30:00,189.488,53.664,36753.35429
2020/08/19 2:31:00,189.652,53.406,36768.09161
2020/08/19 2:32:00,189.814,53.148,36782.93919
2020/08/19 2:33:00,189.974,52.89,36797.89672
2020/08/19 2:34:00,190.133,52.632,36812.96392
2020/08/19 2:35:00,190.291,52.374,36828.14047
2020/08/19 2:36:00,190.447,52.115,36843.42607
2020/08/19 2:37:00,190.602,51.857,36858.82039
2020/08/19 2:38:00,190.755,51.598,36874.32311
2020/08/19 2:39:00,190.907,51.339,36889.93387
2020/08/19 2:40:00,191.057,51.08,36905.65235
2020/08/19 2:41:00,191.206,50.821,36921.47817
2020/08/19 2:42:00,191.354,50.561,36937.41097
2020/08/19 2:43:00,191.501,50.302,36953.45039
2020/08/19 2:44:00,191.646,50.042,36969.59605
2020/08/19 2:45:00,191.789,49.783,36985.84754
2020/08/19 2:46:00,191.932,49.523,37002.20449
2020/08/19 2:47:00,192.073,49.263,37018.66647
2020/08/19 2:48:00,192.212,49.003,37035.23308
2020/08/19 2:49:00,192.351,48.743,37051.9039
2020/08/19 2:50:00,192.488,48.483,37068.6785
2020/08/19 2:51:00,192.624,48.223,37085.55643
2020/08/19 2:52:00,192.759,47.962,37102.53726
2020/08/19 2:53:00,192.893,47.702,37119.62053
2020/08/19 2:54:00,193.025,47.442,37136.80578
2020/08/19 2:55:00,193.156,47.181,37154.09254
2020/08/19 2:56:00,193.286,46.921,37171.48033
2020/08/19 2:57:00,193.415,46.66,37188.96866
2020/08/19 2:58:00,193.543,46.399,37206.55705
2020/08/19 2:59:00,193.669,46.139,37224.245
2020/08/19 3:00:00,193.795,45.878,37242.03198
2020/08/19 3:01:00,193.919,45.617,37259.9175
2020/08/19 3:02:00,194.042,45.356,37277.90102
2020/08/19 3:03:00,194.164,45.095,37295.98202
2020/08/19 3:04:00,194.285,44.835,37314.15994
2020/08/19 3:05:00,194.405,44.574,37332.43426
2020/08/19 3:06:00,194.523,44.313,37350.80442
2020/08/19 3:07:00,194.641,44.052,37369.26984
2020/08/19 3:08:00,194.757,43.791,37387.82997
2020/08/19 3:09:00,194.873,43.53,37406.48423
2020/08/19 3:10:00,194.987,43.269,37425.23203
2020/08/19 3:11:00,195.101,43.008,37444.0728
2020/08/19 3:12:00,195.213,42.748,37463.00591
2020/08/19 3:13:00,195.324,42.487,37482.03078
2020/08/19 3:14:00,195.435,42.226,37501.1468
2020/08/19 3:15:00,195.544,41.965,37520.35333
2020/08/19 3:16:00,195.652,41.705,37539.64977
2020/08/19 3:17:00,195.759,41.444,37559.03546
2020/08/19 3:18:00,195.866,41.183,37578.50978
2020/08/19 3:19:00,195.971,40.923,37598.07208
2020/08/19 3:20:00,196.075,40.662,37617.72171
2020/08/19 3:21:00,196.179,40.402,37637.458
2020/08/19 3:22:00,196.281,40.141,37657.28028
2020/08/19 3:23:00,196.382,39.881,37677.1879
2020/08/19 3:24:00,196.483,39.62,37697.18016
2020/08/19 3:25:00,196.582,39.36,37717.25638
2020/08/19 3:26:00,196.681,39.1,37737.41586
2020/08/19 3:27:00,196.778,38.84,37757.65792
2020/08/19 3:28:00,196.875,38.58,37777.98184
2020/08/19 3:29:00,196.97,38.32,37798.38691
2020/08/19 3:30:00,197.065,38.06,37818.87241
2020/08/19 3:31:00,197.159,37.801,37839.43762
2020/08/19 3:32:00,197.252,37.541,37860.08181
2020/08/19 3:33:00,197.344,37.282,37880.80425
2020/08/19 3:34:00,197.435,37.022,37901.60418
2020/08/19 3:35:00,197.525,36.763,37922.48087
2020/08/19 3:36:00,197.615,36.504,37943.43356
2020/08/19 3:37:00,197.703,36.245,37964.46149
2020/08/19 3:38:00,197.791,35.986,37985.5639
2020/08/19 3:39:00,197.877,35.728,38006.74001
2020/08/19 3:40:00,197.963,35.469,38027.98904
2020/08/19 3:41:00,198.048,35.211,38049.31023
2020/08/19 3:42:00,198.132,34.952,38070.70276
2020/08/19 3:43:00,198.215,34.694,38092.16587
2020/08/19 3:44:00,198.297,34.436,38113.69874
2020/08/19 3:45:00,198.379,34.178,38135.30057
2020/08/19 3:46:00,198.459,33.921,38156.97056
2020/08/19 3:47:00,198.539,33.663,38178.70788
2020/08/19 3:48:00,198.618,33.406,38200.51173
2020/08/19 3:49:00,198.695,33.149,38222.38127
2020/08/19 3:50:00,198.773,32.892,38244.31568
2020/08/19 3:51:00,198.849,32.635,38266.31412
2020/08/19 3:52:00,198.924,32.378,38288.37576
2020/08/19 3:53:00,198.999,32.122,38310.49974
2020/08/19 3:54:00,199.073,31.866,38332.68523
2020/08/19 3:55:00,199.146,31.61,38354.93137
2020/08/19 3:56:00,199.218,31.354,38377.23729
2020/08/19 3:57:00,199.289,31.098,38399.60215
2020/08/19 3:58:00,199.359,30.843,38422.02507
2020/08/19 3:59:00,199.429,30.588,38444.50518
2020/08/19 4:00:00,199.471,30.431,38458.34785
