sat/group1-sr2.csv

Time (UTCG),Azimuth (deg),Elevation (deg),Range (km)
2020/8/18 4:00:00,237.22,58.341,36061.67362
2020/8/18 4:01:00,231.53,55.553,36222.24658
2020/8/18 4:02:00,226.806,52.478,36414.06956
2020/8/18 4:03:00,222.896,49.194,36635.70322
2020/8/18 4:04:00,219.656,45.759,36885.53152
2020/8/18 4:05:00,216.966,42.219,37161.78465
2020/8/18 4:06:00,214.724,38.608,37462.5631
2020/8/18 4:07:00,212.853,34.952,37785.8612
2020/8/18 4:08:00,211.29,31.271,38129.59054
2020/8/18 4:09:00,209.986,27.579,38491.6019
2020/8/18 4:10:00,208.901,23.889,38869.70613
2020/8/18 4:11:00,208.005,20.21,39261.69301
2020/8/18 4:12:00,207.275,16.549,39665.34859
2020/8/18 4:13:00,206.692,12.911,40078.47045
2020/8/18 4:14:00,206.241,9.302,40498.88104
2020/8/18 4:15:00,205.911,5.724,40924.43939
2020/8/18 4:16:00,205.694,2.18,41353.05089
2020/8/18 4:17:00,205.584,-1.327,41782.6756
2020/8/18 4:18:00,205.577,-4.795,42211.33509
2020/8/18 4:19:00,205.672,-8.224,42637.11805
2020/8/18 4:20:00,205.869,-11.611,43058.18468
2020/8/18 4:21:00,206.169,-14.956,43472.77032
2020/8/18 4:22:00,206.577,-18.255,43879.18804
2020/8/18 4:23:00,207.098,-21.509,44275.83076
2020/8/18 4:24:00,207.74,-24.715,44661.17269
2020/8/18 4:24:07,207.825,-25.092,44706.14578
2020/8/18 5:00:35,325.413,-24.833,44677.43857
2020/8/18 5:01:35,325.812,-21.795,44313.56226
2020/8/18 5:02:35,326.079,-18.709,43938.87899
2020/8/18 5:03:35,326.217,-15.596,43557.04585
2020/8/18 5:04:35,326.229,-12.459,43169.69271
2020/8/18 5:05:35,326.118,-9.303,42778.5106
2020/8/18 5:06:35,325.883,-6.131,42385.24798
2020/8/18 5:07:35,325.523,-2.948,41991.70579
2020/8/18 5:08:35,325.033,0.243,41599.73186
2020/8/18 5:09:35,324.409,3.436,41211.21415
2020/8/18 5:10:35,323.642,6.624,40828.07288
2020/8/18 5:11:35,322.723,9.801,40452.25146
2020/8/18 5:12:35,321.641,12.959,40085.70611
2020/8/18 5:13:35,320.383,16.086,39730.39415
2020/8/18 5:14:35,318.931,19.173,39388.26101
2020/8/18 5:15:35,317.267,22.205,39061.22579
2020/8/18 5:16:35,315.372,25.167,38751.16575
2020/8/18 5:17:35,313.222,28.039,38459.89976
2020/8/18 5:18:35,310.793,30.801,38189.17069
2020/8/18 5:19:35,308.062,33.427,37940.62744
2020/8/18 5:20:35,305.007,35.889,37715.8066
2020/8/18 5:21:35,301.609,38.155,37516.11432
2020/8/18 5:22:35,297.86,40.191,37342.80876
2020/8/18 5:23:35,293.762,41.961,37196.98359
2020/8/18 5:24:35,289.336,43.428,37079.55318
2020/8/18 5:25:35,284.625,44.557,36991.23962
2020/8/18 5:26:35,279.691,45.321,36932.56245
2020/8/18 5:27:35,274.622,45.698,36903.83097
2020/8/18 5:28:35,269.515,45.678,36905.13994
2020/8/18 5:29:35,264.476,45.264,36936.3683
2020/8/18 5:30:35,259.6,44.469,36997.18143
2020/8/18 5:31:35,254.969,43.318,37087.03642
2020/8/18 5:32:35,250.642,41.842,37205.19077
2020/8/18 5:33:35,246.657,40.076,37350.71335
2020/8/18 5:34:35,243.028,38.059,37522.4983
2020/8/18 5:35:35,239.756,35.827,37719.2803
2020/8/18 5:36:35,236.831,33.414,37939.65181
2020/8/18 5:37:35,234.232,30.852,38182.08073
2020/8/18 5:38:35,231.937,28.168,38444.92916
2020/8/18 5:39:35,229.923,25.388,38726.4715
2020/8/18 5:40:35,228.166,22.531,39024.9129
2020/8/18 5:41:35,226.644,19.616,39338.40638
2020/8/18 5:42:35,225.338,16.66,39665.06955
2020/8/18 5:43:35,224.231,13.674,40002.99986
2020/8/18 5:44:35,223.306,10.672,40350.28862
2020/8/18 5:45:35,222.551,7.662,40705.03383
2020/8/18 5:46:35,221.956,4.654,41065.35154
2020/8/18 5:47:35,221.511,1.654,41429.38583
2020/8/18 5:48:35,221.21,-1.331,41795.31755
2020/8/18 5:49:35,221.049,-4.294,42161.3719
2020/8/18 5:50:35,221.024,-7.231,42525.82476
2020/8/18 5:51:35,221.133,-10.136,42887.00811
2020/8/18 5:52:35,221.377,-13.005,43243.31451
2020/8/18 5:53:35,221.757,-15.832,43593.20079
2020/8/18 5:54:35,222.276,-18.613,43935.19101
2020/8/18 5:55:35,222.938,-21.343,44267.87889
2020/8/18 5:56:35,223.751,-24.017,44589.92967
2020/8/18 5:57:01,224.153,-25.162,44726.50232
2020/8/18 6:30:33,311.23,-24.853,44687.84439
2020/8/18 6:31:33,311.913,-22.326,44385.47713
2020/8/18 6:32:33,312.44,-19.756,44074.29148
2020/8/18 6:33:33,312.817,-17.151,43755.93158
2020/8/18 6:34:33,313.049,-14.518,43431.82542
2020/8/18 6:35:33,313.138,-11.863,43103.45279
2020/8/18 6:36:33,313.087,-9.192,42772.34133
2020/8/18 6:37:33,312.895,-6.512,42440.06167
2020/8/18 6:38:33,312.562,-3.829,42108.22203
2020/8/18 6:39:33,312.087,-1.151,41778.46201
2020/8/18 6:40:33,311.465,1.515,41452.44558
2020/8/18 6:41:33,310.694,4.159,41131.85316
2020/8/18 6:42:33,309.767,6.774,40818.37283
2020/8/18 6:43:33,308.679,9.348,40513.69057
2020/8/18 6:44:33,307.423,11.871,40219.47961
2020/8/18 6:45:33,305.991,14.329,39937.38895
2020/8/18 6:46:33,304.377,16.709,39669.03088
2020/8/18 6:47:33,302.573,18.996,39415.96803
2020/8/18 6:48:33,300.573,21.174,39179.69975
2020/8/18 6:49:33,298.372,23.225,38961.64803
2020/8/18 6:50:33,295.968,25.129,38763.14353
2020/8/18 6:51:33,293.363,26.868,38585.41144
2020/8/18 6:52:33,290.563,28.422,38429.55805
2020/8/18 6:53:33,287.578,29.77,38296.55782
2020/8/18 6:54:33,284.428,30.896,38187.24171
2020/8/18 6:55:33,281.137,31.78,38102.2868
2020/8/18 6:56:33,277.736,32.411,38042.20759
2020/8/18 6:57:33,274.262,32.778,38007.34931
2020/8/18 6:58:33,270.757,32.874,37997.88335
2020/8/18 6:59:33,267.264,32.7,38013.80504
2020/8/18 7:00:33,263.824,32.259,38054.93377
2020/8/18 7:01:33,260.479,31.56,38120.91558
2020/8/18 7:02:33,257.261,30.614,38211.22795
2020/8/18 7:03:33,254.2,29.439,38325.18694
2020/8/18 7:04:33,251.317,28.053,38461.95602
2020/8/18 7:05:33,248.627,26.474,38620.55696
2020/8/18 7:06:33,246.139,24.723,38799.88167
2020/8/18 7:07:33,243.857,22.821,38998.70562
2020/8/18 7:08:33,241.78,20.787,39215.70144
2020/8/18 7:09:33,239.904,18.64,39449.45349
2020/8/18 7:10:33,238.225,16.396,39698.47205
2020/8/18 7:11:33,236.736,14.072,39961.20777
2020/8/18 7:12:33,235.429,11.684,40236.06547
2020/8/18 7:13:33,234.297,9.243,40521.4173
2020/8/18 7:14:33,233.332,6.762,40815.61548
2020/8/18 7:15:33,232.528,4.253,41117.00383
2020/8/18 7:16:33,231.88,1.725,41423.92854
2020/8/18 7:17:33,231.381,-0.813,41734.74796
2020/8/18 7:18:33,231.029,-3.352,42047.84129
2020/8/18 7:19:33,230.82,-5.884,42361.61653
2020/8/18 7:20:33,230.752,-8.403,42674.5173
2020/8/18 7:21:33,230.824,-10.9,42985.02883
2020/8/18 7:22:33,231.036,-13.371,43291.68319
2020/8/18 7:23:33,231.389,-15.807,43593.06374
2020/8/18 7:24:33,231.885,-18.202,43887.80889
2020/8/18 7:25:33,232.526,-20.551,44174.61528
2020/8/18 7:26:33,233.317,-22.845,44452.24045
2020/8/18 7:27:33,234.262,-25.078,44719.50509
2020/8/18 7:27:36,234.311,-25.183,44731.95804
2020/8/18 7:58:29,304.762,-24.736,44674.13156
2020/8/18 7:59:29,305.639,-22.527,44409.48731
2020/8/18 8:00:29,306.366,-20.25,44133.93105
2020/8/18 8:01:29,306.943,-17.925,43850.03391
2020/8/18 8:02:29,307.374,-15.558,43559.07952
2020/8/18 8:03:29,307.66,-13.157,43262.40742
2020/8/18 8:04:29,307.805,-10.728,42961.40963
2020/8/18 8:05:29,307.808,-8.279,42657.5263
2020/8/18 8:06:29,307.67,-5.816,42352.24102
2020/8/18 8:07:29,307.39,-3.348,42047.0754
2020/8/18 8:08:29,306.966,-0.881,41743.58298
2020/8/18 8:09:29,306.395,1.575,41443.34231
2020/8/18 8:10:29,305.675,4.012,41147.94942
2020/8/18 8:11:29,304.8,6.42,40859.00929
2020/8/18 8:12:29,303.767,8.788,40578.12663
2020/8/18 8:13:29,302.569,11.105,40306.89583
2020/8/18 8:14:29,301.202,13.359,40046.89002
2020/8/18 8:15:29,299.66,15.536,39799.64969
2020/8/18 8:16:29,297.939,17.621,39566.67033
2020/8/18 8:17:29,296.036,19.599,39349.38979
2020/8/18 8:18:29,293.948,21.453,39149.17546
2020/8/18 8:19:29,291.676,23.166,38967.31086
2020/8/18 8:20:29,289.225,24.72,38804.98283
2020/8/18 8:21:29,286.602,26.098,38663.26867
2020/8/18 8:22:29,283.82,27.282,38543.12427
2020/8/18 8:23:29,280.897,28.257,38445.37274
2020/8/18 8:24:29,277.857,29.008,38370.69464
2020/8/18 8:25:29,274.726,29.523,38319.61934
2020/8/18 8:26:29,271.537,29.796,38292.51832
2020/8/18 8:27:29,268.326,29.821,38289.60019
2020/8/18 8:28:29,265.127,29.597,38310.90786
2020/8/18 8:29:29,261.977,29.128,38356.31783
2020/8/18 8:30:29,258.908,28.421,38425.54162
2020/8/18 8:31:29,255.948,27.487,38518.12937
2020/8/18 8:32:29,253.124,26.339,38633.47537
2020/8/18 8:33:29,250.453,24.993,38770.8256
2020/8/18 8:34:29,247.95,23.465,38929.28675
2020/8/18 8:35:29,245.623,21.773,39107.83681
2020/8/18 8:36:29,243.478,19.935,39305.33659
2020/8/18 8:37:29,241.516,17.968,39520.54236
2020/8/18 8:38:29,239.736,15.888,39752.11868
2020/8/18 8:39:29,238.134,13.712,39998.65193
2020/8/18 8:40:29,236.707,11.453,40258.66345
2020/8/18 8:41:29,235.449,9.127,40530.62284
2020/8/18 8:42:29,234.355,6.745,40812.96061
2020/8/18 8:43:29,233.42,4.318,41104.08033
2020/8/18 8:44:29,232.638,1.858,41402.37022
2020/8/18 8:45:29,232.006,-0.625,41706.2138
2020/8/18 8:46:29,231.519,-3.124,42013.99978
2020/8/18 8:47:29,231.176,-5.629,42324.13104
2020/8/18 8:48:29,230.974,-8.132,42635.0328
2020/8/18 8:49:29,230.912,-10.627,42945.15983
2020/8/18 8:50:29,230.99,-13.107,43253.00291
2020/8/18 8:51:29,231.209,-15.564,43557.09445
2020/8/18 8:52:29,231.571,-17.993,43856.0134
2020/8/18 8:53:29,232.08,-20.385,44148.38941
2020/8/18 8:54:29,232.739,-22.735,44432.9065
2020/8/18 8:55:29,233.549,-25.023,44706.90784
2020/8/18 9:27:30,309.564,-24.684,44659.57899
2020/8/18 9:28:30,310.473,-22.287,44371.98342
2020/8/18 9:29:30,311.232,-19.822,44072.89972
2020/8/18 9:30:30,311.84,-17.302,43764.39021
2020/8/18 9:31:30,312.303,-14.733,43447.76797
2020/8/18 9:32:30,312.624,-12.122,43124.41334
2020/8/18 9:33:30,312.804,-9.475,42795.77092
2020/8/18 9:34:30,312.843,-6.797,42463.34602
2020/8/18 9:35:30,312.742,-4.095,42128.70048
2020/8/18 9:36:30,312.498,-1.376,41793.44775
2020/8/18 9:37:30,312.108,1.353,41459.2471
2020/8/18 9:38:30,311.568,4.086,41127.79704
2020/8/18 9:39:30,310.872,6.813,40800.82772
2020/8/18 9:40:30,310.012,9.525,40480.09241
2020/8/18 9:41:30,308.98,12.212,40167.35787
2020/8/18 9:42:30,307.767,14.863,39864.39372
2020/8/18 9:43:30,306.361,17.464,39572.96078
2020/8/18 9:44:30,304.751,20.002,39294.79832
2020/8/18 9:45:30,302.925,22.458,39031.61057
2020/8/18 9:46:30,300.871,24.816,38785.05206
2020/8/18 9:47:30,298.577,27.055,38556.71281
2020/8/18 9:48:30,296.036,29.153,38348.10254
2020/8/18 9:49:30,293.243,31.086,38160.63522
2020/8/18 9:50:30,290.196,32.828,37995.61326
2020/8/18 9:51:30,286.905,34.355,37854.21258
2020/8/18 9:52:30,283.386,35.64,37737.46809
2020/8/18 9:53:30,279.665,36.661,37646.26074
2020/8/18 9:54:30,275.781,37.396,37581.30573
2020/8/18 9:55:30,271.782,37.83,37543.14294
2020/8/18 9:56:30,267.722,37.952,37532.12929
2020/8/18 9:57:30,263.662,37.758,37548.43366
2020/8/18 9:58:30,259.66,37.252,37592.03428
2020/8/18 9:59:30,255.773,36.443,37662.71892
2020/8/18 10:00:30,252.046,35.348,37760.08759
2020/8/18 10:01:30,248.518,33.986,37883.5579
2020/8/18 10:02:30,245.214,32.38,38032.37274
2020/8/18 10:03:30,242.151,30.555,38205.61017
2020/8/18 10:04:30,239.334,28.537,38402.19511
2020/8/18 10:05:30,236.765,26.35,38620.91248
2020/8/18 10:06:30,234.437,24.016,38860.42158
2020/8/18 10:07:30,232.341,21.559,39119.27108
2020/8/18 10:08:30,230.467,18.997,39395.91466
2020/8/18 10:09:30,228.802,16.349,39688.72642
2020/8/18 10:10:30,227.334,13.63,39996.01636
2020/8/18 10:11:30,226.051,10.854,40316.04526
2020/8/18 10:12:30,224.943,8.035,40647.03884
2020/8/18 10:13:30,223.999,5.182,40987.20128
2020/8/18 10:14:30,223.212,2.306,41334.72764
2020/8/18 10:15:30,222.573,-0.585,41687.8153
2020/8/18 10:16:30,222.078,-3.483,42044.67437
2020/8/18 10:17:30,221.722,-6.381,42403.5371
2020/8/18 10:18:30,221.503,-9.273,42762.66617
2020/8/18 10:19:30,221.419,-12.153,43120.36198
2020/8/18 10:20:30,221.47,-15.016,43474.96911
2020/8/18 10:21:30,221.659,-17.857,43824.88178
2020/8/18 10:22:30,221.988,-20.671,44168.5486
2020/8/18 10:23:30,222.463,-23.452,44504.47648
2020/8/18 10:24:00,222.758,-24.831,44669.4785
2020/8/18 10:59:19,323.166,-24.725,44647.61998
2020/8/18 11:00:18,323.928,-21.826,44299.28833
2020/8/18 11:01:18,324.555,-18.843,43936.19867
2020/8/18 11:02:18,325.047,-15.809,43563.2451
2020/8/18 11:03:18,325.409,-12.727,43181.92805
2020/8/18 11:04:18,325.644,-9.602,42793.82713
2020/8/18 11:05:18,325.756,-6.436,42400.59875
2020/8/18 11:06:18,325.742,-3.233,42003.97306
2020/8/18 11:07:18,325.603,0.003,41605.75003
2020/8/18 11:08:18,325.334,3.268,41207.7946
2020/8/18 11:09:18,324.929,6.559,40812.03072
2020/8/18 11:10:18,324.381,9.869,40420.43421
2020/8/18 11:11:18,323.678,13.194,40035.02431
2020/8/18 11:12:18,322.809,16.525,39657.85383
2020/8/18 11:13:18,321.755,19.854,39290.99772
2020/8/18 11:14:18,320.497,23.172,38936.54017
2020/8/18 11:15:18,319.011,26.465,38596.56009
2020/8/18 11:16:18,317.266,29.718,38273.11514
2020/8/18 11:17:18,315.228,32.914,37968.22397
2020/8/18 11:18:18,312.857,36.029,37683.84767
2020/8/18 11:19:18,310.107,39.036,37421.86962
2020/8/18 11:20:18,306.93,41.902,37184.07502
2020/8/18 11:21:18,303.274,44.588,36972.12969
2020/8/18 11:22:18,299.093,47.047,36787.5593
2020/8/18 11:23:18,294.355,49.226,36631.72893
2020/8/18 11:24:18,289.054,51.067,36505.82411
2020/8/18 11:25:18,283.224,52.51,36410.83343
2020/8/18 11:26:18,276.955,53.499,36347.53358
2020/8/18 11:27:18,270.392,53.991,36316.47732
2020/8/18 11:28:18,263.726,53.963,36317.98468
2020/8/18 11:29:18,257.165,53.413,36352.13781
2020/8/18 11:30:18,250.897,52.365,36418.77966
2020/8/18 11:31:18,245.068,50.863,36517.51656
2020/8/18 11:32:18,239.761,48.962,36647.72446
2020/8/18 11:33:18,235.011,46.719,36808.55879
2020/8/18 11:34:18,230.808,44.193,36998.96734
2020/8/18 11:35:18,227.12,41.436,37217.70589
2020/8/18 11:36:18,223.9,38.494,37463.35585
2020/8/18 11:37:18,221.096,35.406,37734.34354
2020/8/18 11:38:18,218.659,32.204,38028.96033
2020/8/18 11:39:18,216.543,28.915,38345.38328
2020/8/18 11:40:18,214.708,25.562,38681.6956
2020/8/18 11:41:18,213.12,22.161,39035.90672
2020/8/18 11:42:18,211.747,18.729,39405.97132
2020/8/18 11:43:18,210.566,15.276,39789.80741
2020/8/18 11:44:18,209.555,11.813,40185.31292
2020/8/18 11:45:18,208.697,8.347,40590.38085
2020/8/18 11:46:18,207.977,4.886,41002.91305
2020/8/18 11:47:18,207.386,1.434,41420.83225
2020/8/18 11:48:18,206.913,-2.005,41842.09282
2020/8/18 11:49:18,206.552,-5.426,42264.68997
2020/8/18 11:50:18,206.299,-8.828,42686.66769
2020/8/18 11:51:18,206.149,-12.207,43106.12549
2020/8/18 11:52:18,206.103,-15.562,43521.22402
2020/8/18 11:53:18,206.162,-18.89,43930.18973
2020/8/18 11:54:18,206.327,-22.191,44331.31863
2020/8/18 11:55:06,206.541,-24.827,44647.53948
2020/8/18 12:32:41,340.84,-24.784,44632.30243
2020/8/18 12:33:41,341.35,-21.395,44224.59039
2020/8/18 12:34:41,341.773,-17.942,43803.2401
2020/8/18 12:35:41,342.112,-14.446,43372.11613
2020/8/18 12:36:41,342.372,-10.905,42932.91363
2020/8/18 12:37:41,342.556,-7.321,42487.4155
2020/8/18 12:38:41,342.666,-3.692,42037.49042
2020/8/18 12:39:41,342.703,-0.019,41585.09002
2020/8/18 12:40:41,342.667,3.698,41132.24509
2020/8/18 12:41:41,342.553,7.46,40681.06054
2020/8/18 12:42:41,342.359,11.265,40233.70904
2020/8/18 12:43:41,342.077,15.113,39792.3812
2020/8/18 12:44:41,341.698,19.003,39359.44471
2020/8/18 12:45:41,341.211,22.932,38937.17804
2020/8/18 12:46:41,340.599,26.899,38527.92774
2020/8/18 12:47:41,339.842,30.899,38134.04987
2020/8/18 12:48:41,338.91,34.928,37757.89238
2020/8/18 12:49:41,337.767,38.977,37401.77501
2020/8/18 12:50:41,336.359,43.039,37067.96761
2020/8/18 12:51:41,334.617,47.1,36758.66637
2020/8/18 12:52:41,332.44,51.142,36475.9689
2020/8/18 12:53:41,329.685,55.14,36221.84808
2020/8/18 12:54:41,326.146,59.057,35998.12586
2020/8/18 12:55:41,321.516,62.835,35806.44707
2020/8/18 12:56:41,315.354,66.388,35648.25462
2020/8/18 12:57:41,307.053,69.573,35524.76647
2020/8/18 12:58:41,295.934,72.173,35436.95545
2020/8/18 12:59:41,281.705,73.886,35385.53257
2020/8/18 13:00:41,265.338,74.405,35370.93463
2020/8/18 13:01:41,249.245,73.612,35393.31654
2020/8/18 13:02:41,235.624,71.678,35452.54867
2020/8/18 13:03:41,225.118,68.922,35548.21946
2020/8/18 13:04:41,217.287,65.63,35679.64303
2020/8/18 13:05:41,211.448,62.003,35845.87151
2020/8/18 13:06:41,207.026,58.167,36045.71157
2020/8/18 13:07:41,203.611,54.203,36277.7444
2020/8/18 13:08:41,200.922,50.163,36540.34845
2020/8/18 13:09:41,198.765,46.081,36831.72395
2020/8/18 13:10:41,197.008,41.981,37149.91864
2020/8/18 13:11:41,195.558,37.879,37492.85358
2020/8/18 13:12:41,194.347,33.787,37858.3488
2020/8/18 13:13:41,193.326,29.714,38244.14774
2020/8/18 13:14:41,192.459,25.666,38647.94048
2020/8/18 13:15:41,191.717,21.648,39067.38505
2020/8/18 13:16:41,191.08,17.663,39500.12693
2020/8/18 13:17:41,190.53,13.714,39943.81638
2020/8/18 13:18:41,190.056,9.802,40396.12367
2020/8/18 13:19:41,189.646,5.927,40854.75243
2020/8/18 13:20:41,189.292,2.09,41317.45093
2020/8/18 13:21:41,188.989,-1.709,41782.02158
2020/8/18 13:22:41,188.73,-5.471,42246.32891
2020/8/18 13:23:41,188.513,-9.196,42708.30596
2020/8/18 13:24:41,188.333,-12.885,43165.95956
2020/8/18 13:25:41,188.189,-16.54,43617.37433
2020/8/18 13:26:41,188.08,-20.161,44060.71586
2020/8/18 13:27:41,188.003,-23.751,44494.23307
2020/8/18 13:28:00,187.986,-24.904,44631.89948
2020/8/18 14:06:26,359.898,-24.867,44618.1869
2020/8/18 14:07:26,0.101,-21.27,44185.43733
2020/8/18 14:08:26,0.298,-17.634,43741.39122
2020/8/18 14:09:26,0.493,-13.963,43288.22538
2020/8/18 14:10:26,0.688,-10.253,42827.73138
2020/8/18 14:11:26,0.886,-6.505,42361.78809
2020/8/18 14:12:26,1.09,-2.715,41892.35954
2020/8/18 14:13:26,1.302,1.118,41421.49182
2020/8/18 14:14:26,1.525,4.994,40951.30895
2020/8/18 14:15:26,1.763,8.915,40484.00726
2020/8/18 14:16:26,2.02,12.883,40021.84845
2020/8/18 14:17:26,2.302,16.897,39567.15079
2020/8/18 14:18:26,2.613,20.958,39122.27853
2020/8/18 14:19:26,2.961,25.066,38689.62919
2020/8/18 14:20:26,3.356,29.221,38271.61864
2020/8/18 14:21:26,3.811,33.421,37870.66405
2020/8/18 14:22:26,4.34,37.665,37489.16428
2020/8/18 14:23:26,4.967,41.95,37129.4783
2020/8/18 14:24:26,5.723,46.274,36793.9014
2020/8/18 14:25:26,6.652,50.63,36484.63978
2020/8/18 14:26:26,7.824,55.014,36203.78367
2020/8/18 14:27:26,9.346,59.414,35953.27992
2020/8/18 14:28:26,11.398,63.817,35734.90428
2020/8/18 14:29:26,14.3,68.201,35550.23469
2020/8/18 14:30:26,18.681,72.521,35400.62605
2020/8/18 14:31:26,25.912,76.689,35287.18754
2020/8/18 14:32:26,39.318,80.467,35210.76346
2020/8/18 14:33:26,66.166,83.146,35171.91812
2020/8/18 14:34:26,105.773,83.241,35170.92573
2020/8/18 14:35:26,133.664,80.673,35207.76554
2020/8/18 14:36:26,147.611,76.936,35282.12245
2020/8/18 14:37:26,155.062,72.788,35393.3932
2020/8/18 14:38:26,159.529,68.479,35540.69772
2020/8/18 14:39:26,162.453,64.106,35722.89518
2020/8/18 14:40:26,164.49,59.713,35938.60403
2020/8/18 14:41:26,165.973,55.323,36186.22524
2020/8/18 14:42:26,167.088,50.95,36463.96783
2020/8/18 14:43:26,167.944,46.605,36769.87579
2020/8/18 14:44:26,168.611,42.295,37101.8554
2020/8/18 14:45:26,169.135,38.023,37457.70258
2020/8/18 14:46:26,169.547,33.794,37835.12895
2020/8/18 14:47:26,169.869,29.609,38231.78679
2020/8/18 14:48:26,170.116,25.472,38645.2919
2020/8/18 14:49:26,170.299,21.383,39073.24456
2020/8/18 14:50:26,170.426,17.342,39513.24819
2020/8/18 14:51:26,170.504,13.349,39962.92564
2020/8/18 14:52:26,170.536,9.405,40419.93347
2020/8/18 14:53:26,170.526,5.509,40881.97396
2020/8/18 14:54:26,170.474,1.661,41346.80523
2020/8/18 14:55:26,170.382,-2.142,41812.24953
2020/8/18 14:56:26,170.249,-5.899,42276.20004
2020/8/18 14:57:26,170.074,-9.612,42736.62617
2020/8/18 14:58:26,169.855,-13.281,43191.57777
2020/8/18 14:59:26,169.589,-16.909,43639.18823
2020/8/18 15:00:26,169.271,-20.496,44077.67681
2020/8/18 15:01:26,168.897,-24.043,44505.35022
2020/8/18 15:01:42,168.789,-24.967,44615.57729
2020/8/18 15:39:42,18.881,-24.986,44611.29066
2020/8/18 15:40:42,18.756,-21.554,44198.74887
2020/8/18 15:41:42,18.712,-18.09,43776.12169
2020/8/18 15:42:42,18.748,-14.597,43345.43341
2020/8/18 15:43:42,18.862,-11.074,42908.436
2020/8/18 15:44:42,19.055,-7.523,42466.95767
2020/8/18 15:45:42,19.33,-3.944,42022.89986
2020/8/18 15:46:42,19.689,-0.337,41578.23341
2020/8/18 15:47:42,20.138,3.295,41134.99354
2020/8/18 15:48:42,20.686,6.952,40695.27366
2020/8/18 15:49:42,21.34,10.63,40261.21775
2020/8/18 15:50:42,22.115,14.327,39835.01108
2020/8/18 15:51:42,23.025,18.037,39418.86938
2020/8/18 15:52:42,24.089,21.756,39015.02605
2020/8/18 15:53:42,25.332,25.475,38625.71763
2020/8/18 15:54:42,26.783,29.186,38253.16718
2020/8/18 15:55:42,28.48,32.875,37899.56603
2020/8/18 15:56:42,30.469,36.528,37567.05356
2020/8/18 15:57:42,32.807,40.124,37257.6957
2020/8/18 15:58:42,35.566,43.636,36973.46201
2020/8/18 15:59:42,38.833,47.032,36716.20216
2020/8/18 16:00:42,42.711,50.266,36487.62211
2020/8/18 16:01:42,47.315,53.285,36289.26063
2020/8/18 16:02:42,52.763,56.016,36122.46694
2020/8/18 16:03:42,59.151,58.372,35988.38007
2020/8/18 16:04:42,66.504,60.256,35887.91079
2020/8/18 16:05:42,74.725,61.563,35821.72663
2020/8/18 16:06:42,83.547,62.209,35790.24072
2020/8/18 16:07:42,92.554,62.146,35793.60488
2020/8/18 16:08:42,101.274,61.38,35831.70711
2020/8/18 16:09:42,109.315,59.97,35904.17385
2020/8/18 16:10:42,116.448,58.008,36010.37665
2020/8/18 16:11:42,122.603,55.598,36149.44315
2020/8/18 16:12:42,127.827,52.838,36320.27181
2020/8/18 16:13:42,132.221,49.812,36521.54994
2020/8/18 16:14:42,135.904,46.587,36751.77428
2020/8/18 16:15:42,138.989,43.217,37009.27314
2020/8/18 16:16:42,141.575,39.744,37292.23018
2020/8/18 16:17:42,143.746,36.2,37598.70794
2020/8/18 16:18:42,145.569,32.608,37926.67177
2020/8/18 16:19:42,147.099,28.99,38274.01247
2020/8/18 16:20:42,148.38,25.36,38638.56823
2020/8/18 16:21:42,149.445,21.729,39018.14464
2020/8/18 16:22:42,150.324,18.108,39410.53333
2020/8/18 16:23:42,151.037,14.503,39813.52852
2020/8/18 16:24:42,151.602,10.921,40224.94168
2020/8/18 16:25:42,152.033,7.365,40642.61454
2020/8/18 16:26:42,152.339,3.841,41064.43003
2020/8/18 16:27:42,152.528,0.351,41488.32171
2020/8/18 16:28:42,152.605,-3.102,41912.28158
2020/8/18 16:29:42,152.573,-6.517,42334.36654
2020/8/18 16:30:42,152.434,-9.89,42752.70361
2020/8/18 16:31:42,152.186,-13.221,43165.49408
2020/8/18 16:32:42,151.827,-16.507,43571.01672
2020/8/18 16:33:42,151.353,-19.746,43967.63028
2020/8/18 16:34:42,150.757,-22.937,44353.77526
2020/8/18 16:35:21,150.298,-24.99,44599.2939
2020/8/18 17:11:36,36.354,-25.121,44612.53341
2020/8/18 17:12:35,35.913,-22.16,44257.2913
2020/8/18 17:13:35,35.607,-19.142,43890.20869
2020/8/18 17:14:35,35.433,-16.096,43515.88694
2020/8/18 17:15:35,35.387,-13.026,43135.91897
2020/8/18 17:16:35,35.468,-9.935,42751.95819
2020/8/18 17:17:35,35.675,-6.828,42365.71498
2020/8/18 17:18:35,36.009,-3.709,41978.9521
2020/8/18 17:19:35,36.475,-0.583,41593.47932
2020/8/18 17:20:35,37.075,2.545,41211.14709
2020/8/18 17:21:35,37.819,5.668,40833.83898
2020/8/18 17:22:35,38.714,8.78,40463.46307
2020/8/18 17:23:35,39.77,11.871,40101.94196
2020/8/18 17:24:35,41.001,14.933,39751.2015
2020/8/18 17:25:35,42.421,17.953,39413.15832
2020/8/18 17:26:35,44.047,20.919,39089.70577
2020/8/18 17:27:35,45.897,23.814,38782.69895
2020/8/18 17:28:35,47.992,26.622,38493.93852
2020/8/18 17:29:35,50.352,29.32,38225.15351
2020/8/18 17:30:35,52.999,31.884,37977.98373
2020/8/18 17:31:35,55.95,34.289,37753.9616
2020/8/18 17:32:35,59.222,36.504,37554.49432
2020/8/18 17:33:35,62.819,38.497,37380.8463
2020/8/18 17:34:35,66.739,40.234,37234.1227
2020/8/18 17:35:35,70.962,41.681,37115.25437
2020/8/18 17:36:35,75.45,42.807,37024.97613
2020/8/18 17:37:35,80.146,43.584,36963.85148
2020/8/18 17:38:35,84.974,43.993,36932.20932
2020/8/18 17:39:35,89.848,44.023,36930.17705
2020/8/18 17:40:35,94.674,43.675,36957.66874
2020/8/18 17:41:35,99.364,42.959,37014.3867
2020/8/18 17:42:35,103.843,41.897,37099.82595
2020/8/18 17:43:35,108.052,40.516,37213.28211
2020/8/18 17:44:35,111.953,38.848,37353.86175
2020/8/18 17:45:35,115.525,36.928,37520.49555
2020/8/18 17:46:35,118.764,34.79,37711.95298
2020/8/18 17:47:35,121.676,32.467,37926.85915
2020/8/18 17:48:35,124.275,29.989,38163.71204
2020/8/18 17:49:35,126.58,27.385,38420.90095
2020/8/18 17:50:35,128.61,24.677,38696.72461
2020/8/18 17:51:35,130.387,21.888,38989.40942
2020/8/18 17:52:35,131.93,19.037,39297.12674
2020/8/18 17:53:35,133.258,16.138,39618.0097
2020/8/18 17:54:35,134.387,13.206,39950.16865
2020/8/18 17:55:35,135.332,10.253,40291.70542
2020/8/18 17:56:35,136.105,7.29,40640.7265
2020/8/18 17:57:35,136.716,4.325,40995.35462
2020/8/18 17:58:35,137.173,1.367,41353.73914
2020/8/18 17:59:35,137.484,-1.578,41714.06507
2020/8/18 18:00:35,137.653,-4.503,42074.56094
2020/8/18 18:01:35,137.683,-7.403,42433.50548
2020/8/18 18:02:35,137.576,-10.272,42789.23328
2020/8/18 18:03:35,137.332,-13.104,43140.13952
2020/8/18 18:04:35,136.948,-15.894,43484.68386
2020/8/18 18:05:35,136.424,-18.638,43821.39363
2020/8/18 18:06:35,135.753,-21.33,44148.86638
2020/8/18 18:07:35,134.931,-23.964,44465.77187
2020/8/18 18:07:58,134.567,-24.977,44586.48442
2020/8/18 18:41:10,49.821,-25.138,44608.16162
2020/8/18 18:42:10,49.104,-22.685,44314.22296
2020/8/18 18:43:10,48.536,-20.169,44009.2805
2020/8/18 18:44:10,48.118,-17.617,43696.9032
2020/8/18 18:45:10,47.846,-15.035,43378.48532
2020/8/18 18:46:10,47.716,-12.428,43055.4731
2020/8/18 18:47:10,47.726,-9.804,42729.36112
2020/8/18 18:48:10,47.876,-7.168,42401.68782
2020/8/18 18:49:10,48.166,-4.528,42074.03042
2020/8/18 18:50:10,48.598,-1.89,41747.99917
2020/8/18 18:51:10,49.175,0.738,41425.23072
2020/8/18 18:52:10,49.899,3.348,41107.38072
2020/8/18 18:53:10,50.777,5.931,40796.11546
2020/8/18 18:54:10,51.813,8.476,40493.10265
2020/8/18 18:55:10,53.013,10.974,40200.00123
2020/8/18 18:56:10,54.386,13.411,39918.45037
2020/8/18 18:57:10,55.937,15.775,39650.03932
2020/8/18 18:58:10,57.674,18.05,39396.36961
2020/8/18 18:59:10,59.602,20.222,39158.92642
2020/8/18 19:00:10,61.727,22.272,38939.1437
2020/8/18 19:01:10,64.05,24.183,38738.37008
2020/8/18 19:02:10,66.572,25.935,38557.85485
2020/8/18 19:03:10,69.286,27.51,38398.73434
2020/8/18 19:04:10,72.183,28.887,38262.01881
2020/8/18 19:05:10,75.246,30.048,38148.5804
2020/8/18 19:06:10,78.454,30.977,38059.14211
2020/8/18 19:07:10,81.777,31.659,37994.2686
2020/8/18 19:08:10,85.18,32.082,37954.35859
2020/8/18 19:09:10,88.625,32.241,37939.63946
2020/8/18 19:10:10,92.07,32.133,37950.16403
2020/8/18 19:11:10,95.473,31.76,37985.80973
2020/8/18 19:12:10,98.796,31.129,38046.28016
2020/8/18 19:13:10,102.003,30.251,38131.10885
2020/8/18 19:14:10,105.065,29.141,38239.66556
2020/8/18 19:15:10,107.959,27.816,38371.16421
2020/8/18 19:16:10,110.668,26.295,38524.67304
2020/8/18 19:17:10,113.181,24.598,38699.12589
2020/8/18 19:18:10,115.493,22.743,38893.33506
2020/8/18 19:19:10,117.603,20.751,39106.00469
2020/8/18 19:20:10,119.514,18.641,39335.74508
2020/8/18 19:21:10,121.229,16.429,39581.08686
2020/8/18 19:22:10,122.754,14.132,39840.4955
2020/8/18 19:23:10,124.097,11.765,40112.38534
2020/8/18 19:24:10,125.264,9.342,40395.13297
2020/8/18 19:25:10,126.262,6.875,40687.09036
2020/8/18 19:26:10,127.097,4.376,40986.59681
2020/8/18 19:27:10,127.776,1.854,41291.99021
2020/8/18 19:28:10,128.303,-0.68,41601.61714
2020/8/18 19:29:10,128.682,-3.218,41913.84232
2020/8/18 19:30:10,128.917,-5.752,42227.05685
2020/8/18 19:31:10,129.008,-8.274,42539.68551
2020/8/18 19:32:10,128.958,-10.777,42850.19329
2020/8/18 19:33:10,128.767,-13.254,43157.09099
2020/8/18 19:34:10,128.433,-15.699,43458.94001
2020/8/18 19:35:10,127.954,-18.104,43754.35657
2020/8/18 19:36:10,127.329,-20.463,44042.01509
2020/8/18 19:37:10,126.552,-22.769,44320.65121
2020/8/18 19:38:07,125.674,-24.898,44575.15477
2020/8/18 20:09:03,54.917,-24.936,44586.01155
2020/8/18 20:10:03,54.018,-22.716,44320.15377
2020/8/18 20:11:03,53.272,-20.435,44044.00535
2020/8/18 20:12:03,52.675,-18.105,43759.25063
2020/8/18 20:13:03,52.225,-15.732,43467.16268
2020/8/18 20:14:03,51.918,-13.323,43169.0714
2020/8/18 20:15:03,51.753,-10.884,42866.36005
2020/8/18 20:16:03,51.728,-8.424,42560.46134
2020/8/18 20:17:03,51.843,-5.947,42252.85298
2020/8/18 20:18:03,52.1,-3.463,41945.05256
2020/8/18 20:19:03,52.5,-0.978,41638.61172
2020/8/18 20:20:03,53.046,1.499,41335.10973
2020/8/18 20:21:03,53.741,3.96,41036.14605
2020/8/18 20:22:03,54.59,6.396,40743.33234
2020/8/18 20:23:03,55.597,8.795,40458.2834
2020/8/18 20:24:03,56.769,11.148,40182.60747
2020/8/18 20:25:03,58.112,13.441,39917.89557
2020/8/18 20:26:03,59.63,15.661,39665.71015
2020/8/18 20:27:03,61.33,17.794,39427.57312
2020/8/18 20:28:03,63.216,19.824,39204.95307
2020/8/18 20:29:03,65.292,21.735,38999.2524
2020/8/18 20:30:03,67.556,23.508,38811.79389
2020/8/18 20:31:03,70.008,25.126,38643.80761
2020/8/18 20:32:03,72.641,26.57,38496.41766
2020/8/18 20:33:03,75.442,27.822,38370.62985
2020/8/18 20:34:03,78.396,28.865,38267.31977
2020/8/18 20:35:03,81.48,29.684,38187.22235
2020/8/18 20:36:03,84.666,30.266,38130.92242
2020/8/18 20:37:03,87.922,30.6,38098.84723
2020/8/18 20:38:03,91.212,30.682,38091.26056
2020/8/18 20:39:03,94.498,30.509,38108.25906
2020/8/18 20:40:03,97.743,30.083,38149.7706
2020/8/18 20:41:03,100.911,29.412,38215.55495
2020/8/18 20:42:03,103.972,28.505,38305.20649
2020/8/18 20:43:03,106.898,27.375,38418.15919
2020/8/18 20:44:03,109.668,26.039,38553.69344
2020/8/18 20:45:03,112.267,24.513,38710.94467
2020/8/18 20:46:03,114.686,22.815,38888.91356
2020/8/18 20:47:03,116.917,20.964,39086.4774
2020/8/18 20:48:03,118.96,18.977,39302.40254
2020/8/18 20:49:03,120.816,16.872,39535.35736
2020/8/18 20:50:03,122.488,14.665,39783.92583
2020/8/18 20:51:03,123.98,12.372,40046.62096
2020/8/18 20:52:03,125.299,10.006,40321.83308
2020/8/18 20:53:03,126.45,7.581,40608.10205
2020/8/18 20:54:03,127.439,5.108,40903.74453
2020/8/18 20:55:03,128.271,2.599,41207.1204
2020/8/18 20:56:03,128.951,0.063,41516.58101
2020/8/18 20:57:03,129.483,-2.491,41830.47955
2020/8/18 20:58:03,129.87,-5.053,42147.18062
2020/8/18 20:59:03,130.115,-7.617,42465.06882
2020/8/18 21:00:03,130.218,-10.174,42782.55652
2020/8/18 21:01:03,130.18,-12.718,43098.09075
2020/8/18 21:02:03,129.999,-15.242,43410.1593
2020/8/18 21:03:03,129.674,-17.739,43717.296
2020/8/18 21:04:03,129.201,-20.203,44018.08531
2020/8/18 21:05:03,128.577,-22.626,44311.16629
2020/8/18 21:05:55,127.905,-24.698,44559.19214
2020/8/18 21:38:28,48.68,-24.767,44575.65306
2020/8/18 21:39:27,47.792,-22.329,44283.45891
2020/8/18 21:40:27,47.045,-19.795,43976.27945
2020/8/18 21:41:27,46.447,-17.207,43659.54312
2020/8/18 21:42:27,45.994,-14.572,43334.58454
2020/8/18 21:43:27,45.682,-11.894,43002.80612
2020/8/18 21:44:27,45.509,-9.18,42665.6752
2020/8/18 21:45:27,45.475,-6.436,42324.7206
2020/8/18 21:46:27,45.581,-3.666,41981.52859
2020/8/18 21:47:27,45.829,-0.878,41637.73806
2020/8/18 21:48:27,46.221,1.922,41295.03494
2020/8/18 21:49:27,46.763,4.726,40955.14567
2020/8/18 21:50:27,47.461,7.528,40619.82977
2020/8/18 21:51:27,48.322,10.317,40290.87134
2020/8/18 21:52:27,49.358,13.085,39970.06959
2020/8/18 21:53:27,50.577,15.819,39659.22817
2020/8/18 21:54:27,51.993,18.507,39360.14345
2020/8/18 21:55:27,53.618,21.134,39074.59173
2020/8/18 21:56:27,55.468,23.683,38804.31559
2020/8/18 21:57:27,57.556,26.137,38551.00903
2020/8/18 21:58:27,59.896,28.474,38316.30226
2020/8/18 21:59:27,62.501,30.671,38101.74566
2020/8/18 22:00:27,65.379,32.702,37908.79382
2020/8/18 22:01:27,68.533,34.541,37738.78919
2020/8/18 22:02:27,71.957,36.16,37592.94665
2020/8/18 22:03:27,75.637,37.53,37472.33837
2020/8/18 22:04:27,79.545,38.626,37377.8802
2020/8/18 22:05:27,83.642,39.423,37310.31932
2020/8/18 22:06:27,87.874,39.903,37270.22405
2020/8/18 22:07:27,92.178,40.053,37257.97563
2020/8/18 22:08:27,96.488,39.869,37273.76276
2020/8/18 22:09:27,100.734,39.354,37317.57851
2020/8/18 22:10:27,104.855,38.518,37389.22025
2020/8/18 22:11:27,108.795,37.379,37488.29219
2020/8/18 22:12:27,112.515,35.96,37614.21068
2020/8/18 22:13:27,115.986,34.286,37766.2119
2020/8/18 22:14:27,119.192,32.384,37943.36192
2020/8/18 22:15:27,122.128,30.282,38144.56863
2020/8/18 22:16:27,124.797,28.006,38368.59518
2020/8/18 22:17:27,127.207,25.581,38614.07472
2020/8/18 22:18:27,129.369,23.031,38879.52585
2020/8/18 22:19:27,131.298,20.376,39163.36861
2020/8/18 22:20:27,133.008,17.635,39463.94039
2020/8/18 22:21:27,134.514,14.823,39779.5119
2020/8/18 22:22:27,135.83,11.956,40108.3023
2020/8/18 22:23:27,136.967,9.045,40448.49399
2020/8/18 22:24:27,137.937,6.103,40798.24637
2020/8/18 22:25:27,138.75,3.138,41155.70857
2020/8/18 22:26:27,139.413,0.159,41519.03135
2020/8/18 22:27:27,139.933,-2.827,41886.37776
2020/8/18 22:28:27,140.315,-5.812,42255.93275
2020/8/18 22:29:27,140.562,-8.792,42625.91174
2020/8/18 22:30:27,140.676,-11.76,42994.56822
2020/8/18 22:31:27,140.656,-14.712,43360.2003
2020/8/18 22:32:27,140.5,-17.642,43721.15645
2020/8/18 22:33:27,140.207,-20.546,44075.84036
2020/8/18 22:34:27,139.77,-23.419,44422.71512
2020/8/18 22:34:52,139.542,-24.614,44565.5411
2020/8/18 23:10:34,34.346,-24.707,44585.7707
2020/8/18 23:11:33,33.619,-21.724,44227.94262
2020/8/18 23:12:33,33.022,-18.658,43855.24624
2020/8/18 23:13:33,32.556,-15.544,43472.68484
2020/8/18 23:14:33,32.215,-12.383,43081.79449
2020/8/18 23:15:33,31.995,-9.18,42684.19057
2020/8/18 23:16:33,31.893,-5.937,42281.56534
2020/8/18 23:17:33,31.911,-2.657,41875.68484
2020/8/18 23:18:33,32.05,0.658,41468.38502
2020/8/18 23:19:33,32.313,4.003,41061.56684
2020/8/18 23:20:33,32.707,7.375,40657.19033
2020/8/18 23:21:33,33.239,10.769,40257.26734
2020/8/18 23:22:33,33.921,14.181,39863.85311
2020/8/18 23:23:33,34.767,17.603,39479.0363
2020/8/18 23:24:33,35.793,21.028,39104.92744
2020/8/18 23:25:33,37.021,24.446,38743.6459
2020/8/18 23:26:33,38.479,27.846,38397.30511
2020/8/18 23:27:33,40.198,31.213,38067.99636
2020/8/18 23:28:33,42.216,34.53,37757.77073
2020/8/18 23:29:33,44.581,37.774,37468.62012
2020/8/18 23:30:33,47.346,40.917,37202.4567
2020/8/18 23:31:33,50.572,43.927,36961.09203
2020/8/18 23:32:33,54.324,46.762,36746.21528
2020/8/18 23:33:33,58.666,49.37,36559.37207
2020/8/18 23:34:33,63.651,51.695,36401.94343
2020/8/18 23:35:33,69.304,53.668,36275.12654
2020/8/18 23:36:33,75.596,55.219,36179.91683
2020/8/18 23:37:33,82.431,56.282,36117.09285
2020/8/18 23:38:33,89.63,56.802,36087.20398
2020/8/18 23:39:33,96.949,56.751,36090.56159
2020/8/18 23:40:33,104.123,56.13,36127.23401
2020/8/18 23:41:33,110.913,54.969,36197.04537
2020/8/18 23:42:33,117.153,53.324,36299.57851
2020/8/18 23:43:33,122.753,51.262,36434.18172
2020/8/18 23:44:33,127.694,48.851,36599.97906
2020/8/18 23:45:33,132.007,46.158,36795.88388
2020/8/18 23:46:33,135.745,43.24,37020.61502
2020/8/18 23:47:33,138.975,40.145,37272.71512
2020/8/18 23:48:33,141.76,36.914,37550.57049
2020/8/18 23:49:33,144.163,33.579,37852.43176
2020/8/18 23:50:33,146.235,30.168,38176.4351
2020/8/18 23:51:33,148.024,26.701,38520.623
2020/8/18 23:52:33,149.566,23.195,38882.96476
2020/8/18 23:53:33,150.896,19.664,39261.37575
2020/8/18 23:54:33,152.038,16.12,39653.73567
2020/8/18 23:55:33,153.015,12.571,40057.90525
2020/8/18 23:56:33,153.845,9.024,40471.74151
2020/8/18 23:57:33,154.542,5.485,40893.11146
2020/8/18 23:58:33,155.119,1.959,41319.90422
2020/8/18 23:59:33,155.583,-1.551,41750.04163
2020/8/19 0:00:33,155.943,-5.042,42181.48743
2020/8/19 0:01:33,156.202,-8.511,42612.25516
2020/8/19 0:02:33,156.364,-11.957,43040.4148
2020/8/19 0:03:33,156.431,-15.378,43464.09833
2020/8/19 0:04:33,156.402,-18.773,43881.5044
2020/8/19 0:05:33,156.274,-22.14,44290.90202
2020/8/19 0:06:20,156.104,-24.73,44601.63085
2020/8/19 0:44:02,16.457,-24.692,44606.43441
2020/8/19 0:45:01,15.992,-21.259,44194.27082
2020/8/19 0:46:01,15.604,-17.753,43767.23202
2020/8/19 0:47:01,15.289,-14.206,43330.51489
2020/8/19 0:48:01,15.043,-10.617,42885.84409
2020/8/19 0:49:01,14.863,-6.985,42435.03116
2020/8/19 0:50:01,14.747,-3.31,41979.97231
2020/8/19 0:51:01,14.693,0.409,41522.64553
2020/8/19 0:52:01,14.702,4.172,41065.10657
2020/8/19 0:53:01,14.777,7.979,40609.48381
2020/8/19 0:54:01,14.92,11.831,40157.97171
2020/8/19 0:55:01,15.137,15.727,39712.82277
2020/8/19 0:56:01,15.436,19.667,39276.33772
2020/8/19 0:57:01,15.827,23.65,38850.85388
2020/8/19 0:58:01,16.323,27.673,38438.73148
2020/8/19 0:59:01,16.943,31.734,38042.33797
2020/8/19 1:00:01,17.712,35.829,37664.02997
2020/8/19 1:01:01,18.663,39.954,37306.13345
2020/8/19 1:02:01,19.842,44.101,36970.92154
2020/8/19 1:03:01,21.317,48.261,36660.59097
2020/8/19 1:04:01,23.18,52.419,36377.23683
2020/8/19 1:05:01,25.571,56.556,36122.82665
2020/8/19 1:06:01,28.704,60.642,35899.1739
2020/8/19 1:07:01,32.913,64.631,35707.9122
2020/8/19 1:08:01,38.736,68.445,35550.47041
2020/8/19 1:09:01,47.024,71.948,35428.04993
2020/8/19 1:10:01,58.994,74.898,35341.60472
2020/8/19 1:11:01,75.689,76.899,35291.82502
2020/8/19 1:12:01,96.005,77.472,35279.12528
2020/8/19 1:13:01,115.594,76.431,35303.63698
2020/8/19 1:14:01,130.873,74.093,35365.20645
2020/8/19 1:15:01,141.638,70.937,35463.39792
2020/8/19 1:16:01,149.117,67.313,35597.50164
2020/8/19 1:17:01,154.431,63.423,35766.54668
2020/8/19 1:18:01,158.327,59.383,35969.31776
2020/8/19 1:19:01,161.272,55.258,36204.37566
2020/8/19 1:20:01,163.559,51.09,36470.0801
2020/8/19 1:21:01,165.376,46.905,36764.61451
2020/8/19 1:22:01,166.846,42.72,37086.01181
2020/8/19 1:23:01,168.055,38.548,37432.18019
2020/8/19 1:24:01,169.063,34.397,37800.92871
2020/8/19 1:25:01,169.914,30.274,38189.99158
2020/8/19 1:26:01,170.638,26.183,38597.05126
2020/8/19 1:27:01,171.259,22.128,39019.75943
2020/8/19 1:28:01,171.797,18.11,39455.75633
2020/8/19 1:29:01,172.264,14.132,39902.68782
2020/8/19 1:30:01,172.671,10.193,40358.2203
2020/8/19 1:31:01,173.028,6.294,40820.05383
2020/8/19 1:32:01,173.342,2.435,41285.93317
2020/8/19 1:33:01,173.618,-1.385,41753.65709
2020/8/19 1:34:01,173.86,-5.166,42221.08611
2020/8/19 1:35:01,174.073,-8.911,42686.14883
2020/8/19 1:36:01,174.258,-12.619,43146.84698
2020/8/19 1:37:01,174.42,-16.292,43601.25943
2020/8/19 1:38:01,174.559,-19.931,44047.54532
2020/8/19 1:39:01,174.678,-23.539,44483.94632
2020/8/19 1:39:24,174.717,-24.894,44645.81839
2020/8/19 2:17:45,357.462,-24.715,44632.54794
2020/8/19 2:18:44,357.306,-21.137,44203.13958
2020/8/19 2:19:44,357.142,-17.494,43759.25465
2020/8/19 2:20:44,356.968,-13.818,43306.43094
2020/8/19 2:21:44,356.782,-10.106,42846.4756
2020/8/19 2:22:44,356.582,-6.356,42381.28089
2020/8/19 2:23:44,356.365,-2.568,41912.82166
2020/8/19 2:24:44,356.128,1.261,41443.15204
2020/8/19 2:25:44,355.866,5.13,40974.40083
2020/8/19 2:26:44,355.577,9.042,40508.76579
2020/8/19 2:27:44,355.254,12.997,40048.50626
2020/8/19 2:28:44,354.891,16.995,39595.93425
2020/8/19 2:29:44,354.48,21.035,39153.40356
2020/8/19 2:30:44,354.01,25.119,38723.29698
2020/8/19 2:31:44,353.468,29.244,38308.01131
2020/8/19 2:32:44,352.837,33.409,37909.94027
2020/8/19 2:33:44,352.094,37.611,37531.45504
2020/8/19 2:34:44,351.208,41.846,37174.88292
2020/8/19 2:35:44,350.135,46.109,36842.48383
2020/8/19 2:36:44,348.812,50.393,36536.42542
2020/8/19 2:37:44,347.147,54.686,36258.75675
2020/8/19 2:38:44,344.995,58.973,36011.38165
2020/8/19 2:39:44,342.125,63.23,35796.03184
2020/8/19 2:40:44,338.143,67.416,35614.24114
2020/8/19 2:41:44,332.342,71.461,35467.32128
2020/8/19 2:42:44,323.398,75.222,35356.34023
2020/8/19 2:43:44,308.95,78.394,35282.10406
2020/8/19 2:44:44,286.398,80.359,35245.14282
2020/8/19 2:45:44,258.945,80.34,35245.70124
2020/8/19 2:46:44,236.563,78.348,35283.7346
2020/8/19 2:47:44,222.268,75.166,35358.90986
2020/8/19 2:48:44,213.43,71.407,35470.61223
2020/8/19 2:49:44,207.709,67.372,35617.95654
2020/8/19 2:50:44,203.798,63.199,35799.80329
2020/8/19 2:51:44,200.999,58.96,36014.77837
2020/8/19 2:52:44,198.922,54.695,36261.29585
2020/8/19 2:53:44,197.338,50.427,36537.58293
2020/8/19 2:54:44,196.105,46.171,36841.70621
2020/8/19 2:55:44,195.131,41.938,37171.59819
2020/8/19 2:56:44,194.356,37.736,37525.08391
2020/8/19 2:57:44,193.735,33.569,37899.90618
2020/8/19 2:58:44,193.24,29.443,38293.74986
2020/8/19 2:59:44,192.848,25.358,38704.26395
2020/8/19 3:00:44,192.544,21.318,39129.08199
2020/8/19 3:01:44,192.315,17.323,39565.84007
2020/8/19 3:02:44,192.154,13.374,40012.19268
2020/8/19 3:03:44,192.053,9.471,40465.82663
2020/8/19 3:04:44,192.008,5.614,40924.4726
2020/8/19 3:05:44,192.017,1.802,41385.9151
2020/8/19 3:06:44,192.077,-1.965,41848.00053
2020/8/19 3:07:44,192.189,-5.687,42308.64378
2020/8/19 3:08:44,192.353,-9.367,42765.83356
2020/8/19 3:09:44,192.572,-13.003,43217.63645
2020/8/19 3:10:44,192.847,-16.599,43662.20009
2020/8/19 3:11:44,193.183,-20.154,44097.75554
2020/8/19 3:12:44,193.586,-23.668,44522.61887
2020/8/19 3:13:07,193.763,-25.026,44684.74713
2020/8/19 3:50:54,338.766,-24.778,44660.37521
2020/8/19 3:51:53,338.93,-21.409,44256.38852
2020/8/19 3:52:53,339.004,-17.976,43838.75548
2020/8/19 3:53:53,338.989,-14.516,43413.26571
2020/8/19 3:54:53,338.888,-11.028,42981.67309
2020/8/19 3:55:53,338.698,-7.514,42545.80477
2020/8/19 3:56:53,338.419,-3.975,42107.55802
2020/8/19 3:57:53,338.047,-0.412,41668.89584
2020/8/19 3:58:53,337.577,3.174,41231.84166
2020/8/19 3:59:53,337,6.779,40798.47282
2020/8/19 4:00:00,336.925,7.2,40748.30149
