sat/group3-sr3.csv

Time (UTCG),Azimuth (deg),Elevation (deg),Range (km)
2020/8/18 4:00:00,94.044,16.581,39515.44348
2020/8/18 4:01:00,95.784,16.512,39523.25246
2020/8/18 4:02:00,97.529,16.327,39544.01079
2020/8/18 4:03:00,99.268,16.026,39577.85516
2020/8/18 4:04:00,100.991,15.608,39624.85487
2020/8/18 4:05:00,102.689,15.076,39685.01024
2020/8/18 4:06:00,104.353,14.431,39758.25192
2020/8/18 4:07:00,105.973,13.676,39844.44078
2020/8/18 4:08:00,107.541,12.813,39943.36812
2020/8/18 4:09:00,109.051,11.849,40054.75678
2020/8/18 4:10:00,110.494,10.786,40178.26269
2020/8/18 4:11:00,111.867,9.631,40313.47683
2020/8/18 4:12:00,113.164,8.388,40459.92787
2020/8/18 4:13:00,114.381,7.064,40617.08521
2020/8/18 4:14:00,115.514,5.665,40784.36225
2020/8/18 4:15:00,116.562,4.196,40961.12022
2020/8/18 4:16:00,117.52,2.663,41146.67214
2020/8/18 4:17:00,118.389,1.074,41340.28714
2020/8/18 4:18:00,119.165,-0.567,41541.19472
2020/8/18 4:19:00,119.848,-2.253,41748.58938
2020/8/18 4:20:00,120.438,-3.979,41961.63511
2020/8/18 4:21:00,120.931,-5.739,42179.47002
2020/8/18 4:22:00,121.328,-7.526,42401.21089
2020/8/18 4:23:00,121.628,-9.336,42625.95761
2020/8/18 4:24:00,121.828,-11.163,42852.79756
2020/8/18 4:25:00,121.928,-13.002,43080.80994
2020/8/18 4:26:00,121.926,-14.847,43309.06978
2020/8/18 4:27:00,121.819,-16.694,43536.65193
2020/8/18 4:28:00,121.606,-18.536,43762.63482
2020/8/18 4:29:00,121.283,-20.368,43986.10401
2020/8/18 4:30:00,120.847,-22.186,44206.15561
2020/8/18 4:31:00,120.296,-23.982,44421.89942
2020/8/18 4:31:22,120.059,-24.648,44501.35121
2020/8/18 5:06:19,50.422,-24.855,44531.10883
2020/8/18 5:07:18,49.445,-22.766,44281.39404
2020/8/18 5:08:18,48.581,-20.589,44018.53138
2020/8/18 5:09:18,47.839,-18.353,43746.03254
2020/8/18 5:10:18,47.215,-16.061,43464.7807
2020/8/18 5:11:18,46.708,-13.718,43175.71653
2020/8/18 5:12:18,46.317,-11.329,42879.83746
2020/8/18 5:13:18,46.04,-8.897,42578.19668
2020/8/18 5:14:18,45.877,-6.428,42271.90167
2020/8/18 5:15:18,45.829,-3.925,41962.11248
2020/8/18 5:16:18,45.898,-1.392,41650.03948
2020/8/18 5:17:18,46.087,1.165,41336.94069
2020/8/18 5:18:18,46.398,3.741,41024.11851
2020/8/18 5:19:18,46.837,6.332,40712.91584
2020/8/18 5:20:18,47.41,8.93,40404.71157
2020/8/18 5:21:18,48.124,11.53,40100.91537
2020/8/18 5:22:18,48.986,14.123,39802.96161
2020/8/18 5:23:18,50.007,16.701,39512.30263
2020/8/18 5:24:18,51.199,19.255,39230.40105
2020/8/18 5:25:18,52.572,21.774,38958.7213
2020/8/18 5:26:18,54.141,24.244,38698.72038
2020/8/18 5:27:18,55.921,26.652,38451.8377
2020/8/18 5:28:18,57.927,28.981,38219.48425
2020/8/18 5:29:18,60.173,31.214,38003.03128
2020/8/18 5:30:18,62.674,33.329,37803.7982
2020/8/18 5:31:18,65.44,35.305,37623.04042
2020/8/18 5:32:18,68.48,37.117,37461.93682
2020/8/18 5:33:18,71.793,38.74,37321.57749
2020/8/18 5:34:18,75.371,40.146,37202.95161
2020/8/18 5:35:18,79.196,41.311,37106.93616
2020/8/18 5:36:18,83.236,42.209,37034.28514
2020/8/18 5:37:18,87.445,42.82,36985.62041
2020/8/18 5:38:18,91.768,43.128,36961.42332
2020/8/18 5:39:18,96.141,43.124,36962.02855
2020/8/18 5:40:18,100.494,42.806,36987.61916
2020/8/18 5:41:18,104.763,42.178,37038.22409
2020/8/18 5:42:18,108.887,41.252,37113.71713
2020/8/18 5:43:18,112.817,40.046,37213.81838
2020/8/18 5:44:18,116.52,38.583,37338.09721
2020/8/18 5:45:18,119.971,36.885,37485.97752
2020/8/18 5:46:18,123.159,34.978,37656.7442
2020/8/18 5:47:18,126.082,32.888,37849.55158
2020/8/18 5:48:18,128.747,30.638,38063.43267
2020/8/18 5:49:18,131.163,28.251,38297.30978
2020/8/18 5:50:18,133.343,25.747,38550.00556
2020/8/18 5:51:18,135.304,23.145,38820.25477
2020/8/18 5:52:18,137.06,20.46,39106.71606
2020/8/18 5:53:18,138.626,17.708,39407.98397
2020/8/18 5:54:18,140.016,14.901,39722.60046
2020/8/18 5:55:18,141.243,12.05,40049.0663
2020/8/18 5:56:18,142.32,9.165,40385.85188
2020/8/18 5:57:18,143.256,6.254,40731.40731
2020/8/18 5:58:18,144.061,3.324,41084.17196
2020/8/18 5:59:18,144.741,0.382,41442.58315
2020/8/18 6:00:18,145.303,-2.568,41805.0842
2020/8/18 6:01:18,145.751,-5.519,42170.13163
2020/8/18 6:02:18,146.09,-8.469,42536.20159
2020/8/18 6:03:18,146.32,-11.413,42901.79568
2020/8/18 6:04:18,146.445,-14.347,43265.446
2020/8/18 6:05:18,146.461,-17.269,43625.71964
2020/8/18 6:06:18,146.369,-20.176,43981.22255
2020/8/18 6:07:18,146.164,-23.065,44330.60288
2020/8/18 6:07:53,145.992,-24.732,44530.05467
2020/8/18 6:47:10,23.731,-24.742,44544.04074
2020/8/18 6:48:10,23.105,-21.633,44171.36373
2020/8/18 6:49:10,22.576,-18.471,43786.92203
2020/8/18 6:50:10,22.137,-15.264,43393.12761
2020/8/18 6:51:10,21.785,-12.014,42991.35598
2020/8/18 6:52:10,21.514,-8.721,42583.05364
2020/8/18 6:53:10,21.322,-5.387,42169.73686
2020/8/18 6:54:10,21.209,-2.011,41752.98997
2020/8/18 6:55:10,21.173,1.407,41334.463
2020/8/18 6:56:10,21.217,4.864,40915.86864
2020/8/18 6:57:10,21.343,8.362,40498.97828
2020/8/18 6:58:10,21.556,11.898,40085.61715
2020/8/18 6:59:10,21.862,15.471,39677.65829
2020/8/18 7:00:10,22.271,19.08,39277.01539
2020/8/18 7:01:10,22.793,22.723,38885.63425
2020/8/18 7:02:10,23.445,26.395,38505.48279
2020/8/18 7:03:10,24.244,30.093,38138.53965
2020/8/18 7:04:10,25.219,33.812,37786.78111
2020/8/18 7:05:10,26.4,37.544,37452.16662
2020/8/18 7:06:10,27.833,41.281,37136.62273
2020/8/18 7:07:10,29.575,45.008,36842.02571
2020/8/18 7:08:10,31.705,48.711,36570.18305
2020/8/18 7:09:10,34.328,52.366,36322.81401
2020/8/18 7:10:10,37.588,55.941,36101.52973
2020/8/18 7:11:10,41.681,59.391,35907.81314
2020/8/18 7:12:10,46.867,62.651,35742.99947
2020/8/18 7:13:10,53.473,65.628,35608.2575
2020/8/18 7:14:10,61.855,68.187,35504.57255
2020/8/18 7:15:10,72.246,70.153,35432.73143
2020/8/18 7:16:10,84.471,71.324,35393.31007
2020/8/18 7:17:10,97.669,71.54,35386.66419
2020/8/18 7:18:10,110.484,70.766,35412.92347
2020/8/18 7:19:10,121.773,69.112,35471.9893
2020/8/18 7:20:10,131.069,66.771,35563.53628
2020/8/18 7:21:10,138.467,63.932,35687.0174
2020/8/18 7:22:10,144.295,60.75,35841.67268
2020/8/18 7:23:10,148.902,57.335,36026.54091
2020/8/18 7:24:10,152.58,53.761,36240.47405
2020/8/18 7:25:10,155.553,50.084,36482.15386
2020/8/18 7:26:10,157.987,46.339,36750.10998
2020/8/18 7:27:10,160.002,42.553,37042.73928
2020/8/18 7:28:10,161.69,38.746,37358.32539
2020/8/18 7:29:10,163.117,34.931,37695.05854
2020/8/18 7:30:10,164.334,31.12,38051.05468
2020/8/18 7:31:10,165.379,27.319,38424.37398
2020/8/18 7:32:10,166.282,23.535,38813.03809
2020/8/18 7:33:10,167.067,19.773,39215.04626
2020/8/18 7:34:10,167.752,16.036,39628.38982
2020/8/18 7:35:10,168.351,12.326,40051.06539
2020/8/18 7:36:10,168.877,8.645,40481.08642
2020/8/18 7:37:10,169.338,4.994,40916.49334
2020/8/18 7:38:10,169.744,1.373,41355.36225
2020/8/18 7:39:10,170.099,-2.217,41795.81239
2020/8/18 7:40:10,170.41,-5.776,42236.01233
2020/8/18 7:41:10,170.679,-9.305,42674.18512
2020/8/18 7:42:10,170.912,-12.804,43108.61244
2020/8/18 7:43:10,171.109,-16.275,43537.63801
2020/8/18 7:44:10,171.273,-19.718,43959.67014
2020/8/18 7:45:10,171.406,-23.133,44373.18375
2020/8/18 7:45:39,171.458,-24.769,44568.87049
2020/8/18 8:26:00,358.092,-24.699,44578.59227
2020/8/18 8:27:00,357.87,-21.295,44170.18415
2020/8/18 8:28:00,357.643,-17.833,43748.79936
2020/8/18 8:29:00,357.412,-14.342,43319.22987
2020/8/18 8:30:00,357.172,-10.817,42883.03453
2020/8/18 8:31:00,356.922,-7.26,42441.84136
2020/8/18 8:32:00,356.658,-3.668,41997.34563
2020/8/18 8:33:00,356.377,-0.04,41551.30723
2020/8/18 8:34:00,356.075,3.625,41105.54731
2020/8/18 8:35:00,355.748,7.326,40661.94394
2020/8/18 8:36:00,355.39,11.066,40222.42682
2020/8/18 8:37:00,354.996,14.844,39788.97075
2020/8/18 8:38:00,354.557,18.66,39363.58784
2020/8/18 8:39:00,354.066,22.513,38948.31833
2020/8/18 8:40:00,353.511,26.404,38545.21983
2020/8/18 8:41:00,352.877,30.329,38156.35495
2020/8/18 8:42:00,352.147,34.288,37783.77744
2020/8/18 8:43:00,351.294,38.276,37429.51653
2020/8/18 8:44:00,350.288,42.29,37095.55985
2020/8/18 8:45:00,349.083,46.324,36783.83493
2020/8/18 8:46:00,347.616,50.368,36496.18953
2020/8/18 8:47:00,345.796,54.413,36234.37114
2020/8/18 8:48:00,343.487,58.44,36000.00614
2020/8/18 8:49:00,340.479,62.425,35794.57883
2020/8/18 8:50:00,336.433,66.329,35619.41133
2020/8/18 8:51:00,330.785,70.082,35475.64446
2020/8/18 8:52:00,322.589,73.561,35364.22068
2020/8/18 8:53:00,310.357,76.536,35285.86931
2020/8/18 8:54:00,292.538,78.586,35241.09485
2020/8/18 8:55:00,270.162,79.166,35230.16866
2020/8/18 8:56:00,248.845,78.059,35253.12447
2020/8/18 8:57:00,232.964,75.656,35309.75789
2020/8/18 8:58:00,222.271,72.492,35399.62982
2020/8/18 8:59:00,215.081,68.919,35522.07384
2020/8/18 9:00:00,210.088,65.125,35676.20703
2020/8/18 9:01:00,206.49,61.211,35860.94405
2020/8/18 9:02:00,203.813,57.235,36075.01379
2020/8/18 9:03:00,201.768,53.229,36316.97804
2020/8/18 9:04:00,200.173,49.215,36585.25159
2020/8/18 9:05:00,198.912,45.21,36878.12315
2020/8/18 9:06:00,197.903,41.222,37193.77641
2020/8/18 9:07:00,197.091,37.26,37530.31094
2020/8/18 9:08:00,196.437,33.328,37885.76221
2020/8/18 9:09:00,195.913,29.43,38258.12065
2020/8/18 9:10:00,195.497,25.571,38645.3493
2020/8/18 9:11:00,195.174,21.751,39045.39997
2020/8/18 9:12:00,194.931,17.972,39456.22777
2020/8/18 9:13:00,194.761,14.235,39875.80396
2020/8/18 9:14:00,194.657,10.541,40302.12723
2020/8/18 9:15:00,194.614,6.89,40733.23336
2020/8/18 9:16:00,194.63,3.281,41167.20343
2020/8/18 9:17:00,194.701,-0.285,41602.17072
2020/8/18 9:18:00,194.828,-3.808,42036.32625
2020/8/18 9:19:00,195.012,-7.29,42467.92343
2020/8/18 9:20:00,195.253,-10.73,42895.28158
2020/8/18 9:21:00,195.554,-14.129,43316.79221
2020/8/18 9:22:00,195.918,-17.487,43730.90693
2020/8/18 9:23:00,196.351,-20.805,44136.16031
2020/8/18 9:24:00,196.859,-24.082,44531.15648
2020/8/18 9:24:12,196.972,-24.744,44610.19088
2020/8/18 10:03:58,332.713,-24.693,44623.70341
2020/8/18 10:04:58,332.886,-21.626,44256.01785
2020/8/18 10:05:58,332.961,-18.531,43880.05576
2020/8/18 10:06:58,332.939,-15.418,43497.95057
2020/8/18 10:07:58,332.824,-12.287,43111.14989
2020/8/18 10:08:58,332.614,-9.14,42721.1498
2020/8/18 10:09:58,332.31,-5.98,42329.49155
2020/8/18 10:10:58,331.908,-2.809,41937.7577
2020/8/18 10:11:58,331.404,0.37,41547.56749
2020/8/18 10:12:58,330.793,3.553,41160.57156
2020/8/18 10:13:58,330.069,6.737,40778.44581
2020/8/18 10:14:58,329.221,9.917,40402.88434
2020/8/18 10:15:58,328.24,13.088,40035.5916
2020/8/18 10:16:58,327.113,16.241,39678.27344
2020/8/18 10:17:58,325.825,19.37,39332.62723
2020/8/18 10:18:58,324.358,22.463,39000.33112
2020/8/18 10:19:58,322.692,25.511,38683.0323
2020/8/18 10:20:58,320.805,28.498,38382.33439
2020/8/18 10:21:58,318.67,31.408,38099.78434
2020/8/18 10:22:58,316.259,34.223,37836.85851
2020/8/18 10:23:58,313.543,36.918,37594.9487
2020/8/18 10:24:58,310.491,39.468,37375.3479
2020/8/18 10:25:58,307.075,41.843,37179.23647
2020/8/18 10:26:58,303.276,44.007,37007.66861
2020/8/18 10:27:58,299.081,45.926,36861.56004
2020/8/18 10:28:58,294.499,47.559,36741.67656
2020/8/18 10:29:58,289.561,48.868,36648.62452
2020/8/18 10:30:58,284.326,49.819,36582.84278
2020/8/18 10:31:58,278.883,50.385,36544.5972
2020/8/18 10:32:58,273.343,50.55,36533.97703
2020/8/18 10:33:58,267.831,50.309,36550.89414
2020/8/18 10:34:58,262.469,49.673,36595.08433
2020/8/18 10:35:58,257.36,48.666,36666.11149
2020/8/18 10:36:58,252.582,47.319,36763.3737
2020/8/18 10:37:58,248.186,45.67,36886.1118
2020/8/18 10:38:58,244.192,43.759,37033.4195
2020/8/18 10:39:58,240.601,41.626,37204.25536
2020/8/18 10:40:58,237.399,39.306,37397.45569
2020/8/18 10:41:58,234.56,36.834,37611.74866
2020/8/18 10:42:58,232.058,34.239,37845.76857
2020/8/18 10:43:58,229.861,31.546,38098.07069
2020/8/18 10:44:58,227.941,28.776,38367.14566
2020/8/18 10:45:58,226.272,25.949,38651.43383
2020/8/18 10:46:58,224.828,23.08,38949.33876
2020/8/18 10:47:58,223.588,20.183,39259.24014
2020/8/18 10:48:58,222.535,17.269,39579.50577
2020/8/18 10:49:58,221.651,14.347,39908.50255
2020/8/18 10:50:58,220.923,11.426,40244.60646
2020/8/18 10:51:58,220.34,8.512,40586.21155
2020/8/18 10:52:58,219.893,5.613,40931.73787
2020/8/18 10:53:58,219.575,2.732,41279.63837
2020/8/18 10:54:58,219.378,-0.124,41628.40501
2020/8/18 10:55:58,219.301,-2.953,41976.57383
2020/8/18 10:56:58,219.338,-5.749,42322.72934
2020/8/18 10:57:58,219.489,-8.509,42665.50811
2020/8/18 10:58:58,219.754,-11.231,43003.6018
2020/8/18 10:59:58,220.132,-13.909,43335.75949
2020/8/18 11:00:58,220.626,-16.541,43660.78958
2020/8/18 11:01:58,221.239,-19.123,43977.56128
2020/8/18 11:02:58,221.975,-21.651,44285.00561
2020/8/18 11:03:58,222.838,-24.121,44582.1162
2020/8/18 11:04:11,223.042,-24.648,44645.07528
2020/8/18 11:40:55,307.127,-24.723,44670.53708
2020/8/18 11:41:55,307.65,-22.6,44416.93065
2020/8/18 11:42:55,308.048,-20.453,44157.66516
2020/8/18 11:43:55,308.324,-18.29,43894.22336
2020/8/18 11:44:55,308.482,-16.115,43627.65181
2020/8/18 11:45:55,308.525,-13.936,43359.01592
2020/8/18 11:46:55,308.455,-11.756,43089.39648
2020/8/18 11:47:55,308.274,-9.581,42819.88573
2020/8/18 11:48:55,307.983,-7.417,42551.58323
2020/8/18 11:49:55,307.582,-5.268,42285.59144
2020/8/18 11:50:55,307.072,-3.142,42023.01091
2020/8/18 11:51:55,306.452,-1.043,41764.93527
2020/8/18 11:52:55,305.722,1.021,41512.44592
2020/8/18 11:53:55,304.881,3.044,41266.60644
2020/8/18 11:54:55,303.928,5.019,41028.4568
2020/8/18 11:55:55,302.862,6.939,40799.00742
2020/8/18 11:56:55,301.683,8.796,40579.23304
2020/8/18 11:57:55,300.391,10.582,40370.06653
2020/8/18 11:58:55,298.985,12.289,40172.39284
2020/8/18 11:59:55,297.467,13.907,39987.04282
2020/8/18 12:00:55,295.838,15.428,39814.78729
2020/8/18 12:01:55,294.102,16.844,39656.33147
2020/8/18 12:02:55,292.263,18.146,39512.30966
2020/8/18 12:03:55,290.328,19.325,39383.28024
2020/8/18 12:04:55,288.303,20.374,39269.72156
2020/8/18 12:05:55,286.199,21.285,39172.028
2020/8/18 12:06:55,284.028,22.052,39090.50723
2020/8/18 12:07:55,281.801,22.67,39025.37766
2020/8/18 12:08:55,279.533,23.135,38976.76737
2020/8/18 12:09:55,277.241,23.444,38944.71319
2020/8/18 12:10:55,274.939,23.597,38929.16138
2020/8/18 12:11:55,272.646,23.593,38929.96847
2020/8/18 12:12:55,270.377,23.436,38946.90363
2020/8/18 12:13:55,268.148,23.128,38979.65126
2020/8/18 12:14:55,265.975,22.676,39027.81483
2020/8/18 12:15:55,263.869,22.085,39090.92105
2020/8/18 12:16:55,261.844,21.363,39168.42492
2020/8/18 12:17:55,259.909,20.518,39259.71517
2020/8/18 12:18:55,258.072,19.559,39364.12003
2020/8/18 12:19:55,256.34,18.496,39480.91362
2020/8/18 12:20:55,254.717,17.338,39609.32228
2020/8/18 12:21:55,253.206,16.095,39748.53111
2020/8/18 12:22:55,251.81,14.777,39897.69067
2020/8/18 12:23:55,250.528,13.392,40055.92345
2020/8/18 12:24:55,249.361,11.949,40222.33035
2020/8/18 12:25:55,248.308,10.458,40395.99685
2020/8/18 12:26:55,247.367,8.927,40575.99908
2020/8/18 12:27:55,246.537,7.364,40761.40951
2020/8/18 12:28:55,245.814,5.776,40951.30225
2020/8/18 12:29:55,245.198,4.17,41144.75818
2020/8/18 12:30:55,244.684,2.552,41340.86951
2020/8/18 12:31:55,244.272,0.931,41538.74415
2020/8/18 12:32:55,243.959,-0.69,41737.50949
2020/8/18 12:33:55,243.741,-2.305,41936.31606
2020/8/18 12:34:55,243.618,-3.907,42134.34058
2020/8/18 12:35:55,243.587,-5.492,42330.7888
2020/8/18 12:36:55,243.645,-7.056,42524.89797
2020/8/18 12:37:55,243.792,-8.593,42715.93898
2020/8/18 12:38:55,244.025,-10.099,42903.2182
2020/8/18 12:39:55,244.342,-11.571,43086.07903
2020/8/18 12:40:55,244.741,-13.004,43263.90319
2020/8/18 12:41:55,245.221,-14.394,43436.11181
2020/8/18 12:42:55,245.779,-15.737,43602.16623
2020/8/18 12:43:55,246.414,-17.031,43761.5686
2020/8/18 12:44:55,247.122,-18.271,43913.86238
2020/8/18 12:45:55,247.903,-19.454,44058.63253
2020/8/18 12:46:55,248.752,-20.576,44195.50566
2020/8/18 12:47:55,249.667,-21.636,44324.14993
2020/8/18 12:48:55,250.645,-22.63,44444.27495
2020/8/18 12:49:55,251.681,-23.556,44555.63141
2020/8/18 12:50:55,252.772,-24.41,44658.01076
2020/8/18 12:51:09,253.026,-24.593,44679.89184
2020/8/18 13:12:24,278.484,-24.855,44718.24984
2020/8/18 13:13:24,279.298,-24.196,44640.07486
2020/8/18 13:14:24,280.058,-23.498,44556.85265
2020/8/18 13:15:24,280.757,-22.768,44469.56191
2020/8/18 13:16:24,281.394,-22.01,44378.65257
2020/8/18 13:17:24,281.97,-21.229,44284.57844
2020/8/18 13:18:24,282.485,-20.429,44187.79517
2020/8/18 13:19:24,282.939,-19.612,44088.75818
2020/8/18 13:20:24,283.333,-18.783,43987.92065
2020/8/18 13:21:24,283.669,-17.946,43885.73152
2020/8/18 13:22:24,283.947,-17.103,43782.63342
2020/8/18 13:23:24,284.169,-16.259,43679.06074
2020/8/18 13:24:24,284.336,-15.415,43575.43773
2020/8/18 13:25:24,284.449,-14.577,43472.17651
2020/8/18 13:26:24,284.512,-13.745,43369.67538
2020/8/18 13:27:24,284.524,-12.925,43268.317
2020/8/18 13:28:24,284.489,-12.117,43168.46675
2020/8/18 13:29:24,284.408,-11.325,43070.47122
2020/8/18 13:30:24,284.284,-10.551,42974.65673
2020/8/18 13:31:24,284.118,-9.797,42881.32805
2020/8/18 13:32:24,283.913,-9.066,42790.76719
2020/8/18 13:33:24,283.671,-8.359,42703.23241
2020/8/18 13:34:24,283.394,-7.678,42618.95734
2020/8/18 13:35:24,283.086,-7.025,42538.15026
2020/8/18 13:36:24,282.747,-6.401,42460.99356
2020/8/18 13:37:24,282.382,-5.807,42387.64341
2020/8/18 13:38:24,281.991,-5.245,42318.22948
2020/8/18 13:39:24,281.579,-4.716,42252.85511
2020/8/18 13:40:24,281.147,-4.219,42191.59733
2020/8/18 13:41:24,280.698,-3.755,42134.50733
2020/8/18 13:42:24,280.234,-3.325,42081.61093
2020/8/18 13:43:24,279.759,-2.928,42032.90933
2020/8/18 13:44:24,279.273,-2.566,41988.37998
2020/8/18 13:45:24,278.781,-2.236,41947.97764
2020/8/18 13:46:24,278.283,-1.939,41911.63541
2020/8/18 13:47:24,277.782,-1.674,41879.2663
2020/8/18 13:48:24,277.281,-1.44,41850.76444
2020/8/18 13:49:24,276.782,-1.237,41826.00672
2020/8/18 13:50:24,276.285,-1.063,41804.85443
2020/8/18 13:51:24,275.793,-0.917,41787.15492
2020/8/18 13:52:24,275.308,-0.798,41772.74342
2020/8/18 13:53:24,274.831,-0.704,41761.44485
2020/8/18 13:54:24,274.363,-0.634,41753.07569
2020/8/18 13:55:24,273.905,-0.586,41747.44573
2020/8/18 13:56:24,273.459,-0.559,41744.36014
2020/8/18 13:57:24,273.024,-0.551,41743.62116
2020/8/18 13:58:24,272.603,-0.56,41745.03
2020/8/18 13:59:24,272.194,-0.586,41748.38858
2020/8/18 14:00:24,271.799,-0.625,41753.50128
2020/8/18 14:01:24,271.417,-0.678,41760.17659
2020/8/18 14:02:24,271.049,-0.742,41768.22869
2020/8/18 14:03:24,270.694,-0.815,41777.47894
2020/8/18 14:04:24,270.353,-0.897,41787.75729
2020/8/18 14:05:24,270.024,-0.986,41798.90357
2020/8/18 14:06:24,269.707,-1.081,41810.76867
2020/8/18 14:07:24,269.402,-1.18,41823.21562
2020/8/18 14:08:24,269.107,-1.284,41836.12049
2020/8/18 14:09:24,268.823,-1.39,41849.37327
2020/8/18 14:10:24,268.547,-1.498,41862.87852
2020/8/18 14:11:24,268.28,-1.607,41876.55595
2020/8/18 14:12:24,268.02,-1.718,41890.34082
2020/8/18 14:13:24,267.767,-1.829,41904.18423
2020/8/18 14:14:24,267.518,-1.94,41918.0533
2020/8/18 14:15:24,267.274,-2.051,41931.93115
2020/8/18 14:16:24,267.033,-2.162,41945.81684
2020/8/18 14:17:24,266.795,-2.273,41959.72503
2020/8/18 14:18:24,266.557,-2.385,41973.6857
2020/8/18 14:19:24,266.32,-2.498,41987.74356
2020/8/18 14:20:24,266.083,-2.612,42001.95746
2020/8/18 14:21:24,265.844,-2.728,42016.39964
2020/8/18 14:22:24,265.604,-2.846,42031.15482
2020/8/18 14:23:24,265.361,-2.967,42046.31927
2020/8/18 14:24:24,265.114,-3.093,42061.99969
2020/8/18 14:25:24,264.865,-3.224,42078.31205
2020/8/18 14:26:24,264.611,-3.361,42095.38029
2020/8/18 14:27:24,264.354,-3.506,42113.33502
2020/8/18 14:28:24,264.093,-3.658,42132.31201
2020/8/18 14:29:24,263.828,-3.82,42152.45079
2020/8/18 14:30:24,263.559,-3.992,42173.89304
2020/8/18 14:31:24,263.287,-4.177,42196.781
2020/8/18 14:32:24,263.012,-4.373,42221.25599
2020/8/18 14:33:24,262.734,-4.584,42247.45653
2020/8/18 14:34:24,262.456,-4.81,42275.51691
2020/8/18 14:35:24,262.177,-5.052,42305.56543
2020/8/18 14:36:24,261.898,-5.311,42337.72288
2020/8/18 14:37:24,261.621,-5.588,42372.10083
2020/8/18 14:38:24,261.347,-5.883,42408.80022
2020/8/18 14:39:24,261.077,-6.198,42447.90978
2020/8/18 14:40:24,260.813,-6.532,42489.50469
2020/8/18 14:41:24,260.557,-6.888,42533.64519
2020/8/18 14:42:24,260.309,-7.264,42580.3754
2020/8/18 14:43:24,260.072,-7.661,42629.72217
2020/8/18 14:44:24,259.848,-8.079,42681.69408
2020/8/18 14:45:24,259.638,-8.518,42736.2805
2020/8/18 14:46:24,259.444,-8.977,42793.45101
2020/8/18 14:47:24,259.269,-9.458,42853.15458
2020/8/18 14:48:24,259.114,-9.958,42915.31923
2020/8/18 14:49:24,258.981,-10.477,42979.8517
2020/8/18 14:50:24,258.872,-11.014,43046.63727
2020/8/18 14:51:24,258.789,-11.569,43115.5398
2020/8/18 14:52:24,258.735,-12.14,43186.40182
2020/8/18 14:53:24,258.71,-12.725,43259.04491
2020/8/18 14:54:24,258.717,-13.324,43333.27009
2020/8/18 14:55:24,258.758,-13.934,43408.85843
2020/8/18 14:56:24,258.835,-14.554,43485.57185
2020/8/18 14:57:24,258.949,-15.181,43563.15393
2020/8/18 14:58:24,259.101,-15.814,43641.33093
2020/8/18 14:59:24,259.294,-16.45,43719.81295
2020/8/18 15:00:24,259.528,-17.088,43798.29514
2020/8/18 15:01:24,259.805,-17.724,43876.45903
2020/8/18 15:02:24,260.127,-18.355,43953.97396
2020/8/18 15:03:24,260.493,-18.98,44030.49861
2020/8/18 15:04:24,260.906,-19.596,44105.68256
2020/8/18 15:05:24,261.365,-20.198,44179.16795
2020/8/18 15:06:24,261.871,-20.785,44250.59117
2020/8/18 15:07:24,262.424,-21.353,44319.58461
2020/8/18 15:08:24,263.024,-21.9,44385.77841
2020/8/18 15:09:24,263.671,-22.422,44448.80228
2020/8/18 15:10:24,264.364,-22.915,44508.2873
2020/8/18 15:11:24,265.102,-23.377,44563.86774
2020/8/18 15:12:24,265.885,-23.805,44615.18289
2020/8/18 15:13:24,266.709,-24.195,44661.87887
2020/8/18 15:14:24,267.575,-24.544,44703.61042
2020/8/18 15:15:01,268.131,-24.739,44726.87704
2020/8/18 15:25:13,278.648,-24.984,44756.41866
2020/8/18 15:26:13,279.722,-24.666,44718.63589
2020/8/18 15:27:13,280.785,-24.283,44672.89249
2020/8/18 15:28:13,281.832,-23.834,44619.20041
2020/8/18 15:29:13,282.856,-23.319,44557.53113
2020/8/18 15:30:13,283.853,-22.739,44487.88812
2020/8/18 15:31:13,284.819,-22.096,44410.30772
2020/8/18 15:32:13,285.748,-21.389,44324.86016
2020/8/18 15:33:13,286.637,-20.62,44231.65029
2020/8/18 15:34:13,287.482,-19.791,44130.81849
2020/8/18 15:35:13,288.278,-18.904,44022.54109
2020/8/18 15:36:13,289.023,-17.96,43907.03109
2020/8/18 15:37:13,289.712,-16.962,43784.53852
2020/8/18 15:38:13,290.344,-15.913,43655.35077
2020/8/18 15:39:13,290.914,-14.814,43519.79289
2020/8/18 15:40:13,291.421,-13.669,43378.22748
2020/8/18 15:41:13,291.861,-12.48,43231.05474
2020/8/18 15:42:13,292.233,-11.252,43078.71217
2020/8/18 15:43:13,292.534,-9.986,42921.67422
2020/8/18 15:44:13,292.762,-8.687,42760.45159
2020/8/18 15:45:13,292.915,-7.359,42595.59058
2020/8/18 15:46:13,292.99,-6.005,42427.67194
2020/8/18 15:47:13,292.987,-4.628,42257.30972
2020/8/18 15:48:13,292.902,-3.235,42085.14973
2020/8/18 15:49:13,292.734,-1.829,41911.86784
2020/8/18 15:50:13,292.481,-0.414,41738.16793
2020/8/18 15:51:13,292.14,1.004,41564.77958
2020/8/18 15:52:13,291.711,2.419,41392.45548
2020/8/18 15:53:13,291.19,3.827,41221.96843
2020/8/18 15:54:13,290.576,5.221,41054.1082
2020/8/18 15:55:13,289.868,6.596,40889.67787
2020/8/18 15:56:13,289.063,7.944,40729.48998
2020/8/18 15:57:13,288.162,9.259,40574.36233
2020/8/18 15:58:13,287.162,10.533,40425.1134
2020/8/18 15:59:13,286.064,11.76,40282.55764
2020/8/18 16:00:13,284.867,12.932,40147.5003
2020/8/18 16:01:13,283.573,14.04,40020.73227
2020/8/18 16:02:13,282.184,15.078,39903.02448
2020/8/18 16:03:13,280.702,16.036,39795.12232
2020/8/18 16:04:13,279.13,16.907,39697.73993
2020/8/18 16:05:13,277.475,17.683,39611.55458
2020/8/18 16:06:13,275.742,18.356,39537.20084
2020/8/18 16:07:13,273.938,18.92,39475.26512
2020/8/18 16:08:13,272.073,19.368,39426.28042
2020/8/18 16:09:13,270.156,19.694,39390.72113
2020/8/18 16:10:13,268.199,19.893,39368.99843
2020/8/18 16:11:13,266.213,19.962,39361.45613
2020/8/18 16:12:13,264.211,19.898,39368.36682
2020/8/18 16:13:13,262.206,19.698,39389.92876
2020/8/18 16:14:13,260.211,19.363,39426.26355
2020/8/18 16:15:13,258.238,18.894,39477.41403
2020/8/18 16:16:13,256.3,18.293,39543.34336
2020/8/18 16:17:13,254.408,17.562,39623.93467
2020/8/18 16:18:13,252.573,16.705,39718.99122
2020/8/18 16:19:13,250.803,15.729,39828.23756
2020/8/18 16:20:13,249.108,14.638,39951.3214
2020/8/18 16:21:13,247.494,13.438,40087.81579
2020/8/18 16:22:13,245.966,12.137,40237.22221
2020/8/18 16:23:13,244.529,10.741,40398.97424
2020/8/18 16:24:13,243.187,9.257,40572.44135
2020/8/18 16:25:13,241.943,7.694,40756.93347
2020/8/18 16:26:13,240.798,6.057,40951.70573
2020/8/18 16:27:13,239.754,4.354,41155.96339
2020/8/18 16:28:13,238.811,2.593,41368.86707
2020/8/18 16:29:13,237.97,0.78,41589.53803
2020/8/18 16:30:13,237.232,-1.079,41817.06354
2020/8/18 16:31:13,236.597,-2.976,42050.50214
2020/8/18 16:32:13,236.064,-4.906,42288.88893
2020/8/18 16:33:13,235.635,-6.863,42531.24073
2020/8/18 16:34:13,235.31,-8.841,42776.561
2020/8/18 16:35:13,235.09,-10.834,43023.84476
2020/8/18 16:36:13,234.976,-12.837,43272.08306
2020/8/18 16:37:13,234.969,-14.844,43520.26748
2020/8/18 16:38:13,235.072,-16.851,43767.39415
2020/8/18 16:39:13,235.287,-18.851,44012.46774
2020/8/18 16:40:13,235.616,-20.839,44254.50504
2020/8/18 16:41:13,236.064,-22.81,44492.53843
2020/8/18 16:42:12,236.628,-24.738,44723.19479
2020/8/18 17:18:02,312.978,-24.855,44730.88685
2020/8/18 17:19:01,313.918,-22.603,44461.15017
2020/8/18 17:20:01,314.74,-20.266,44178.10248
2020/8/18 17:21:01,315.439,-17.87,43885.41049
2020/8/18 17:22:01,316.017,-15.421,43584.03759
2020/8/18 17:23:01,316.478,-12.922,43275.00713
2020/8/18 17:24:01,316.823,-10.378,42959.40164
2020/8/18 17:25:01,317.053,-7.793,42638.36163
2020/8/18 17:26:01,317.169,-5.17,42313.08407
2020/8/18 17:27:01,317.168,-2.514,41984.82038
2020/8/18 17:28:01,317.05,0.171,41654.87396
2020/8/18 17:29:01,316.81,2.88,41324.5971
2020/8/18 17:30:01,316.445,5.61,40995.38734
2020/8/18 17:31:01,315.948,8.354,40668.68306
2020/8/18 17:32:01,315.313,11.106,40345.95835
2020/8/18 17:33:01,314.531,13.859,40028.71708
2020/8/18 17:34:01,313.591,16.606,39718.48603
2020/8/18 17:35:01,312.481,19.337,39416.80715
2020/8/18 17:36:01,311.187,22.043,39125.22898
2020/8/18 17:37:01,309.693,24.711,38845.29695
2020/8/18 17:38:01,307.982,27.327,38578.54294
2020/8/18 17:39:01,306.034,29.876,38326.47387
2020/8/18 17:40:01,303.828,32.339,38090.55967
2020/8/18 17:41:01,301.345,34.695,37872.22039
2020/8/18 17:42:01,298.564,36.92,37672.81314
2020/8/18 17:43:01,295.469,38.987,37493.61839
2020/8/18 17:44:01,292.051,40.868,37335.82665
2020/8/18 17:45:01,288.306,42.531,37200.52504
2020/8/18 17:46:01,284.248,43.945,37088.68467
2020/8/18 17:47:01,279.903,45.077,37001.14863
2020/8/18 17:48:01,275.318,45.901,36938.62139
2020/8/18 17:49:01,270.557,46.392,36901.65936
2020/8/18 17:50:01,265.701,46.537,36890.6635
2020/8/18 17:51:01,260.837,46.327,36905.87343
2020/8/18 17:52:01,256.054,45.768,36947.36417
2020/8/18 17:53:01,251.432,44.871,37015.04454
2020/8/18 17:54:01,247.037,43.657,37108.65826
2020/8/18 17:55:01,242.916,42.153,37227.78687
2020/8/18 17:56:01,239.099,40.388,37371.8551
2020/8/18 17:57:01,235.597,38.394,37540.13774
2020/8/18 17:58:01,232.41,36.199,37731.76869
2020/8/18 17:59:01,229.527,33.833,37945.75093
2020/8/18 18:00:01,226.933,31.322,38180.96808
2020/8/18 18:01:01,224.607,28.69,38436.19646
2020/8/18 18:02:01,222.529,25.957,38710.11797
2020/8/18 18:03:01,220.678,23.142,39001.33292
2020/8/18 18:04:01,219.035,20.26,39308.37317
2020/8/18 18:05:01,217.58,17.325,39629.71481
2020/8/18 18:06:01,216.298,14.349,39963.79047
2020/8/18 18:07:01,215.174,11.342,40309.00112
2020/8/18 18:08:01,214.195,8.311,40663.72705
2020/8/18 18:09:01,213.351,5.265,41026.33808
2020/8/18 18:10:01,212.632,2.21,41395.20303
2020/8/18 18:11:01,212.031,-0.85,41768.69821
2020/8/18 18:12:01,211.542,-3.909,42145.21507
2020/8/18 18:13:01,211.16,-6.963,42523.16705
2020/8/18 18:14:01,210.882,-10.009,42900.99564
2020/8/18 18:15:01,210.705,-13.045,43277.17557
2020/8/18 18:16:01,210.631,-16.067,43650.21949
2020/8/18 18:17:01,210.659,-19.072,44018.6818
2020/8/18 18:18:01,210.792,-22.059,44381.16209
2020/8/18 18:18:57,211.013,-24.812,44710.88268
2020/8/18 18:58:29,339.249,-24.73,44687.40393
2020/8/18 18:59:28,339.825,-21.573,44308.09332
2020/8/18 19:00:28,340.318,-18.339,43914.20484
2020/8/18 19:01:28,340.728,-15.062,43511.03639
2020/8/18 19:02:28,341.062,-11.743,43100.00083
2020/8/18 19:03:28,341.323,-8.382,42682.58332
2020/8/18 19:04:28,341.513,-4.979,42260.34005
2020/8/18 19:05:28,341.635,-1.533,41834.89649
2020/8/18 19:06:28,341.687,1.954,41407.94489
2020/8/18 19:07:28,341.67,5.484,40981.24106
2020/8/18 19:08:28,341.58,9.054,40556.60025
2020/8/18 19:09:28,341.413,12.666,40135.89197
2020/8/18 19:10:28,341.165,16.319,39721.03368
2020/8/18 19:11:28,340.826,20.01,39313.98319
2020/8/18 19:12:28,340.387,23.738,38916.72966
2020/8/18 19:13:28,339.833,27.502,38531.28307
2020/8/18 19:14:28,339.146,31.297,38159.66219
2020/8/18 19:15:28,338.302,35.119,37803.88087
2020/8/18 19:16:28,337.269,38.964,37465.93276
2020/8/18 19:17:28,336.004,42.822,37147.7745
2020/8/18 19:18:28,334.448,46.684,36851.30753
2020/8/18 19:19:28,332.52,50.536,36578.35882
2020/8/18 19:20:28,330.106,54.358,36330.66055
2020/8/18 19:21:28,327.042,58.122,36109.82961
2020/8/18 19:22:28,323.091,61.785,35917.34689
2020/8/18 19:23:28,317.909,65.284,35754.53725
2020/8/18 19:24:28,311.007,68.52,35622.55054
2020/8/18 19:25:28,301.758,71.336,35522.34447
2020/8/18 19:26:28,289.598,73.497,35454.66964
2020/8/18 19:27:28,274.63,74.709,35420.05757
2020/8/18 19:28:28,258.378,74.738,35418.81195
2020/8/18 19:29:28,243.277,73.574,35451.00357
2020/8/18 19:30:28,230.931,71.443,35516.46907
2020/8/18 19:31:28,221.506,68.638,35614.81361
2020/8/18 19:32:28,214.451,65.398,35745.41727
2020/8/18 19:33:28,209.136,61.882,35907.44498
2020/8/18 19:34:28,205.064,58.193,36099.85961
2020/8/18 19:35:28,201.883,54.395,36321.43762
2020/8/18 19:36:28,199.349,50.533,36570.78683
2020/8/18 19:37:28,197.297,46.634,36846.36572
2020/8/18 19:38:28,195.608,42.719,37146.50344
2020/8/18 19:39:28,194.2,38.802,37469.42041
2020/8/18 19:40:28,193.012,34.893,37813.24845
2020/8/18 19:41:28,191.999,31.001,38176.05059
2020/8/18 19:42:28,191.129,27.131,38555.83966
2020/8/18 19:43:28,190.374,23.287,38950.5958
2020/8/18 19:44:28,189.716,19.472,39358.2825
2020/8/18 19:45:28,189.138,15.689,39776.8611
2020/8/18 19:46:28,188.628,11.938,40204.30372
2020/8/18 19:47:28,188.176,8.222,40638.60462
2020/8/18 19:48:28,187.774,4.539,41077.79003
2020/8/18 19:49:28,187.416,0.891,41519.92657
2020/8/18 19:50:28,187.095,-2.723,41963.12829
2020/8/18 19:51:28,186.807,-6.303,42405.5626
2020/8/18 19:52:28,186.549,-9.851,42845.455
2020/8/18 19:53:28,186.317,-13.367,43281.09294
2020/8/18 19:54:28,186.109,-16.852,43710.82885
2020/8/18 19:55:28,185.922,-20.308,44133.08238
2020/8/18 19:56:28,185.755,-23.735,44546.34214
2020/8/18 19:56:48,185.704,-24.845,44678.68274
2020/8/18 20:37:12,4.717,-24.682,44640.74062
2020/8/18 20:38:11,4.893,-21.292,44233.03767
2020/8/18 20:39:11,5.086,-17.837,43811.56752
2020/8/18 20:40:11,5.296,-14.352,43382.09995
2020/8/18 20:41:11,5.525,-10.837,42946.1979
2020/8/18 20:42:11,5.775,-7.289,42505.4928
2020/8/18 20:43:11,6.05,-3.708,42061.68248
2020/8/18 20:44:11,6.354,-0.093,41616.52846
2020/8/18 20:45:11,6.69,3.557,41171.85229
2020/8/18 20:46:11,7.063,7.242,40729.53115
2020/8/18 20:47:11,7.48,10.963,40291.49228
2020/8/18 20:48:11,7.948,14.718,39859.70626
2020/8/18 20:49:11,8.475,18.509,39436.17904
2020/8/18 20:50:11,9.074,22.333,39022.94245
2020/8/18 20:51:11,9.757,26.189,38622.04329
2020/8/18 20:52:11,10.543,30.074,38235.53082
2020/8/18 20:53:11,11.453,33.986,37865.44261
2020/8/18 20:54:11,12.519,37.919,37513.78886
2020/8/18 20:55:11,13.779,41.867,37182.53522
2020/8/18 20:56:11,15.288,45.821,36873.58428
2020/8/18 20:57:11,17.118,49.77,36588.75599
2020/8/18 20:58:11,19.374,53.696,36329.76732
2020/8/18 20:59:11,22.207,57.577,36098.21166
2020/8/18 21:00:11,25.839,61.376,35895.53822
2020/8/18 21:01:11,30.603,65.04,35723.03237
2020/8/18 21:02:11,36.995,68.481,35581.79706
2020/8/18 21:03:11,45.715,71.559,35472.73631
2020/8/18 21:04:11,57.568,74.046,35396.54116
2020/8/18 21:05:11,72.882,75.621,35353.67859
2020/8/18 21:06:11,90.369,75.968,35344.38393
2020/8/18 21:07:11,107.09,75.003,35368.65705
2020/8/18 21:08:11,120.736,72.953,35426.26239
2020/8/18 21:09:11,130.945,70.16,35516.73301
2020/8/18 21:10:11,138.394,66.904,35639.37831
2020/8/18 21:11:11,143.869,63.367,35793.29529
2020/8/18 21:12:11,147.97,59.66,35977.38276
2020/8/18 21:13:11,151.106,55.851,36190.35819
2020/8/18 21:14:11,153.55,51.986,36430.77628
2020/8/18 21:15:11,155.485,48.091,36697.04908
2020/8/18 21:16:11,157.036,44.189,36987.46662
2020/8/18 21:17:11,158.29,40.292,37300.21789
2020/8/18 21:18:11,159.31,36.411,37633.41129
2020/8/18 21:19:11,160.14,32.553,37985.09448
2020/8/18 21:20:11,160.814,28.723,38353.27302
2020/8/18 21:21:11,161.357,24.927,38735.92774
2020/8/18 21:22:11,161.788,21.167,39131.03056
2020/8/18 21:23:11,162.12,17.445,39536.55868
2020/8/18 21:24:11,162.365,13.763,39950.50722
2020/8/18 21:25:11,162.53,10.122,40370.90012
2020/8/18 21:26:11,162.622,6.522,40795.79967
2020/8/18 21:27:11,162.645,2.965,41223.3144
2020/8/18 21:28:11,162.601,-0.551,41651.60582
2020/8/18 21:29:11,162.491,-4.024,42078.89383
2020/8/18 21:30:11,162.315,-7.454,42503.46112
2020/8/18 21:31:11,162.073,-10.843,42923.65661
2020/8/18 21:32:11,161.762,-14.19,43337.89808
2020/8/18 21:33:11,161.378,-17.494,43744.67412
2020/8/18 21:34:11,160.917,-20.756,44142.54546
2020/8/18 21:35:11,160.371,-23.976,44530.14583
2020/8/18 21:35:27,160.212,-24.82,44630.70563
2020/8/18 22:15:04,30.074,-24.677,44594.25281
2020/8/18 22:16:04,29.861,-21.703,44236.92815
2020/8/18 22:17:04,29.753,-18.685,43869.45502
2020/8/18 22:18:04,29.747,-15.648,43496.08257
2020/8/18 22:19:04,29.842,-12.595,43118.22938
2020/8/18 22:20:04,30.037,-9.528,42737.36001
2020/8/18 22:21:04,30.332,-6.45,42354.9816
2020/8/18 22:22:04,30.731,-3.363,41972.63986
2020/8/18 22:23:04,31.236,-0.271,41591.91439
2020/8/18 22:24:04,31.853,2.822,41214.41328
2020/8/18 22:25:04,32.587,5.912,40841.767
2020/8/18 22:26:04,33.447,8.993,40475.62132
2020/8/18 22:27:04,34.444,12.059,40117.62951
2020/8/18 22:28:04,35.587,15.103,39769.44355
2020/8/18 22:29:04,36.891,18.116,39432.70441
2020/8/18 22:30:04,38.371,21.087,39109.03164
2020/8/18 22:31:04,40.046,24.006,38800.01198
2020/8/18 22:32:04,41.933,26.858,38507.1872
2020/8/18 22:33:04,44.056,29.626,38232.04156
2020/8/18 22:34:04,46.435,32.293,37975.9886
2020/8/18 22:35:04,49.095,34.835,37740.35787
2020/8/18 22:36:04,52.056,37.229,37526.38147
2020/8/18 22:37:04,55.338,39.447,37335.18117
2020/8/18 22:38:04,58.951,41.459,37167.75574
2020/8/18 22:39:04,62.896,43.233,37024.96961
2020/8/18 22:40:04,67.161,44.736,36907.54223
2020/8/18 22:41:04,71.713,45.937,36816.03946
2020/8/18 22:42:04,76.5,46.808,36750.86627
2020/8/18 22:43:04,81.449,47.329,36712.26187
2020/8/18 22:44:04,86.472,47.487,36700.29659
2020/8/18 22:45:04,91.472,47.279,36714.87148
2020/8/18 22:46:04,96.354,46.714,36755.71978
2020/8/18 22:47:04,101.035,45.809,36822.4111
2020/8/18 22:48:04,105.45,44.592,36914.3573
2020/8/18 22:49:04,109.553,43.092,37030.82081
2020/8/18 22:50:04,113.321,41.343,37170.92418
2020/8/18 22:51:04,116.745,39.379,37333.66153
2020/8/18 22:52:04,119.83,37.231,37517.9108
2020/8/18 22:53:04,122.592,34.93,37722.44704
2020/8/18 22:54:04,125.049,32.503,37945.956
2020/8/18 22:55:04,127.224,29.974,38187.04813
2020/8/18 22:56:04,129.139,27.363,38444.27228
2020/8/18 22:57:04,130.815,24.689,38716.12924
2020/8/18 22:58:04,132.274,21.968,39001.08468
2020/8/18 22:59:04,133.534,19.212,39297.58133
2020/8/18 23:00:04,134.611,16.435,39604.05051
2020/8/18 23:01:04,135.519,13.645,39918.92261
2020/8/18 23:02:04,136.271,10.852,40240.63667
2020/8/18 23:03:04,136.877,8.063,40567.64901
2020/8/18 23:04:04,137.346,5.285,40898.44088
2020/8/18 23:05:04,137.685,2.522,41231.5252
2020/8/18 23:06:04,137.9,-0.218,41565.45239
2020/8/18 23:07:04,137.994,-2.933,41898.81538
2020/8/18 23:08:04,137.972,-5.617,42230.25389
2020/8/18 23:09:04,137.835,-8.266,42558.45794
2020/8/18 23:10:04,137.583,-10.877,42882.17079
2020/8/18 23:11:04,137.216,-13.445,43200.19129
2020/8/18 23:12:04,136.734,-15.968,43511.37577
2020/8/18 23:13:04,136.133,-18.44,43814.63947
2020/8/18 23:14:04,135.412,-20.858,44108.95757
2020/8/18 23:15:04,134.565,-23.217,44393.36595
2020/8/18 23:15:43,133.939,-24.732,44574.27522
2020/8/18 23:51:51,55.82,-24.717,44556.74759
2020/8/18 23:52:50,55.269,-22.747,44320.51627
2020/8/18 23:53:50,54.835,-20.737,44077.17474
2020/8/18 23:54:50,54.521,-18.71,43829.83721
2020/8/18 23:55:50,54.323,-16.672,43579.49017
2020/8/18 23:56:50,54.238,-14.628,43327.13632
2020/8/18 23:57:50,54.263,-12.583,43073.79112
2020/8/18 23:58:50,54.396,-10.543,42820.47898
2020/8/18 23:59:50,54.637,-8.514,42568.22934
2020/8/19 0:00:50,54.983,-6.5,42318.0724
2020/8/19 0:01:50,55.435,-4.508,42071.03462
2020/8/19 0:02:50,55.992,-2.543,41828.13398
2020/8/19 0:03:50,56.653,-0.612,41590.37503
2020/8/19 0:04:50,57.419,1.28,41358.74371
2020/8/19 0:05:50,58.289,3.125,41134.20208
2020/8/19 0:06:50,59.263,4.916,40917.6828
2020/8/19 0:07:50,60.342,6.648,40710.08369
2020/8/19 0:08:50,61.524,8.312,40512.26216
2020/8/19 0:09:50,62.808,9.901,40325.02964
2020/8/19 0:10:50,64.192,11.407,40149.14633
2020/8/19 0:11:50,65.673,12.823,39985.31594
2020/8/19 0:12:50,67.249,14.142,39834.18068
2020/8/19 0:13:50,68.914,15.356,39696.3168
2020/8/19 0:14:50,70.662,16.458,39572.23039
2020/8/19 0:15:50,72.487,17.442,39462.35356
2020/8/19 0:16:50,74.379,18.301,39367.04157
2020/8/19 0:17:50,76.329,19.031,39286.57025
2020/8/19 0:18:50,78.326,19.628,39221.13411
2020/8/19 0:19:50,80.358,20.088,39170.84549
2020/8/19 0:20:50,82.412,20.409,39135.73406
2020/8/19 0:21:50,84.474,20.59,39115.74743
2020/8/19 0:22:50,86.531,20.633,39110.75222
2020/8/19 0:23:50,88.57,20.538,39120.53612
2020/8/19 0:24:50,90.577,20.309,39144.81058
2020/8/19 0:25:50,92.54,19.951,39183.21393
2020/8/19 0:26:50,94.447,19.467,39235.31557
2020/8/19 0:27:50,96.289,18.865,39300.62032
2020/8/19 0:28:50,98.056,18.152,39378.57319
2020/8/19 0:29:50,99.741,17.334,39468.56491
2020/8/19 0:30:50,101.337,16.421,39569.93732
2020/8/19 0:31:50,102.84,15.419,39681.98917
2020/8/19 0:32:50,104.246,14.337,39803.98205
2020/8/19 0:33:50,105.553,13.184,39935.14631
2020/8/19 0:34:50,106.759,11.968,40074.68691
2020/8/19 0:35:50,107.864,10.697,40221.78921
2020/8/19 0:36:50,108.867,9.379,40375.62466
2020/8/19 0:37:50,109.769,8.021,40535.35619
2020/8/19 0:38:50,110.572,6.631,40700.1434
2020/8/19 0:39:50,111.276,5.215,40869.14743
2020/8/19 0:40:50,111.884,3.781,41041.53558
2020/8/19 0:41:50,112.396,2.334,41216.48556
2020/8/19 0:42:50,112.816,0.881,41393.18945
2020/8/19 0:43:50,113.146,-0.574,41570.85726
2020/8/19 0:44:50,113.386,-2.024,41748.72022
2020/8/19 0:45:50,113.54,-3.464,41926.03368
2020/8/19 0:46:50,113.608,-4.891,42102.07978
2020/8/19 0:47:50,113.595,-6.298,42276.16966
2020/8/19 0:48:50,113.5,-7.683,42447.64553
2020/8/19 0:49:50,113.328,-9.041,42615.88238
2020/8/19 0:50:50,113.078,-10.367,42780.28941
2020/8/19 0:51:50,112.755,-11.659,42940.31126
2020/8/19 0:52:50,112.359,-12.913,43095.42901
2020/8/19 0:53:50,111.893,-14.124,43245.16089
2020/8/19 0:54:50,111.359,-15.291,43389.06292
2020/8/19 0:55:50,110.76,-16.41,43526.72918
2020/8/19 0:56:50,110.099,-17.479,43657.79216
2020/8/19 0:57:50,109.378,-18.494,43781.92271
2020/8/19 0:58:50,108.601,-19.453,43898.83004
2020/8/19 0:59:50,107.771,-20.353,44008.26142
2020/8/19 1:00:50,106.891,-21.194,44110.00184
2020/8/19 1:01:50,105.965,-21.972,44203.87366
2020/8/19 1:02:50,104.998,-22.686,44289.73594
2020/8/19 1:03:50,103.994,-23.336,44367.48387
2020/8/19 1:04:50,102.958,-23.919,44437.0479
2020/8/19 1:05:50,101.894,-24.435,44498.39305
2020/8/19 1:06:38,101.018,-24.802,44541.93733
2020/8/19 1:19:40,87.125,-24.943,44554.60754
2020/8/19 1:20:40,86.242,-24.568,44509.62688
2020/8/19 1:21:40,85.397,-24.149,44459.34897
2020/8/19 1:22:40,84.597,-23.692,44404.33348
2020/8/19 1:23:40,83.843,-23.2,44344.94711
2020/8/19 1:24:40,83.136,-22.675,44281.56386
2020/8/19 1:25:40,82.479,-22.121,44214.56317
2020/8/19 1:26:40,81.87,-21.543,44144.32808
2020/8/19 1:27:40,81.311,-20.942,44071.24334
2020/8/19 1:28:40,80.801,-20.322,43995.69356
2020/8/19 1:29:40,80.341,-19.687,43918.06136
2020/8/19 1:30:40,79.929,-19.039,43838.72554
2020/8/19 1:31:40,79.566,-18.381,43758.05927
2020/8/19 1:32:40,79.249,-17.717,43676.42832
2020/8/19 1:33:40,78.979,-17.049,43594.18938
2020/8/19 1:34:40,78.753,-16.38,43511.68835
2020/8/19 1:35:40,78.572,-15.713,43429.25883
2020/8/19 1:36:40,78.432,-15.05,43347.22053
2020/8/19 1:37:40,78.332,-14.394,43265.87793
2020/8/19 1:38:40,78.272,-13.745,43185.51894
2020/8/19 1:39:40,78.249,-13.108,43106.4137
2020/8/19 1:40:40,78.261,-12.484,43028.81349
2020/8/19 1:41:40,78.306,-11.873,42952.9498
2020/8/19 1:42:40,78.382,-11.279,42879.03352
2020/8/19 1:43:40,78.488,-10.702,42807.25426
2020/8/19 1:44:40,78.622,-10.144,42737.77984
2020/8/19 1:45:40,78.78,-9.606,42670.75593
2020/8/19 1:46:40,78.962,-9.088,42606.30585
2020/8/19 1:47:40,79.165,-8.592,42544.53053
2020/8/19 1:48:40,79.386,-8.118,42485.50863
2020/8/19 1:49:40,79.625,-7.667,42429.2968
2020/8/19 1:50:40,79.879,-7.238,42375.93017
2020/8/19 1:51:40,80.146,-6.832,42325.42288
2020/8/19 1:52:40,80.424,-6.45,42277.76887
2020/8/19 1:53:40,80.711,-6.089,42232.94274
2020/8/19 1:54:40,81.006,-5.752,42190.90078
2020/8/19 1:55:40,81.307,-5.436,42151.58204
2020/8/19 1:56:40,81.611,-5.141,42114.90969
2020/8/19 1:57:40,81.918,-4.867,42080.7923
2020/8/19 1:58:40,82.227,-4.613,42049.1253
2020/8/19 1:59:40,82.536,-4.377,42019.79251
2020/8/19 2:00:40,82.843,-4.16,41992.66769
2020/8/19 2:01:40,83.148,-3.958,41967.61619
2020/8/19 2:02:40,83.451,-3.773,41944.49662
2020/8/19 2:03:40,83.749,-3.602,41923.16253
2020/8/19 2:04:40,84.044,-3.444,41903.46411
2020/8/19 2:05:40,84.333,-3.298,41885.24988
2020/8/19 2:06:40,84.618,-3.163,41868.36835
2020/8/19 2:07:40,84.897,-3.037,41852.66968
2020/8/19 2:08:40,85.171,-2.92,41838.00728
2020/8/19 2:09:40,85.44,-2.81,41824.23934
2020/8/19 2:10:40,85.704,-2.706,41811.23033
2020/8/19 2:11:40,85.964,-2.608,41798.85241
2020/8/19 2:12:40,86.219,-2.513,41786.98673
2020/8/19 2:13:40,86.471,-2.421,41775.52468
2020/8/19 2:14:40,86.72,-2.333,41764.36907
2020/8/19 2:15:40,86.967,-2.245,41753.43505
2020/8/19 2:16:40,87.213,-2.159,41742.65114
2020/8/19 2:17:40,87.458,-2.074,41731.95999
2020/8/19 2:18:40,87.704,-1.989,41721.31903
2020/8/19 2:19:40,87.952,-1.905,41710.70105
2020/8/19 2:20:40,88.202,-1.82,41700.09465
2020/8/19 2:21:40,88.455,-1.735,41689.50447
2020/8/19 2:22:40,88.714,-1.651,41678.95139
2020/8/19 2:23:40,88.978,-1.568,41668.47255
2020/8/19 2:24:40,89.248,-1.485,41658.12121
2020/8/19 2:25:40,89.526,-1.404,41647.96653
2020/8/19 2:26:40,89.813,-1.325,41638.09317
2020/8/19 2:27:40,90.109,-1.249,41628.60076
2020/8/19 2:28:40,90.416,-1.177,41619.60324
2020/8/19 2:29:40,90.733,-1.11,41611.22812
2020/8/19 2:30:40,91.061,-1.05,41603.61549
2020/8/19 2:31:40,91.402,-0.996,41596.91706
2020/8/19 2:32:40,91.754,-0.952,41591.29497
2020/8/19 2:33:40,92.119,-0.918,41586.92051
2020/8/19 2:34:40,92.497,-0.895,41583.97276
2020/8/19 2:35:40,92.887,-0.885,41582.63717
2020/8/19 2:36:40,93.289,-0.89,41583.1039
2020/8/19 2:37:40,93.704,-0.911,41585.56626
2020/8/19 2:38:40,94.13,-0.95,41590.21899
2020/8/19 2:39:40,94.566,-1.008,41597.25646
2020/8/19 2:40:40,95.012,-1.088,41606.87088
2020/8/19 2:41:40,95.467,-1.189,41619.25047
2020/8/19 2:42:40,95.93,-1.315,41634.57755
2020/8/19 2:43:40,96.399,-1.466,41653.02671
2020/8/19 2:44:40,96.873,-1.643,41674.76299
2020/8/19 2:45:40,97.351,-1.849,41699.93995
2020/8/19 2:46:40,97.829,-2.083,41728.69795
2020/8/19 2:47:40,98.307,-2.347,41761.16241
2020/8/19 2:48:40,98.783,-2.642,41797.44216
2020/8/19 2:49:40,99.254,-2.969,41837.62783
2020/8/19 2:50:40,99.718,-3.327,41881.79045
2020/8/19 2:51:40,100.173,-3.718,41929.98004
2020/8/19 2:52:40,100.617,-4.141,41982.22449
2020/8/19 2:53:40,101.046,-4.597,42038.52834
2020/8/19 2:54:40,101.459,-5.085,42098.87201
2020/8/19 2:55:40,101.854,-5.605,42163.21092
2020/8/19 2:56:40,102.226,-6.156,42231.47501
2020/8/19 2:57:40,102.575,-6.738,42303.56825
2020/8/19 2:58:40,102.898,-7.35,42379.36845
2020/8/19 2:59:40,103.192,-7.99,42458.72717
2020/8/19 3:00:40,103.454,-8.657,42541.46994
2020/8/19 3:01:40,103.683,-9.349,42627.39647
2020/8/19 3:02:40,103.875,-10.066,42716.28119
2020/8/19 3:03:40,104.03,-10.805,42807.87391
2020/8/19 3:04:40,104.143,-11.563,42901.90067
2020/8/19 3:05:40,104.214,-12.339,42998.06469
2020/8/19 3:06:40,104.24,-13.131,43096.04753
2020/8/19 3:07:40,104.22,-13.935,43195.51037
2020/8/19 3:08:40,104.15,-14.75,43296.09542
2020/8/19 3:09:40,104.03,-15.572,43397.4274
2020/8/19 3:10:40,103.857,-16.398,43499.11525
2020/8/19 3:11:40,103.631,-17.225,43600.75376
2020/8/19 3:12:40,103.349,-18.051,43701.92543
2020/8/19 3:13:40,103.01,-18.871,43802.20234
2020/8/19 3:14:40,102.613,-19.683,43901.14803
2020/8/19 3:15:40,102.158,-20.483,43998.3195
2020/8/19 3:16:40,101.643,-21.266,44093.26922
2020/8/19 3:17:40,101.067,-22.031,44185.54713
2020/8/19 3:18:40,100.431,-22.772,44274.7027
2020/8/19 3:19:40,99.735,-23.485,44360.28694
2020/8/19 3:20:40,98.979,-24.168,44441.85446
2020/8/19 3:21:17,98.487,-24.568,44489.55378
2020/8/19 3:42:09,73.888,-24.962,44536.29918
2020/8/19 3:43:08,72.778,-24.191,44444.51248
2020/8/19 3:44:08,71.703,-23.339,44342.60164
2020/8/19 3:45:08,70.682,-22.417,44231.8058
2020/8/19 3:46:08,69.719,-21.427,44112.3321
2020/8/19 3:47:08,68.818,-20.371,43984.42821
2020/8/19 3:48:08,67.983,-19.254,43848.38263
2020/8/19 3:49:08,67.215,-18.076,43704.52508
2020/8/19 3:50:08,66.519,-16.843,43553.22664
2020/8/19 3:51:08,65.896,-15.557,43394.89985
2020/8/19 3:52:08,65.348,-14.221,43229.99852
2020/8/19 3:53:08,64.879,-12.839,43059.01757
2020/8/19 3:54:08,64.489,-11.414,42882.49254
2020/8/19 3:55:08,64.182,-9.952,42700.99901
2020/8/19 3:56:08,63.958,-8.454,42515.15175
2020/8/19 3:57:08,63.819,-6.927,42325.60373
2020/8/19 3:58:08,63.768,-5.373,42133.04478
2020/8/19 3:59:08,63.807,-3.798,41938.20006
2020/8/19 4:00:00,63.914,-2.419,41768.00985
