sat/group3-sr2.csv

Time (UTCG),Azimuth (deg),Elevation (deg),Range (km)
2020/8/18 4:00:00,88.205,51.032,36516.29246
2020/8/18 4:01:00,94.35,50.953,36521.86701
2020/8/18 4:02:00,100.384,50.388,36560.30157
2020/8/18 4:03:00,106.158,49.36,36631.32206
2020/8/18 4:04:00,111.554,47.908,36734.41303
2020/8/18 4:05:00,116.497,46.078,36868.82601
2020/8/18 4:06:00,120.957,43.924,37033.59128
2020/8/18 4:07:00,124.932,41.497,37227.53285
2020/8/18 4:08:00,128.445,38.844,37449.28591
2020/8/18 4:09:00,131.53,36.008,37697.31614
2020/8/18 4:10:00,134.226,33.026,37969.94062
2020/8/18 4:11:00,136.575,29.929,38265.34903
2020/8/18 4:12:00,138.613,26.744,38581.62551
2020/8/18 4:13:00,140.376,23.492,38916.76971
2020/8/18 4:14:00,141.894,20.192,39268.71748
2020/8/18 4:15:00,143.193,16.858,39635.36012
2020/8/18 4:16:00,144.295,13.504,40014.56256
2020/8/18 4:17:00,145.219,10.139,40404.1799
2020/8/18 4:18:00,145.98,6.773,40802.07224
2020/8/18 4:19:00,146.591,3.412,41206.11814
2020/8/18 4:20:00,147.06,0.062,41614.22626
2020/8/18 4:21:00,147.396,-3.272,42024.34548
2020/8/18 4:22:00,147.602,-6.585,42434.47364
2020/8/18 4:23:00,147.683,-9.873,42842.66487
2020/8/18 4:24:00,147.64,-13.133,43247.03578
2020/8/18 4:25:00,147.47,-16.361,43645.77049
2020/8/18 4:26:00,147.171,-19.555,44037.12476
2020/8/18 4:27:00,146.739,-22.711,44419.42928
2020/8/18 4:27:40,146.369,-24.807,44670.31389
2020/8/18 5:03:19,31.762,-24.889,44685.46805
2020/8/18 5:04:18,31.168,-21.758,44310.34944
2020/8/18 5:05:18,30.701,-18.542,43919.51023
2020/8/18 5:06:18,30.363,-15.284,43519.30201
2020/8/18 5:07:18,30.147,-11.985,43111.40635
2020/8/18 5:08:18,30.051,-8.649,42697.58493
2020/8/18 5:09:18,30.075,-5.278,42279.67659
2020/8/18 5:10:18,30.218,-1.875,41859.5936
2020/8/18 5:11:18,30.484,1.557,41439.31696
2020/8/18 5:12:18,30.879,5.014,41020.89063
2020/8/18 5:13:18,31.409,8.492,40606.41441
2020/8/18 5:14:18,32.085,11.986,40198.03547
2020/8/18 5:15:18,32.92,15.49,39797.93834
2020/8/18 5:16:18,33.931,18.996,39408.33314
2020/8/18 5:17:18,35.138,22.496,39031.44216
2020/8/18 5:18:18,36.568,25.977,38669.48466
2020/8/18 5:19:18,38.25,29.427,38324.65957
2020/8/18 5:20:18,40.223,32.827,37999.12695
2020/8/18 5:21:18,42.532,36.156,37694.98736
2020/8/18 5:22:18,45.228,39.388,37414.26034
2020/8/18 5:23:18,48.371,42.489,37158.86147
2020/8/18 5:24:18,52.025,45.418,36930.57936
2020/8/18 5:25:18,56.256,48.126,36731.05211
2020/8/18 5:26:18,61.118,50.556,36561.74485
2020/8/18 5:27:18,66.643,52.641,36423.92822
2020/8/18 5:28:18,72.813,54.309,36318.65894
2020/8/18 5:29:18,79.545,55.492,36246.76302
2020/8/18 5:30:18,86.675,56.132,36208.82221
2020/8/18 5:31:18,93.97,56.196,36205.16426
2020/8/18 5:32:18,101.166,55.678,36235.8573
2020/8/18 5:33:18,108.017,54.606,36300.70872
2020/8/18 5:34:18,114.341,53.033,36399.26837
2020/8/18 5:35:18,120.036,51.024,36530.83619
2020/8/18 5:36:18,125.071,48.651,36694.47373
2020/8/18 5:37:18,129.468,45.982,36889.0193
2020/8/18 5:38:18,133.278,43.077,37113.10602
2020/8/18 5:39:18,136.565,39.986,37365.1822
2020/8/18 5:40:18,139.394,36.753,37643.53324
2020/8/18 5:41:18,141.826,33.412,37946.30469
2020/8/18 5:42:18,143.915,29.991,38271.52527
2020/8/18 5:43:18,145.709,26.513,38617.12999
2020/8/18 5:44:18,147.246,22.996,38980.98208
2020/8/18 5:45:18,148.559,19.454,39360.89418
2020/8/18 5:46:18,149.676,15.899,39754.6477
2020/8/18 5:47:18,150.618,12.342,40160.01079
2020/8/18 5:48:18,151.405,8.788,40574.75447
2020/8/18 5:49:18,152.049,5.246,40996.66681
2020/8/18 5:50:18,152.562,1.718,41423.56565
2020/8/18 5:51:18,152.954,-1.79,41853.30932
2020/8/18 5:52:18,153.231,-5.275,42283.80592
2020/8/18 5:53:18,153.396,-8.734,42713.02105
2020/8/18 5:54:18,153.452,-12.166,43138.98434
2020/8/18 5:55:18,153.399,-15.568,43559.79462
2020/8/18 5:56:18,153.236,-18.939,43973.62423
2020/8/18 5:57:18,152.958,-22.276,44378.72229
2020/8/18 5:58:07,152.641,-24.977,44702.14002
2020/8/18 6:34:36,23.586,-24.975,44703.25101
2020/8/18 6:35:36,23.073,-21.594,44298.02845
2020/8/18 6:36:36,22.67,-18.168,43881.19309
2020/8/18 6:37:36,22.37,-14.699,43454.65914
2020/8/18 6:38:36,22.168,-11.189,43020.18023
2020/8/18 6:39:36,22.061,-7.638,42579.59619
2020/8/18 6:40:36,22.048,-4.047,42134.83051
2020/8/18 6:41:36,22.129,-0.417,41687.88699
2020/8/18 6:42:36,22.307,3.252,41240.84535
2020/8/18 6:43:36,22.588,6.956,40795.8557
2020/8/18 6:44:36,22.977,10.696,40355.1315
2020/8/18 6:45:36,23.485,14.468,39920.9411
2020/8/18 6:46:36,24.124,18.268,39495.59747
2020/8/18 6:47:36,24.912,22.093,39081.44606
2020/8/18 6:48:36,25.869,25.937,38680.85063
2020/8/18 6:49:36,27.025,29.792,38296.17706
2020/8/18 6:50:36,28.414,33.649,37929.77482
2020/8/18 6:51:36,30.085,37.495,37583.95671
2020/8/18 6:52:36,32.096,41.313,37260.97624
2020/8/18 6:53:36,34.527,45.081,36963.00385
2020/8/18 6:54:36,37.48,48.769,36692.10133
2020/8/18 6:55:36,41.088,52.336,36450.19593
2020/8/18 6:56:36,45.515,55.728,36239.05391
2020/8/18 6:57:36,50.961,58.868,36060.25504
2020/8/18 6:58:36,57.638,61.658,35915.16808
2020/8/18 6:59:36,65.71,63.968,35804.92877
2020/8/18 7:00:36,75.183,65.648,35730.42065
2020/8/18 7:01:36,85.759,66.552,35692.25975
2020/8/18 7:02:36,96.785,66.585,35690.7836
2020/8/18 7:03:36,107.433,65.742,35726.04515
2020/8/18 7:04:36,117.025,64.112,35797.81186
2020/8/18 7:05:36,125.232,61.837,35905.56988
2020/8/18 7:06:36,132.041,59.067,36048.53326
2020/8/18 7:07:36,137.608,55.934,36225.65771
2020/8/18 7:08:36,142.145,52.541,36435.6584
2020/8/18 7:09:36,145.852,48.963,36677.03097
2020/8/18 7:10:36,148.898,45.257,36948.07507
2020/8/18 7:11:36,151.418,41.466,37246.91953
2020/8/18 7:12:36,153.518,37.619,37571.5483
2020/8/18 7:13:36,155.278,33.739,37919.82662
2020/8/18 7:14:36,156.76,29.844,38289.52639
2020/8/18 7:15:36,158.013,25.946,38678.35073
2020/8/18 7:16:36,159.074,22.055,39083.95664
2020/8/18 7:17:36,159.972,18.179,39503.97617
2020/8/18 7:18:36,160.73,14.324,39936.03538
2020/8/18 7:19:36,161.366,10.493,40377.77114
2020/8/18 7:20:36,161.894,6.689,40826.84609
2020/8/18 7:21:36,162.326,2.915,41280.96131
2020/8/18 7:22:36,162.67,-0.827,41737.86716
2020/8/18 7:23:36,162.931,-4.538,42195.37238
2020/8/18 7:24:36,163.115,-8.215,42651.35153
2020/8/18 7:25:36,163.224,-11.86,43103.75107
2020/8/18 7:26:36,163.26,-15.472,43550.59409
2020/8/18 7:27:36,163.221,-19.05,43989.98408
2020/8/18 7:28:36,163.107,-22.597,44420.1077
2020/8/18 7:29:17,162.983,-25.013,44709.16793
2020/8/18 8:06:38,12.079,-24.974,44701.46667
2020/8/18 8:07:37,11.74,-21.422,44275.40146
2020/8/18 8:08:37,11.46,-17.797,43833.9326
2020/8/18 8:09:37,11.237,-14.133,43382.76783
2020/8/18 8:10:37,11.067,-10.428,42923.74155
2020/8/18 8:11:37,10.948,-6.68,42458.77848
2020/8/18 8:12:37,10.878,-2.889,41989.8912
2020/8/18 8:13:37,10.857,0.945,41519.17701
2020/8/18 8:14:37,10.885,4.825,41048.81358
2020/8/18 8:15:37,10.965,8.751,40581.05333
2020/8/18 8:16:37,11.1,12.723,40118.21631
2020/8/18 8:17:37,11.294,16.742,39662.68136
2020/8/18 8:18:37,11.554,20.807,39216.87538
2020/8/18 8:19:37,11.89,24.918,38783.26046
2020/8/18 8:20:37,12.314,29.074,38364.31877
2020/8/18 8:21:37,12.843,33.273,37962.53517
2020/8/18 8:22:37,13.499,37.511,37580.37721
2020/8/18 8:23:37,14.316,41.785,37220.27308
2020/8/18 8:24:37,15.337,46.09,36884.58706
2020/8/18 8:25:37,16.629,50.416,36575.59339
2020/8/18 8:26:37,18.288,54.754,36295.44841
2020/8/18 8:27:37,20.468,59.085,36046.16208
2020/8/18 8:28:37,23.415,63.384,35829.56916
2020/8/18 8:29:37,27.553,67.606,35647.30116
2020/8/18 8:30:37,33.646,71.674,35500.75996
2020/8/18 8:31:37,43.123,75.426,35391.09388
2020/8/18 8:32:37,58.468,78.523,35319.17738
2020/8/18 8:33:37,81.962,80.291,35285.59509
2020/8/18 8:34:37,109.187,79.988,35290.63089
2020/8/18 8:35:37,130.452,77.767,35334.26254
2020/8/18 8:36:37,143.896,74.437,35416.16218
2020/8/18 8:37:37,152.266,70.57,35535.70256
2020/8/18 8:38:37,157.742,66.443,35691.96874
2020/8/18 8:39:37,161.528,62.187,35883.77483
2020/8/18 8:40:37,164.271,57.867,36109.68487
2020/8/18 8:41:37,166.334,53.523,36368.03717
2020/8/18 8:42:37,167.933,49.176,36656.97094
2020/8/18 8:43:37,169.203,44.843,36974.45451
2020/8/18 8:44:37,170.231,40.532,37318.31394
2020/8/18 8:45:37,171.077,36.253,37686.26158
2020/8/18 8:46:37,171.782,32.009,38075.92332
2020/8/18 8:47:37,172.377,27.804,38484.86472
2020/8/18 8:48:37,172.882,23.641,38910.61477
2020/8/18 8:49:37,173.315,19.521,39350.68781
2020/8/18 8:50:37,173.687,15.446,39802.60287
2020/8/18 8:51:37,174.009,11.416,40263.90058
2020/8/18 8:52:37,174.288,7.43,40732.15801
2020/8/18 8:53:37,174.53,3.488,41205.00097
2020/8/18 8:54:37,174.74,-0.411,41680.11444
2020/8/18 8:55:37,174.921,-4.268,42155.25106
2020/8/18 8:56:37,175.077,-8.084,42628.23793
2020/8/18 8:57:37,175.21,-11.86,43096.98203
2020/8/18 8:58:37,175.321,-15.599,43559.47426
2020/8/18 8:59:37,175.412,-19.302,44013.79254
2020/8/18 9:00:37,175.485,-22.97,44458.10393
2020/8/18 9:01:09,175.516,-24.937,44693.28995
2020/8/18 9:38:56,359.105,-24.893,44680.77145
2020/8/18 9:39:55,358.981,-21.267,44245.52589
2020/8/18 9:40:55,358.855,-17.567,43794.59364
2020/8/18 9:41:55,358.727,-13.832,43334.34598
2020/8/18 9:42:55,358.594,-10.058,42866.66239
2020/8/18 9:43:55,358.454,-6.245,42393.51221
2020/8/18 9:44:55,358.307,-2.39,41916.95204
2020/8/18 9:45:55,358.149,1.508,41439.12225
2020/8/18 9:46:55,357.978,5.451,40962.24238
2020/8/18 9:47:55,357.791,9.439,40488.60511
2020/8/18 9:48:55,357.584,13.475,40020.56869
2020/8/18 9:49:55,357.354,17.557,39560.54757
2020/8/18 9:50:55,357.095,21.688,39111.00106
2020/8/18 9:51:55,356.801,25.867,38674.4198
2020/8/18 9:52:55,356.462,30.093,38253.30998
2020/8/18 9:53:55,356.067,34.366,37850.17492
2020/8/18 9:54:55,355.6,38.684,37467.49462
2020/8/18 9:55:55,355.041,43.045,37107.70246
2020/8/18 9:56:55,354.359,47.446,36773.16025
2020/8/18 9:57:55,353.509,51.881,36466.13097
2020/8/18 9:58:55,352.421,56.346,36188.75065
2020/8/18 9:59:55,350.984,60.829,35942.99912
2020/8/18 10:00:55,349.005,65.32,35730.67113
2020/8/18 10:01:55,346.121,69.793,35553.34825
2020/8/18 10:02:55,341.577,74.208,35412.37272
2020/8/18 10:03:55,333.553,78.461,35308.82423
2020/8/18 10:04:55,316.964,82.245,35243.50047
2020/8/18 10:05:55,280.39,84.457,35216.90237
2020/8/18 10:06:55,236.842,83.291,35229.22465
2020/8/18 10:07:55,214.785,79.855,35280.35214
2020/8/18 10:08:55,204.681,75.712,35369.86205
2020/8/18 10:09:55,199.253,71.342,35497.03205
2020/8/18 10:10:55,195.939,66.888,35660.85379
2020/8/18 10:11:55,193.735,62.408,35860.05129
2020/8/18 10:12:55,192.179,57.928,36093.10341
2020/8/18 10:13:55,191.034,53.466,36358.26939
2020/8/18 10:14:55,190.166,49.031,36653.61659
2020/8/18 10:15:55,189.495,44.631,36977.04941
2020/8/18 10:16:55,188.968,40.269,37326.33836
2020/8/18 10:17:55,188.553,35.951,37699.1489
2020/8/18 10:18:55,188.225,31.678,38093.06863
2020/8/18 10:19:55,187.968,27.453,38505.63323
2020/8/18 10:20:55,187.77,23.276,38934.3499
2020/8/18 10:21:55,187.622,19.149,39376.71876
2020/8/18 10:22:55,187.519,15.071,39830.25171
2020/8/18 10:23:55,187.455,11.042,40292.48869
2020/8/18 10:24:55,187.428,7.061,40761.01196
2020/8/18 10:25:55,187.435,3.128,41233.45775
2020/8/18 10:26:55,187.476,-0.758,41707.52614
2020/8/18 10:27:55,187.549,-4.599,42180.98895
2020/8/18 10:28:55,187.657,-8.396,42651.6961
2020/8/18 10:29:55,187.799,-12.15,43117.58046
2020/8/18 10:30:55,187.977,-15.863,43576.66155
2020/8/18 10:31:55,188.196,-19.537,44027.04821
2020/8/18 10:32:55,188.458,-23.172,44466.94038
2020/8/18 10:33:22,188.593,-24.823,44664.28563
2020/8/18 11:11:00,346.268,-24.749,44645.32861
2020/8/18 11:12:00,346.37,-21.197,44218.6493
2020/8/18 11:13:00,346.409,-17.585,43778.19121
2020/8/18 11:14:00,346.387,-13.939,43329.01043
2020/8/18 11:15:00,346.304,-10.26,42872.97287
2020/8/18 11:16:00,346.159,-6.545,42412.02926
2020/8/18 11:17:00,345.951,-2.796,41948.21202
2020/8/18 11:18:00,345.677,0.989,41483.63125
2020/8/18 11:19:00,345.331,4.809,41020.46953
2020/8/18 11:20:00,344.906,8.665,40560.97533
2020/8/18 11:21:00,344.394,12.553,40107.45496
2020/8/18 11:22:00,343.784,16.474,39662.2627
2020/8/18 11:23:00,343.061,20.425,39227.78905
2020/8/18 11:24:00,342.205,24.402,38806.44698
2020/8/18 11:25:00,341.194,28.399,38400.65605
2020/8/18 11:26:00,339.996,32.412,38012.82407
2020/8/18 11:27:00,338.57,36.429,37645.327
2020/8/18 11:28:00,336.862,40.441,37300.48633
2020/8/18 11:29:00,334.802,44.429,36980.54503
2020/8/18 11:30:00,332.293,48.372,36687.64164
2020/8/18 11:31:00,329.204,52.24,36423.78374
2020/8/18 11:32:00,325.36,55.988,36190.82071
2020/8/18 11:33:00,320.523,59.555,35990.41708
2020/8/18 11:34:00,314.388,62.851,35824.02688
2020/8/18 11:35:00,306.609,65.748,35692.87017
2020/8/18 11:36:00,296.895,68.073,35597.91238
2020/8/18 11:37:00,285.264,69.617,35539.84742
2020/8/18 11:38:00,272.346,70.189,35519.08528
2020/8/18 11:39:00,259.376,69.706,35535.74449
2020/8/18 11:40:00,247.621,68.241,35589.65008
2020/8/18 11:41:00,237.766,65.98,35680.33679
2020/8/18 11:42:00,229.863,63.134,35807.05768
2020/8/18 11:43:00,223.638,59.881,35968.79758
2020/8/18 11:44:00,218.743,56.351,36164.29091
2020/8/18 11:45:00,214.868,52.638,36392.04305
2020/8/18 11:46:00,211.771,48.804,36650.35446
2020/8/18 11:47:00,209.271,44.895,36937.34681
2020/8/18 11:48:00,207.236,40.943,37250.9898
2020/8/18 11:49:00,205.568,36.969,37589.12862
2020/8/18 11:50:00,204.194,32.991,37949.51044
2020/8/18 11:51:00,203.059,29.021,38329.8102
2020/8/18 11:52:00,202.123,25.068,38727.65443
2020/8/18 11:53:00,201.355,21.14,39140.64356
2020/8/18 11:54:00,200.73,17.241,39566.37168
2020/8/18 11:55:00,200.231,13.375,40002.44451
2020/8/18 11:56:00,199.844,9.545,40446.4948
2020/8/18 11:57:00,199.558,5.753,40896.19577
2020/8/18 11:58:00,199.366,2.001,41349.27233
2020/8/18 11:59:00,199.262,-1.711,41803.51065
2020/8/18 12:00:00,199.242,-5.382,42256.7658
2020/8/18 12:01:00,199.307,-9.012,42706.96794
2020/8/18 12:02:00,199.454,-12.601,43152.12724
2020/8/18 12:03:00,199.688,-16.148,43590.33758
2020/8/18 12:04:00,200.01,-19.652,44019.77932
2020/8/18 12:05:00,200.428,-23.115,44438.7212
2020/8/18 12:05:28,200.659,-24.725,44631.19314
2020/8/18 12:42:26,335.166,-24.611,44606.39082
2020/8/18 12:43:25,335.473,-21.287,44206.95064
2020/8/18 12:44:25,335.676,-17.877,43791.24293
2020/8/18 12:45:25,335.773,-14.434,43367.24587
2020/8/18 12:46:25,335.769,-10.959,42936.75906
2020/8/18 12:47:25,335.662,-7.453,42501.66033
2020/8/18 12:48:25,335.453,-3.92,42063.90221
2020/8/18 12:49:25,335.139,-0.359,41625.50739
2020/8/18 12:50:25,334.714,3.226,41188.56317
2020/8/18 12:51:25,334.17,6.832,40755.21452
2020/8/18 12:52:25,333.499,10.456,40327.65586
2020/8/18 12:53:25,332.687,14.092,39908.12109
2020/8/18 12:54:25,331.719,17.736,39498.87208
2020/8/18 12:55:25,330.574,21.379,39102.18518
2020/8/18 12:56:25,329.228,25.011,38720.33609
2020/8/18 12:57:25,327.65,28.622,38355.58249
2020/8/18 12:58:25,325.802,32.196,38010.14523
2020/8/18 12:59:25,323.639,35.714,37686.18744
2020/8/18 13:00:25,321.105,39.153,37385.79252
2020/8/18 13:01:25,318.136,42.481,37110.94071
2020/8/18 13:02:25,314.655,45.662,36863.48525
2020/8/18 13:03:25,310.581,48.647,36645.12812
2020/8/18 13:04:25,305.831,51.379,36457.3966
2020/8/18 13:05:25,300.337,53.788,36301.62068
2020/8/18 13:06:25,294.071,55.795,36178.9127
2020/8/18 13:07:25,287.078,57.316,36090.14945
2020/8/18 13:08:25,279.5,58.276,36035.95768
2020/8/18 13:09:25,271.591,58.619,36016.7035
2020/8/18 13:10:25,263.676,58.323,36032.48607
2020/8/18 13:11:25,256.08,57.409,36083.13598
2020/8/18 13:12:25,249.061,55.931,36168.21823
2020/8/18 13:13:25,242.769,53.966,36287.0398
2020/8/18 13:14:25,237.254,51.597,36438.66151
2020/8/18 13:15:25,232.488,48.904,36621.91352
2020/8/18 13:16:25,228.407,45.958,36835.41415
2020/8/18 13:17:25,224.928,42.817,37077.59111
2020/8/18 13:18:25,221.97,39.53,37346.70432
2020/8/18 13:19:25,219.455,36.134,37640.8701
2020/8/18 13:20:25,217.319,32.661,37958.0852
2020/8/18 13:21:25,215.507,29.134,38296.25108
2020/8/18 13:22:25,213.972,25.573,38653.19677
2020/8/18 13:23:25,212.676,21.994,39026.70106
2020/8/18 13:24:25,211.59,18.408,39414.5127
2020/8/18 13:25:25,210.688,14.825,39814.36911
2020/8/18 13:26:25,209.951,11.253,40224.01312
2020/8/18 13:27:25,209.363,7.698,40641.20761
2020/8/18 13:28:25,208.912,4.165,41063.74866
2020/8/18 13:29:25,208.589,0.659,41489.47653
2020/8/18 13:30:25,208.387,-2.818,41916.28508
2020/8/18 13:31:25,208.301,-6.262,42342.12967
2020/8/18 13:32:25,208.329,-9.671,42765.03356
2020/8/18 13:33:25,208.472,-13.042,43183.09319
2020/8/18 13:34:25,208.73,-16.374,43594.48224
2020/8/18 13:35:25,209.108,-19.664,43997.45489
2020/8/18 13:36:25,209.611,-22.91,44390.34816
2020/8/18 13:36:58,209.945,-24.681,44602.25074
2020/8/18 14:13:00,327.595,-24.601,44582.09777
2020/8/18 14:13:59,328.07,-21.481,44207.25567
2020/8/18 14:14:59,328.419,-18.272,43816.48301
2020/8/18 14:15:59,328.639,-15.028,43417.37758
2020/8/18 14:16:59,328.734,-11.751,43011.65658
2020/8/18 14:17:59,328.707,-8.443,42601.11196
2020/8/18 14:18:59,328.557,-5.109,42187.60663
2020/8/18 14:19:59,328.283,-1.752,41773.07002
2020/8/18 14:20:59,327.88,1.625,41359.49249
2020/8/18 14:21:59,327.342,5.017,40948.91865
2020/8/18 14:22:59,326.661,8.418,40543.43928
2020/8/18 14:23:59,325.825,11.823,40145.18189
2020/8/18 14:24:59,324.821,15.224,39756.29976
2020/8/18 14:25:59,323.631,18.611,39378.95925
2020/8/18 14:26:59,322.234,21.973,39015.32552
2020/8/18 14:27:59,320.607,25.298,38667.54662
2020/8/18 14:28:59,318.719,28.568,38337.73575
2020/8/18 14:29:59,316.537,31.763,38027.95231
2020/8/18 14:30:59,314.022,34.86,37740.18135
2020/8/18 14:31:59,311.133,37.83,37476.31244
2020/8/18 14:32:59,307.826,40.638,37238.11746
2020/8/18 14:33:59,304.059,43.244,37027.22877
2020/8/18 14:34:59,299.799,45.6,36845.11736
2020/8/18 14:35:59,295.028,47.656,36693.0724
2020/8/18 14:36:59,289.758,49.356,36572.18219
2020/8/18 14:37:59,284.04,50.647,36483.3176
2020/8/18 14:38:59,277.973,51.482,36427.11828
2020/8/18 14:39:59,271.701,51.827,36403.98233
2020/8/18 14:40:59,265.397,51.669,36414.05979
2020/8/18 14:41:59,259.241,51.013,36457.25019
2020/8/18 14:42:59,253.389,49.889,36533.20423
2020/8/18 14:43:59,247.957,48.338,36641.32962
2020/8/18 14:44:59,243.013,46.414,36780.80076
2020/8/18 14:45:59,238.58,44.171,36950.57194
2020/8/18 14:46:59,234.652,41.663,37149.39356
2020/8/18 14:47:59,231.198,38.937,37375.83063
2020/8/18 14:48:59,228.179,36.038,37628.28337
2020/8/18 14:49:59,225.552,33.002,37905.00852
2020/8/18 14:50:59,223.274,29.859,38204.14175
2020/8/18 14:51:59,221.305,26.636,38523.71944
2020/8/18 14:52:59,219.61,23.353,38861.70051
2020/8/18 14:53:59,218.158,20.029,39215.98682
2020/8/18 14:54:59,216.923,16.677,39584.4428
2020/8/18 14:55:59,215.884,13.311,39964.9133
2020/8/18 14:56:59,215.021,9.939,40355.23977
2020/8/18 14:57:59,214.32,6.57,40753.27514
2020/8/18 14:58:59,213.769,3.211,41156.89663
2020/8/18 14:59:59,213.359,-0.132,41564.01705
2020/8/18 15:00:59,213.082,-3.454,41972.59453
2020/8/18 15:01:59,212.935,-6.752,42380.64083
2020/8/18 15:02:59,212.915,-10.021,42786.22819
2020/8/18 15:03:59,213.021,-13.258,43187.49514
2020/8/18 15:04:59,213.254,-16.459,43582.65107
2020/8/18 15:05:59,213.619,-19.622,43969.97999
2020/8/18 15:06:59,214.12,-22.742,44347.8435
2020/8/18 15:07:38,214.521,-24.736,44586.50721
2020/8/18 15:43:05,325.3,-24.76,44581.05401
2020/8/18 15:44:05,325.888,-21.672,44210.25048
2020/8/18 15:45:05,326.335,-18.539,43828.94197
2020/8/18 15:46:05,326.647,-15.366,43438.79759
2020/8/18 15:47:05,326.828,-12.155,43041.48628
2020/8/18 15:48:05,326.882,-8.91,42638.75335
2020/8/18 15:49:05,326.809,-5.636,42232.41705
2020/8/18 15:50:05,326.608,-2.334,41824.36451
2020/8/18 15:51:05,326.275,0.99,41416.54661
2020/8/18 15:52:05,325.806,4.332,41010.97172
2020/8/18 15:53:05,325.192,7.686,40609.69825
2020/8/18 15:54:05,324.423,11.047,40214.82575
2020/8/18 15:55:05,323.487,14.407,39828.48456
2020/8/18 15:56:05,322.367,17.757,39452.82383
2020/8/18 15:57:05,321.043,21.086,39089.99785
2020/8/18 15:58:05,319.494,24.381,38742.15088
2020/8/18 15:59:05,317.691,27.626,38411.4
2020/8/18 16:00:05,315.602,30.803,38099.8168
2020/8/18 16:01:05,313.192,33.888,37809.40734
2020/8/18 16:02:05,310.421,36.854,37542.09135
2020/8/18 16:03:05,307.246,39.667,37299.68033
2020/8/18 16:04:05,303.628,42.29,37083.85572
2020/8/18 16:05:05,299.532,44.678,36896.14686
2020/8/18 16:06:05,294.938,46.781,36737.91018
2020/8/18 16:07:05,289.852,48.545,36610.30941
2020/8/18 16:08:05,284.314,49.918,36514.29817
2020/8/18 16:09:05,278.409,50.853,36450.60498
2020/8/18 16:10:05,272.267,51.311,36419.72157
2020/8/18 16:11:05,266.048,51.275,36421.89486
2020/8/18 16:12:05,259.926,50.746,36457.12283
2020/8/18 16:13:05,254.061,49.745,36525.15458
2020/8/18 16:14:05,248.576,48.31,36625.49443
2020/8/18 16:15:05,243.549,46.49,36757.41009
2020/8/18 16:16:05,239.015,44.339,36919.94433
2020/8/18 16:17:05,234.977,41.908,37111.92992
2020/8/18 16:18:05,231.411,39.247,37332.00727
2020/8/18 16:19:05,228.282,36.4,37578.64386
2020/8/18 16:20:05,225.55,33.404,37850.15543
2020/8/18 16:21:05,223.171,30.292,38144.72758
2020/8/18 16:22:05,221.108,27.091,38460.4379
2020/8/18 16:23:05,219.324,23.822,38795.27749
2020/8/18 16:24:05,217.788,20.504,39147.17197
2020/8/18 16:25:05,216.473,17.154,39514.00118
2020/8/18 16:26:05,215.357,13.782,39893.61766
2020/8/18 16:27:05,214.419,10.4,40283.86356
2020/8/18 16:28:05,213.646,7.017,40682.58573
2020/8/18 16:29:05,213.023,3.639,41087.64946
2020/8/18 16:30:05,212.541,0.273,41496.95028
2020/8/18 16:31:05,212.193,-3.077,41908.4243
2020/8/18 16:32:05,211.973,-6.406,42320.05705
2020/8/18 16:33:05,211.877,-9.709,42729.8909
2020/8/18 16:34:05,211.906,-12.985,43136.03133
2020/8/18 16:35:05,212.058,-16.229,43536.65196
2020/8/18 16:36:05,212.339,-19.439,43929.99867
2020/8/18 16:37:05,212.752,-22.611,44314.39292
2020/8/18 16:37:48,213.137,-24.88,44586.00321
2020/8/18 17:13:33,329.019,-24.957,44590.22326
2020/8/18 17:14:33,329.614,-21.777,44208.61565
2020/8/18 17:15:33,330.078,-18.539,43814.70058
2020/8/18 17:16:33,330.416,-15.259,43411.34444
2020/8/18 17:17:33,330.632,-11.938,43000.23389
2020/8/18 17:18:33,330.731,-8.578,42583.13729
2020/8/18 17:19:33,330.713,-5.182,42161.90183
2020/8/18 17:20:33,330.578,-1.753,41738.44998
2020/8/18 17:21:33,330.321,1.707,41314.77491
2020/8/18 17:22:33,329.939,5.194,40892.93478
2020/8/18 17:23:33,329.422,8.704,40475.04569
2020/8/18 17:24:33,328.762,12.232,40063.27325
2020/8/18 17:25:33,327.944,15.773,39659.8225
2020/8/18 17:26:33,326.952,19.32,39266.92613
2020/8/18 17:27:33,325.764,22.863,38886.83084
2020/8/18 17:28:33,324.354,26.391,38521.78197
2020/8/18 17:29:33,322.691,29.891,38174.00595
2020/8/18 17:30:33,320.734,33.346,37845.69134
2020/8/18 17:31:33,318.438,36.734,37538.96775
2020/8/18 17:32:33,315.745,40.028,37255.88388
2020/8/18 17:33:33,312.593,43.195,36998.38394
2020/8/18 17:34:33,308.91,46.193,36768.28401
2020/8/18 17:35:33,304.621,48.972,36567.24784
2020/8/18 17:36:33,299.664,51.471,36396.76374
2020/8/18 17:37:33,293.996,53.619,36258.12235
2020/8/18 17:38:33,287.628,55.34,36152.39666
2020/8/18 17:39:33,280.646,56.559,36080.42461
2020/8/18 17:40:33,273.227,57.213,36042.79522
2020/8/18 17:41:33,265.631,57.264,36039.83845
2020/8/18 17:42:33,258.154,56.709,36071.61951
2020/8/18 17:43:33,251.066,55.578,36137.93769
2020/8/18 17:44:33,244.561,53.93,36238.32981
2020/8/18 17:45:33,238.744,51.839,36372.07808
2020/8/18 17:46:33,233.636,49.38,36538.22214
2020/8/18 17:47:33,229.203,46.626,36735.57472
2020/8/18 17:48:33,225.384,43.638,36962.74033
2020/8/18 17:49:33,222.106,40.47,37218.13632
2020/8/18 17:50:33,219.297,37.164,37500.01549
2020/8/18 17:51:33,216.891,33.756,37806.48982
2020/8/18 17:52:33,214.829,30.273,38135.55416
2020/8/18 17:53:33,213.064,26.737,38485.10987
2020/8/18 17:54:33,211.554,23.167,38852.9874
2020/8/18 17:55:33,210.266,19.576,39236.96781
2020/8/18 17:56:33,209.172,15.976,39634.80255
2020/8/18 17:57:33,208.249,12.376,40044.23176
2020/8/18 17:58:33,207.48,8.782,40463.00052
2020/8/18 17:59:33,206.85,5.202,40888.87327
2020/8/18 18:00:33,206.347,1.64,41319.64655
2020/8/18 18:01:33,205.962,-1.901,41753.15979
2020/8/18 18:02:33,205.69,-5.418,42187.30453
2020/8/18 18:03:33,205.526,-8.908,42620.03218
2020/8/18 18:04:33,205.468,-12.37,43049.36036
2020/8/18 18:05:33,205.515,-15.8,43473.37804
2020/8/18 18:06:33,205.67,-19.198,43890.24968
2020/8/18 18:07:33,205.936,-22.563,44298.21843
2020/8/18 18:08:17,206.202,-24.983,44587.79727
2020/8/18 18:44:55,337.78,-25.071,44597.44972
2020/8/18 18:45:54,338.272,-21.695,44192.55462
2020/8/18 18:46:54,338.664,-18.244,43772.34465
2020/8/18 18:47:54,338.959,-14.75,43342.35889
2020/8/18 18:48:54,339.161,-11.214,42904.35577
2020/8/18 18:49:54,339.272,-7.637,42460.18126
2020/8/18 18:50:54,339.295,-4.018,42011.76651
2020/8/18 18:51:54,339.228,-0.359,41561.12472
2020/8/18 18:52:54,339.069,3.34,41110.34688
2020/8/18 18:53:54,338.814,7.078,40661.59637
2020/8/18 18:54:54,338.455,10.853,40217.1021
2020/8/18 18:55:54,337.984,14.663,39779.15011
2020/8/18 18:56:54,337.389,18.505,39350.04307
2020/8/18 18:57:54,336.652,22.376,38932.21003
2020/8/18 18:58:54,335.754,26.271,38528.00834
2020/8/18 18:59:54,334.665,30.182,38139.83039
2020/8/18 19:00:54,333.351,34.102,37770.05398
2020/8/18 19:01:54,331.765,38.018,37421.02172
2020/8/18 19:02:54,329.845,41.914,37095.01801
2020/8/18 19:03:54,327.511,45.771,36794.2447
2020/8/18 19:04:54,324.655,49.559,36520.79494
2020/8/18 19:05:54,321.135,53.241,36276.62661
2020/8/18 19:06:54,316.764,56.761,36063.53508
2020/8/18 19:07:54,311.31,60.044,35883.12695
2020/8/18 19:08:54,304.505,62.985,35736.79483
2020/8/18 19:09:54,296.111,65.445,35625.69449
2020/8/18 19:10:54,286.055,67.251,35550.72508
2020/8/18 19:11:54,274.645,68.229,35512.51326
2020/8/18 19:12:54,262.673,68.262,35511.40178
2020/8/18 19:13:54,251.182,67.343,35547.44322
2020/8/18 19:14:54,240.995,65.583,35620.39895
2020/8/18 19:15:54,232.457,63.154,35729.74345
2020/8/18 19:16:54,225.518,60.228,35874.67388
2020/8/18 19:17:54,219.943,56.948,36054.12421
2020/8/18 19:18:54,215.466,53.421,36266.78366
2020/8/18 19:19:54,211.849,49.725,36511.11839
2020/8/18 19:20:54,208.903,45.914,36785.39577
2020/8/18 19:21:54,206.481,42.03,37087.7103
2020/8/18 19:22:54,204.474,38.1,37416.01034
2020/8/18 19:23:54,202.799,34.146,37768.12499
2020/8/18 19:24:54,201.393,30.184,38141.79009
2020/8/18 19:25:54,200.206,26.226,38534.67341
2020/8/18 19:26:54,199.203,22.281,38944.39778
2020/8/18 19:27:54,198.354,18.355,39368.56268
2020/8/18 19:28:54,197.638,14.453,39804.76356
2020/8/18 19:29:54,197.036,10.579,40250.60882
2020/8/18 19:30:54,196.535,6.736,40703.735
2020/8/18 19:31:54,196.124,2.925,41161.81955
2020/8/18 19:32:54,195.795,-0.852,41622.59169
2020/8/18 19:33:54,195.542,-4.595,42083.84154
2020/8/18 19:34:54,195.361,-8.303,42543.42754
2020/8/18 19:35:54,195.249,-11.977,42999.28238
2020/8/18 19:36:54,195.204,-15.618,43449.41777
2020/8/18 19:37:54,195.227,-19.224,43891.92799
2020/8/18 19:38:54,195.319,-22.798,44324.9926
2020/8/18 19:39:30,195.41,-24.953,44582.80339
2020/8/18 20:16:58,349.648,-25.082,44601.76302
2020/8/18 20:17:57,349.961,-21.516,44173.91876
2020/8/18 20:18:57,350.223,-17.879,43730.69533
2020/8/18 20:19:57,350.436,-14.202,43277.75856
2020/8/18 20:20:57,350.602,-10.484,42816.94378
2020/8/18 20:21:57,350.726,-6.724,42350.17713
2020/8/18 20:22:57,350.808,-2.92,41879.47339
2020/8/18 20:23:57,350.849,0.928,41406.93288
2020/8/18 20:24:57,350.849,4.823,40934.73734
2020/8/18 20:25:57,350.806,8.764,40465.14439
2020/8/18 20:26:57,350.718,12.754,40000.48059
2020/8/18 20:27:57,350.581,16.791,39543.13264
2020/8/18 20:28:57,350.39,20.877,39095.53676
2020/8/18 20:29:57,350.138,25.012,38660.16586
2020/8/18 20:30:57,349.815,29.194,38239.51442
2020/8/18 20:31:57,349.408,33.422,37836.08103
2020/8/18 20:32:57,348.897,37.695,37452.34828
2020/8/18 20:33:57,348.257,42.009,37090.76052
2020/8/18 20:34:57,347.452,46.36,36753.69905
2020/8/18 20:35:57,346.427,50.742,36443.45572
2020/8/18 20:36:57,345.099,55.147,36162.20459
2020/8/18 20:37:57,343.341,59.563,35911.97309
2020/8/18 20:38:57,340.934,63.97,35694.61264
2020/8/18 20:39:57,337.492,68.337,35511.77014
2020/8/18 20:40:57,332.268,72.606,35364.86101
2020/8/18 20:41:57,323.689,76.65,35255.04482
2020/8/18 20:42:57,308.306,80.153,35183.20452
2020/8/18 20:43:57,280.786,82.306,35149.93005
2020/8/18 20:44:57,246.423,81.93,35155.50719
2020/8/18 20:45:57,222.542,79.287,35199.91203
2020/8/18 20:46:57,209.49,75.582,35282.8114
2020/8/18 20:47:57,202.037,71.452,35403.56919
2020/8/18 20:48:57,197.378,67.141,35561.25826
2020/8/18 20:49:57,194.238,62.75,35754.67749
2020/8/18 20:50:57,191.996,58.327,35982.37306
2020/8/18 20:51:57,190.325,53.901,36242.66321
2020/8/18 20:52:57,189.036,49.488,36533.66541
2020/8/18 20:53:57,188.015,45.099,36853.32501
2020/8/18 20:54:57,187.19,40.741,37199.44453
2020/8/18 20:55:57,186.51,36.419,37569.71234
2020/8/18 20:56:57,185.942,32.139,37961.73079
2020/8/18 20:57:57,185.461,27.901,38373.04226
2020/8/18 20:58:57,185.05,23.709,38801.15365
2020/8/18 20:59:57,184.695,19.563,39243.55822
2020/8/18 21:00:57,184.387,15.464,39697.75537
2020/8/18 21:01:57,184.117,11.412,40161.26772
2020/8/18 21:02:57,183.879,7.406,40631.65584
2020/8/18 21:03:57,183.668,3.445,41106.53088
2020/8/18 21:04:57,183.481,-0.47,41583.56492
2020/8/18 21:05:57,183.314,-4.343,42060.49947
2020/8/18 21:06:57,183.164,-8.173,42535.15233
2020/8/18 21:07:57,183.029,-11.963,43005.42289
2020/8/18 21:08:57,182.907,-15.715,43469.29625
2020/8/18 21:09:57,182.797,-19.429,43924.84613
2020/8/18 21:10:57,182.697,-23.108,44370.23704
2020/8/18 21:11:25,182.654,-24.832,44576.33724
2020/8/18 21:49:13,2.759,-24.998,44603.70583
2020/8/18 21:50:13,2.852,-21.364,44167.45035
2020/8/18 21:51:13,2.955,-17.675,43717.75259
2020/8/18 21:52:13,3.069,-13.95,43258.7738
2020/8/18 21:53:13,3.196,-10.188,42792.38622
2020/8/18 21:54:13,3.338,-6.386,42320.55142
2020/8/18 21:55:13,3.497,-2.544,41845.31787
2020/8/18 21:56:13,3.674,1.342,41368.8175
2020/8/18 21:57:13,3.873,5.271,40893.26122
2020/8/18 21:58:13,4.098,9.245,40420.93297
2020/8/18 21:59:13,4.353,13.265,39954.18231
2020/8/18 22:00:13,4.643,17.331,39495.41513
2020/8/18 22:01:13,4.975,21.445,39047.08243
2020/8/18 22:02:13,5.359,25.605,38611.66693
2020/8/18 22:03:13,5.806,29.81,38191.66741
2020/8/18 22:04:13,6.331,34.06,37789.58039
2020/8/18 22:05:13,6.955,38.353,37407.87979
2020/8/18 22:06:13,7.706,42.684,37048.99374
2020/8/18 22:07:13,8.626,47.05,36715.27968
2020/8/18 22:08:13,9.772,51.443,36408.99724
2020/8/18 22:09:13,11.236,55.856,36132.28008
2020/8/18 22:10:13,13.159,60.274,35887.1067
2020/8/18 22:11:13,15.784,64.677,35675.27156
2020/8/18 22:12:13,19.544,69.029,35498.35689
2020/8/18 22:13:13,25.286,73.262,35357.70654
2020/8/18 22:14:13,34.805,77.228,35254.40262
2020/8/18 22:15:13,51.918,80.55,35189.24593
2020/8/18 22:16:13,81.285,82.316,35162.74103
2020/8/18 22:17:13,114.281,81.488,35175.0867
2020/8/18 22:18:13,135.806,78.621,35226.17203
2020/8/18 22:19:13,147.635,74.84,35315.57853
2020/8/18 22:20:13,154.519,70.688,35442.58805
2020/8/18 22:21:13,158.881,66.375,35606.19617
2020/8/18 22:22:13,161.842,61.991,35805.13046
2020/8/18 22:23:13,163.959,57.582,36037.87282
2020/8/18 22:24:13,165.532,53.172,36302.68497
2020/8/18 22:25:13,166.732,48.778,36597.63611
2020/8/18 22:26:13,167.668,44.409,36920.63192
2020/8/18 22:27:13,168.407,40.074,37269.44349
2020/8/18 22:28:13,168.996,35.777,37641.73632
2020/8/18 22:29:13,169.467,31.522,38035.09749
2020/8/18 22:30:13,169.842,27.312,38447.06174
2020/8/18 22:31:13,170.138,23.149,38875.13489
2020/8/18 22:32:13,170.367,19.033,39316.81547
2020/8/18 22:33:13,170.537,14.965,39769.61353
2020/8/18 22:34:13,170.654,10.946,40231.06715
2020/8/18 22:35:13,170.724,6.974,40698.75669
2020/8/18 22:36:13,170.75,3.05,41170.31664
2020/8/18 22:37:13,170.733,-0.829,41643.44556
2020/8/18 22:38:13,170.675,-4.661,42115.91404
2020/8/18 22:39:13,170.574,-8.45,42585.57116
2020/8/18 22:40:13,170.431,-12.196,43050.34946
2020/8/18 22:41:13,170.243,-15.9,43508.26865
2020/8/18 22:42:13,170.007,-19.563,43957.43835
2020/8/18 22:43:13,169.719,-23.188,44396.05996
2020/8/18 22:43:38,169.582,-24.694,44576.10668
2020/8/18 23:21:12,15.494,-24.844,44604.30176
2020/8/18 23:22:12,15.359,-21.309,44179.85531
2020/8/18 23:23:12,15.294,-17.729,43743.47459
2020/8/18 23:24:12,15.299,-14.116,43298.41193
2020/8/18 23:25:12,15.371,-10.469,42846.51731
2020/8/18 23:26:12,15.511,-6.788,42389.72427
2020/8/18 23:27:12,15.721,-3.074,41930.04674
2020/8/18 23:28:12,16.004,0.675,41469.57521
2020/8/18 23:29:12,16.366,4.458,41010.47149
2020/8/18 23:30:12,16.812,8.273,40554.96234
2020/8/18 23:31:12,17.353,12.12,40105.33147
2020/8/18 23:32:12,18,15.996,39663.90987
2020/8/18 23:33:12,18.768,19.899,39233.06431
2020/8/18 23:34:12,19.677,23.824,38815.18374
2020/8/18 23:35:12,20.75,27.765,38412.66373
2020/8/18 23:36:12,22.02,31.716,38027.8885
2020/8/18 23:37:12,23.528,35.667,37663.21107
2020/8/18 23:38:12,25.326,39.603,37320.93111
2020/8/18 23:39:12,27.484,43.508,37003.27125
2020/8/18 23:40:12,30.096,47.357,36712.35167
2020/8/18 23:41:12,33.282,51.117,36450.1639
2020/8/18 23:42:12,37.204,54.745,36218.54404
2020/8/18 23:43:12,42.066,58.176,36019.14654
2020/8/18 23:44:12,48.12,61.323,35853.41879
2020/8/18 23:45:12,55.625,64.067,35722.57795
2020/8/18 23:46:12,64.763,66.254,35627.59043
2020/8/18 23:47:12,75.457,67.706,35569.15507
2020/8/18 23:48:12,87.183,68.271,35547.69063
2020/8/18 23:49:12,98.997,67.878,35563.32814
2020/8/18 23:50:12,109.916,66.579,35615.90846
2020/8/18 23:51:12,119.328,64.517,35704.98519
2020/8/18 23:52:12,127.091,61.87,35829.83273
2020/8/18 23:53:12,133.355,58.797,35989.45922
2020/8/18 23:54:12,138.376,55.425,36182.62375
2020/8/18 23:55:12,142.409,51.846,36407.8572
2020/8/18 23:56:12,145.669,48.127,36663.48575
2020/8/18 23:57:12,148.323,44.316,36947.65649
2020/8/18 23:58:12,150.497,40.447,37258.36381
2020/8/18 23:59:12,152.29,36.545,37593.47644
2020/8/19 0:00:12,153.774,32.63,37950.76364
2020/8/19 0:01:12,155.004,28.715,38327.92072
2020/8/19 0:02:12,156.023,24.811,38722.59276
2020/8/19 0:03:12,156.862,20.926,39132.39679
2020/8/19 0:04:12,157.547,17.065,39554.94159
2020/8/19 0:05:12,158.097,13.235,39987.84563
2020/8/19 0:06:12,158.527,9.437,40428.75261
2020/8/19 0:07:12,158.848,5.674,40875.345
2020/8/19 0:08:12,159.068,1.95,41325.35541
2020/8/19 0:09:12,159.193,-1.737,41776.57634
2020/8/19 0:10:12,159.227,-5.383,42226.87251
2020/8/19 0:11:12,159.171,-8.989,42674.16902
2020/8/19 0:12:12,159.026,-12.554,43116.48394
2020/8/19 0:13:12,158.789,-16.077,43551.91377
2020/8/19 0:14:12,158.457,-19.559,43978.64102
2020/8/19 0:15:12,158.024,-22.997,44394.93625
2020/8/19 0:15:40,157.785,-24.589,44585.48292
2020/8/19 0:52:29,26.216,-24.694,44609.19054
2020/8/19 0:53:29,25.877,-21.38,44211.34602
2020/8/19 0:54:29,25.65,-18.009,43800.74819
2020/8/19 0:55:29,25.532,-14.604,43381.86364
2020/8/19 0:56:29,25.521,-11.168,42956.47256
2020/8/19 0:57:29,25.615,-7.703,42526.43198
2020/8/19 0:58:29,25.815,-4.21,42093.67223
2020/8/19 0:59:29,26.125,-0.691,41660.19249
2020/8/19 1:00:29,26.548,2.851,41228.05533
2020/8/19 1:01:29,27.093,6.412,40799.37996
2020/8/19 1:02:29,27.768,9.99,40376.33406
2020/8/19 1:03:29,28.586,13.578,39961.12418
2020/8/19 1:04:29,29.563,17.171,39555.98439
2020/8/19 1:05:29,30.717,20.761,39163.16315
2020/8/19 1:06:29,32.074,24.338,38784.90854
2020/8/19 1:07:29,33.661,27.89,38423.45129
2020/8/19 1:08:29,35.516,31.402,38080.98647
2020/8/19 1:09:29,37.68,34.855,37759.65304
2020/8/19 1:10:29,40.206,38.224,37461.51245
2020/8/19 1:11:29,43.153,41.481,37188.52566
2020/8/19 1:12:29,46.589,44.588,36942.5299
2020/8/19 1:13:29,50.587,47.499,36725.21491
2020/8/19 1:14:29,55.216,50.16,36538.09989
2020/8/19 1:15:29,60.533,52.504,36382.51139
2020/8/19 1:16:29,66.554,54.459,36259.56315
2020/8/19 1:17:29,73.235,55.949,36170.13838
2020/8/19 1:18:29,80.446,56.904,36114.87531
2020/8/19 1:19:29,87.968,57.274,36094.15642
2020/8/19 1:20:29,95.517,57.037,36108.10189
2020/8/19 1:21:29,102.806,56.209,36156.56754
2020/8/19 1:22:29,109.599,54.835,36239.14731
2020/8/19 1:23:29,115.746,52.982,36355.18015
2020/8/19 1:24:29,121.188,50.727,36503.76115
2020/8/19 1:25:29,125.932,48.144,36683.75637
2020/8/19 1:26:29,130.027,45.3,36893.82079
2020/8/19 1:27:29,133.541,42.253,37132.41893
2020/8/19 1:28:29,136.548,39.05,37397.84685
2020/8/19 1:29:29,139.116,35.731,37688.25583
2020/8/19 1:30:29,141.306,32.326,38001.67583
2020/8/19 1:31:29,143.172,28.861,38336.03931
2020/8/19 1:32:29,144.758,25.355,38689.20385
2020/8/19 1:33:29,146.1,21.824,39058.97403
2020/8/19 1:34:29,147.228,18.282,39443.12151
2020/8/19 1:35:29,148.168,14.739,39839.40372
2020/8/19 1:36:29,148.939,11.203,40245.58057
2020/8/19 1:37:29,149.557,7.681,40659.42922
2020/8/19 1:38:29,150.034,4.178,41078.75735
2020/8/19 1:39:29,150.38,0.699,41501.41427
2020/8/19 1:40:29,150.601,-2.752,41925.30061
2020/8/19 1:41:29,150.703,-6.173,42348.37635
2020/8/19 1:42:29,150.686,-9.559,42768.66755
2020/8/19 1:43:29,150.553,-12.909,43184.27172
2020/8/19 1:44:29,150.301,-16.221,43593.3623
2020/8/19 1:45:29,149.926,-19.491,43994.19194
2020/8/19 1:46:29,149.423,-22.717,44385.09523
2020/8/19 1:47:04,149.07,-24.564,44606.21048
2020/8/19 2:22:57,33.11,-24.665,44628.68687
2020/8/19 2:23:57,32.607,-21.531,44252.57454
2020/8/19 2:24:57,32.24,-18.347,43865.33813
2020/8/19 2:25:57,32.002,-15.128,43469.71284
2020/8/19 2:26:57,31.891,-11.875,43067.40135
2020/8/19 2:27:57,31.904,-8.593,42660.18013
2020/8/19 2:28:57,32.041,-5.284,42249.89577
2020/8/19 2:29:57,32.303,-1.952,41838.46062
2020/8/19 2:30:57,32.695,1.4,41427.84729
2020/8/19 2:31:57,33.221,4.766,41020.08208
2020/8/19 2:32:57,33.892,8.142,40617.23714
2020/8/19 2:33:57,34.717,11.52,40221.42124
2020/8/19 2:34:57,35.709,14.894,39834.76899
2020/8/19 2:35:57,36.886,18.255,39459.42852
2020/8/19 2:36:57,38.268,21.59,39097.5475
2020/8/19 2:37:57,39.878,24.888,38751.25761
2020/8/19 2:38:57,41.745,28.131,38422.65717
2020/8/19 2:39:57,43.902,31.3,38113.79259
2020/8/19 2:40:57,46.384,34.372,37826.63831
2020/8/19 2:41:57,49.232,37.318,37563.07599
2020/8/19 2:42:57,52.487,40.105,37324.87277
2020/8/19 2:43:57,56.19,42.694,37113.65972
2020/8/19 2:44:57,60.372,45.038,36930.91034
2020/8/19 2:45:57,65.05,47.089,36777.92029
2020/8/19 2:46:57,70.213,48.792,36655.78847
2020/8/19 2:47:57,75.812,50.097,36565.40042
2020/8/19 2:48:57,81.758,50.957,36507.4145
2020/8/19 2:49:57,87.913,51.338,36482.25128
2020/8/19 2:50:57,94.115,51.226,36490.08671
2020/8/19 2:51:57,100.19,50.624,36530.84917
2020/8/19 2:52:57,105.987,49.558,36604.22064
2020/8/19 2:53:57,111.388,48.068,36709.64196
2020/8/19 2:54:57,116.324,46.204,36846.32182
2020/8/19 2:55:57,120.765,44.018,37013.24928
2020/8/19 2:56:57,124.713,41.562,37209.20939
2020/8/19 2:57:57,128.195,38.885,37432.80097
2020/8/19 2:58:57,131.245,36.03,37682.45675
2020/8/19 2:59:57,133.906,33.032,37956.46411
2020/8/19 3:00:57,136.219,29.924,38252.98707
2020/8/19 3:01:57,138.221,26.731,38570.08775
2020/8/19 3:02:57,139.948,23.474,38905.74799
2020/8/19 3:03:57,141.431,20.173,39257.88954
2020/8/19 3:04:57,142.694,16.841,39624.39363
2020/8/19 3:05:57,143.761,13.491,40003.11878
2020/8/19 3:06:57,144.649,10.134,40391.9171
2020/8/19 3:07:57,145.374,6.777,40788.64919
2020/8/19 3:08:57,145.947,3.428,41191.19713
2020/8/19 3:09:57,146.378,0.092,41597.47595
2020/8/19 3:10:57,146.674,-3.224,42005.44355
2020/8/19 3:11:57,146.84,-6.518,42413.10922
2020/8/19 3:12:57,146.879,-9.784,42818.54071
2020/8/19 3:13:57,146.79,-13.019,43219.87022
2020/8/19 3:14:57,146.574,-16.22,43615.29927
2020/8/19 3:15:57,146.226,-19.383,44003.10263
2020/8/19 3:16:57,145.741,-22.505,44381.63144
2020/8/19 3:17:39,145.316,-24.665,44640.30477
2020/8/19 3:53:04,34.535,-24.783,44662.31752
2020/8/19 3:54:04,33.94,-21.7,44292.68702
2020/8/19 3:55:04,33.484,-18.564,43911.57087
2020/8/19 3:56:04,33.163,-15.387,43521.52574
2020/8/19 3:57:04,32.973,-12.174,43124.21725
2020/8/19 3:58:04,32.909,-8.926,42721.38713
2020/8/19 3:59:04,32.971,-5.647,42314.8499
2020/8/19 4:00:00,33.144,-2.563,41933.76128
