sat/sr1-sr3.csv

Time (UTCG),Azimuth (deg),Elevation (deg),Range (km)
2020/8/18 4:00:00,214.999,-31.558,44229.78005
2020/8/18 4:01:00,215.192,-31.702,44408.98952
2020/8/18 4:02:00,215.384,-31.847,44587.50121
2020/8/18 4:03:00,215.577,-31.991,44765.30982
2020/8/18 4:04:00,215.77,-32.134,44942.41012
2020/8/18 4:05:00,215.963,-32.277,45118.79692
2020/8/18 4:06:00,216.156,-32.42,45294.46508
2020/8/18 4:07:00,216.349,-32.562,45469.40952
2020/8/18 4:08:00,216.542,-32.704,45643.62518
2020/8/18 4:09:00,216.735,-32.846,45817.10707
2020/8/18 4:10:00,216.929,-32.987,45989.85023
2020/8/18 4:11:00,217.122,-33.128,46161.84976
2020/8/18 4:12:00,217.315,-33.269,46333.1008
2020/8/18 4:13:00,217.509,-33.409,46503.59853
2020/8/18 4:14:00,217.703,-33.548,46673.33816
2020/8/18 4:15:00,217.897,-33.688,46842.31498
2020/8/18 4:16:00,218.091,-33.827,47010.52428
2020/8/18 4:17:00,218.286,-33.965,47177.96142
2020/8/18 4:18:00,218.48,-34.103,47344.62179
2020/8/18 4:19:00,218.675,-34.241,47510.50083
2020/8/18 4:20:00,218.87,-34.378,47675.59401
2020/8/18 4:21:00,219.065,-34.514,47839.89683
2020/8/18 4:22:00,219.261,-34.651,48003.40486
2020/8/18 4:23:00,219.457,-34.787,48166.11369
2020/8/18 4:24:00,219.653,-34.922,48328.01893
2020/8/18 4:25:00,219.849,-35.057,48489.11627
2020/8/18 4:26:00,220.046,-35.191,48649.40141
2020/8/18 4:27:00,220.243,-35.325,48808.87008
2020/8/18 4:28:00,220.441,-35.459,48967.51808
2020/8/18 4:29:00,220.638,-35.592,49125.34121
2020/8/18 4:30:00,220.837,-35.724,49282.33532
2020/8/18 4:31:00,221.035,-35.857,49438.49632
2020/8/18 4:32:00,221.234,-35.988,49593.82011
2020/8/18 4:33:00,221.433,-36.119,49748.30266
2020/8/18 4:34:00,221.633,-36.25,49901.93996
2020/8/18 4:35:00,221.833,-36.38,50054.72803
2020/8/18 4:36:00,222.033,-36.509,50206.66295
2020/8/18 4:37:00,222.234,-36.638,50357.7408
2020/8/18 4:38:00,222.435,-36.767,50507.95769
2020/8/18 4:39:00,222.637,-36.895,50657.30983
2020/8/18 4:40:00,222.839,-37.022,50805.79341
2020/8/18 4:41:00,223.042,-37.149,50953.40464
2020/8/18 4:42:00,223.245,-37.276,51100.13979
2020/8/18 4:43:00,223.449,-37.401,51245.99514
2020/8/18 4:44:00,223.653,-37.527,51390.96704
2020/8/18 4:45:00,223.857,-37.651,51535.05183
2020/8/18 4:46:00,224.062,-37.775,51678.2459
2020/8/18 4:47:00,224.268,-37.899,51820.54568
2020/8/18 4:48:00,224.474,-38.022,51961.94763
2020/8/18 4:49:00,224.681,-38.144,52102.44821
2020/8/18 4:50:00,224.888,-38.266,52242.04396
2020/8/18 4:51:00,225.095,-38.387,52380.73141
2020/8/18 4:52:00,225.304,-38.508,52518.50714
2020/8/18 4:53:00,225.512,-38.628,52655.36776
2020/8/18 4:54:00,225.722,-38.748,52791.30989
2020/8/18 4:55:00,225.931,-38.866,52926.33023
2020/8/18 4:56:00,226.142,-38.985,53060.42544
2020/8/18 4:57:00,226.353,-39.102,53193.59228
2020/8/18 4:58:00,226.565,-39.219,53325.82747
2020/8/18 4:59:00,226.777,-39.335,53457.12783
2020/8/18 5:00:00,226.989,-39.451,53587.49015
2020/8/18 5:01:00,227.203,-39.566,53716.91129
2020/8/18 5:02:00,227.417,-39.68,53845.38811
2020/8/18 5:03:00,227.631,-39.794,53972.91752
2020/8/18 5:04:00,227.847,-39.907,54099.49644
2020/8/18 5:05:00,228.062,-40.019,54225.12184
2020/8/18 5:06:00,228.279,-40.131,54349.7907
2020/8/18 5:07:00,228.496,-40.242,54473.50004
2020/8/18 5:08:00,228.713,-40.352,54596.2469
2020/8/18 5:09:00,228.932,-40.462,54718.02836
2020/8/18 5:10:00,229.151,-40.571,54838.84151
2020/8/18 5:11:00,229.37,-40.679,54958.68346
2020/8/18 5:12:00,229.59,-40.787,55077.55141
2020/8/18 5:13:00,229.811,-40.894,55195.44252
2020/8/18 5:14:00,230.033,-41,55312.35401
2020/8/18 5:15:00,230.255,-41.105,55428.28311
2020/8/18 5:16:00,230.478,-41.21,55543.22709
2020/8/18 5:17:00,230.701,-41.314,55657.18324
2020/8/18 5:18:00,230.925,-41.417,55770.14888
2020/8/18 5:19:00,231.15,-41.519,55882.12135
2020/8/18 5:20:00,231.376,-41.621,55993.09805
2020/8/18 5:21:00,231.602,-41.722,56103.07637
2020/8/18 5:22:00,231.828,-41.822,56212.05373
2020/8/18 5:23:00,232.056,-41.921,56320.0276
2020/8/18 5:24:00,232.284,-42.02,56426.99546
2020/8/18 5:25:00,232.513,-42.118,56532.95481
2020/8/18 5:26:00,232.742,-42.215,56637.90319
2020/8/18 5:27:00,232.972,-42.311,56741.83818
2020/8/18 5:28:00,233.203,-42.407,56844.75735
2020/8/18 5:29:00,233.435,-42.501,56946.65833
2020/8/18 5:30:00,233.667,-42.595,57047.53875
2020/8/18 5:31:00,233.899,-42.688,57147.39628
2020/8/18 5:32:00,234.133,-42.78,57246.22863
2020/8/18 5:33:00,234.367,-42.872,57344.03351
2020/8/18 5:34:00,234.602,-42.962,57440.80867
2020/8/18 5:35:00,234.837,-43.052,57536.5519
2020/8/18 5:36:00,235.073,-43.141,57631.26097
2020/8/18 5:37:00,235.31,-43.229,57724.93374
2020/8/18 5:38:00,235.547,-43.316,57817.56804
2020/8/18 5:39:00,235.785,-43.403,57909.16175
2020/8/18 5:40:00,236.024,-43.488,57999.71278
2020/8/18 5:41:00,236.264,-43.573,58089.21907
2020/8/18 5:42:00,236.504,-43.656,58177.67856
2020/8/18 5:43:00,236.744,-43.739,58265.08925
2020/8/18 5:44:00,236.986,-43.821,58351.44915
2020/8/18 5:45:00,237.227,-43.902,58436.75627
2020/8/18 5:46:00,237.47,-43.983,58521.00869
2020/8/18 5:47:00,237.713,-44.062,58604.2045
2020/8/18 5:48:00,237.957,-44.14,58686.34179
2020/8/18 5:49:00,238.202,-44.218,58767.41872
2020/8/18 5:50:00,238.447,-44.294,58847.43344
2020/8/18 5:51:00,238.692,-44.37,58926.38415
2020/8/18 5:52:00,238.939,-44.445,59004.26904
2020/8/18 5:53:00,239.185,-44.519,59081.08638
2020/8/18 5:54:00,239.433,-44.591,59156.83442
2020/8/18 5:55:00,239.681,-44.663,59231.51145
2020/8/18 5:56:00,239.93,-44.734,59305.11579
2020/8/18 5:57:00,240.179,-44.804,59377.64579
2020/8/18 5:58:00,240.429,-44.874,59449.0998
2020/8/18 5:59:00,240.679,-44.942,59519.47622
2020/8/18 6:00:00,240.93,-45.009,59588.77348
2020/8/18 6:01:00,241.182,-45.075,59656.99001
2020/8/18 6:02:00,241.434,-45.14,59724.12428
2020/8/18 6:03:00,241.686,-45.205,59790.17479
2020/8/18 6:04:00,241.939,-45.268,59855.14006
2020/8/18 6:05:00,242.193,-45.33,59919.01863
2020/8/18 6:06:00,242.447,-45.391,59981.80907
2020/8/18 6:07:00,242.702,-45.452,60043.50998
2020/8/18 6:08:00,242.957,-45.511,60104.11999
2020/8/18 6:09:00,243.213,-45.569,60163.63772
2020/8/18 6:10:00,243.469,-45.627,60222.06187
2020/8/18 6:11:00,243.725,-45.683,60279.39112
2020/8/18 6:12:00,243.983,-45.738,60335.62419
2020/8/18 6:13:00,244.24,-45.792,60390.75984
2020/8/18 6:14:00,244.498,-45.846,60444.79683
2020/8/18 6:15:00,244.756,-45.898,60497.73397
2020/8/18 6:16:00,245.015,-45.949,60549.57007
2020/8/18 6:17:00,245.274,-45.999,60600.30398
2020/8/18 6:18:00,245.534,-46.048,60649.93459
2020/8/18 6:19:00,245.794,-46.096,60698.46078
2020/8/18 6:20:00,246.054,-46.143,60745.88147
2020/8/18 6:21:00,246.315,-46.189,60792.19563
2020/8/18 6:22:00,246.576,-46.234,60837.4022
2020/8/18 6:23:00,246.838,-46.278,60881.50022
2020/8/18 6:24:00,247.1,-46.32,60924.48868
2020/8/18 6:25:00,247.362,-46.362,60966.36664
2020/8/18 6:26:00,247.624,-46.403,61007.13318
2020/8/18 6:27:00,247.887,-46.442,61046.7874
2020/8/18 6:28:00,248.15,-46.481,61085.32841
2020/8/18 6:29:00,248.413,-46.518,61122.75536
2020/8/18 6:30:00,248.677,-46.554,61159.06744
2020/8/18 6:31:00,248.94,-46.59,61194.26384
2020/8/18 6:32:00,249.204,-46.624,61228.34378
2020/8/18 6:33:00,249.468,-46.657,61261.30651
2020/8/18 6:34:00,249.733,-46.689,61293.15131
2020/8/18 6:35:00,249.997,-46.72,61323.87748
2020/8/18 6:36:00,250.262,-46.749,61353.48436
2020/8/18 6:37:00,250.527,-46.778,61381.97126
2020/8/18 6:38:00,250.792,-46.806,61409.33757
2020/8/18 6:39:00,251.057,-46.832,61435.5827
2020/8/18 6:40:00,251.323,-46.857,61460.70607
2020/8/18 6:41:00,251.588,-46.882,61484.70712
2020/8/18 6:42:00,251.854,-46.905,61507.58534
2020/8/18 6:43:00,252.119,-46.927,61529.34022
2020/8/18 6:44:00,252.385,-46.948,61549.97128
2020/8/18 6:45:00,252.651,-46.968,61569.47807
2020/8/18 6:46:00,252.916,-46.986,61587.86018
2020/8/18 6:47:00,253.182,-47.004,61605.11719
2020/8/18 6:48:00,253.448,-47.02,61621.24873
2020/8/18 6:49:00,253.714,-47.036,61636.25446
2020/8/18 6:50:00,253.979,-47.05,61650.13403
2020/8/18 6:51:00,254.245,-47.063,61662.88717
2020/8/18 6:52:00,254.51,-47.075,61674.51358
2020/8/18 6:53:00,254.776,-47.085,61685.01301
2020/8/18 6:54:00,255.041,-47.095,61694.38525
2020/8/18 6:55:00,255.307,-47.104,61702.63009
2020/8/18 6:56:00,255.572,-47.111,61709.74735
2020/8/18 6:57:00,255.837,-47.117,61715.73688
2020/8/18 6:58:00,256.102,-47.123,61720.59855
2020/8/18 6:59:00,256.366,-47.127,61724.33228
2020/8/18 7:00:00,256.631,-47.13,61726.93797
2020/8/18 7:01:00,256.895,-47.131,61728.41557
2020/8/18 7:02:00,257.159,-47.132,61728.76507
2020/8/18 7:03:00,257.423,-47.131,61727.98647
2020/8/18 7:04:00,257.686,-47.13,61726.07977
2020/8/18 7:05:00,257.95,-47.127,61723.04502
2020/8/18 7:06:00,258.213,-47.123,61718.88231
2020/8/18 7:07:00,258.475,-47.118,61713.59173
2020/8/18 7:08:00,258.738,-47.112,61707.17341
2020/8/18 7:09:00,259,-47.105,61699.62748
2020/8/18 7:10:00,259.261,-47.096,61690.95414
2020/8/18 7:11:00,259.523,-47.087,61681.15356
2020/8/18 7:12:00,259.783,-47.076,61670.22598
2020/8/18 7:13:00,260.044,-47.065,61658.17165
2020/8/18 7:14:00,260.304,-47.052,61644.99083
2020/8/18 7:15:00,260.564,-47.038,61630.68383
2020/8/18 7:16:00,260.823,-47.023,61615.25097
2020/8/18 7:17:00,261.081,-47.006,61598.69259
2020/8/18 7:18:00,261.34,-46.989,61581.00908
2020/8/18 7:19:00,261.597,-46.97,61562.20081
2020/8/18 7:20:00,261.855,-46.951,61542.26823
2020/8/18 7:21:00,262.111,-46.93,61521.21177
2020/8/18 7:22:00,262.367,-46.908,61499.03192
2020/8/18 7:23:00,262.623,-46.885,61475.72915
2020/8/18 7:24:00,262.878,-46.861,61451.304
2020/8/18 7:25:00,263.132,-46.836,61425.75702
2020/8/18 7:26:00,263.386,-46.81,61399.08878
2020/8/18 7:27:00,263.639,-46.783,61371.29987
2020/8/18 7:28:00,263.891,-46.754,61342.39093
2020/8/18 7:29:00,264.143,-46.725,61312.36258
2020/8/18 7:30:00,264.394,-46.694,61281.21556
2020/8/18 7:31:00,264.645,-46.662,61248.95046
2020/8/18 7:32:00,264.895,-46.629,61215.56807
2020/8/18 7:33:00,265.144,-46.595,61181.06912
2020/8/18 7:34:00,265.392,-46.56,61145.45439
2020/8/18 7:35:00,265.639,-46.524,61108.72467
2020/8/18 7:36:00,265.886,-46.487,61070.88079
2020/8/18 7:37:00,266.132,-46.449,61031.92359
2020/8/18 7:38:00,266.377,-46.41,60991.85394
2020/8/18 7:39:00,266.622,-46.369,60950.67275
2020/8/18 7:40:00,266.865,-46.328,60908.38093
2020/8/18 7:41:00,267.108,-46.285,60864.97944
2020/8/18 7:42:00,267.35,-46.242,60820.46924
2020/8/18 7:43:00,267.591,-46.197,60774.85134
2020/8/18 7:44:00,267.831,-46.152,60728.12675
2020/8/18 7:45:00,268.071,-46.105,60680.29652
2020/8/18 7:46:00,268.309,-46.057,60631.36174
2020/8/18 7:47:00,268.546,-46.008,60581.32348
2020/8/18 7:48:00,268.783,-45.959,60530.18288
2020/8/18 7:49:00,269.019,-45.908,60477.94109
2020/8/18 7:50:00,269.253,-45.856,60424.59927
2020/8/18 7:51:00,269.487,-45.803,60370.15863
2020/8/18 7:52:00,269.72,-45.749,60314.62039
2020/8/18 7:53:00,269.951,-45.694,60257.9858
2020/8/18 7:54:00,270.182,-45.638,60200.25614
2020/8/18 7:55:00,270.412,-45.581,60141.43269
2020/8/18 7:56:00,270.641,-45.523,60081.51679
2020/8/18 7:57:00,270.868,-45.465,60020.50983
2020/8/18 7:58:00,271.095,-45.405,59958.41309
2020/8/18 7:59:00,271.32,-45.344,59895.22803
2020/8/18 8:00:00,271.545,-45.282,59830.95605
2020/8/18 8:01:00,271.768,-45.219,59765.59862
2020/8/18 8:02:00,271.991,-45.155,59699.15721
2020/8/18 8:03:00,272.212,-45.09,59631.63332
2020/8/18 8:04:00,272.432,-45.025,59563.02848
2020/8/18 8:05:00,272.651,-44.958,59493.34424
2020/8/18 8:06:00,272.869,-44.89,59422.58216
2020/8/18 8:07:00,273.085,-44.821,59350.74387
2020/8/18 8:08:00,273.301,-44.752,59277.83098
2020/8/18 8:09:00,273.515,-44.681,59203.84516
2020/8/18 8:10:00,273.729,-44.61,59128.78806
2020/8/18 8:11:00,273.941,-44.537,59052.66141
2020/8/18 8:12:00,274.152,-44.464,58975.46692
2020/8/18 8:13:00,274.361,-44.39,58897.20635
2020/8/18 8:14:00,274.57,-44.315,58817.88149
2020/8/18 8:15:00,274.777,-44.239,58737.49415
2020/8/18 8:16:00,274.983,-44.162,58656.04614
2020/8/18 8:17:00,275.188,-44.084,58573.53933
2020/8/18 8:18:00,275.391,-44.005,58489.9756
2020/8/18 8:19:00,275.594,-43.925,58405.35686
2020/8/18 8:20:00,275.795,-43.845,58319.68505
2020/8/18 8:21:00,275.995,-43.763,58232.96211
2020/8/18 8:22:00,276.193,-43.681,58145.19004
2020/8/18 8:23:00,276.39,-43.598,58056.37086
2020/8/18 8:24:00,276.586,-43.514,57966.50659
2020/8/18 8:25:00,276.781,-43.429,57875.59935
2020/8/18 8:26:00,276.974,-43.343,57783.65113
2020/8/18 8:27:00,277.166,-43.257,57690.66408
2020/8/18 8:28:00,277.357,-43.169,57596.64036
2020/8/18 8:29:00,277.547,-43.081,57501.58213
2020/8/18 8:30:00,277.735,-42.992,57405.49158
2020/8/18 8:31:00,277.922,-42.902,57308.37093
2020/8/18 8:32:00,278.107,-42.812,57210.22243
2020/8/18 8:33:00,278.291,-42.72,57111.04834
2020/8/18 8:34:00,278.474,-42.628,57010.85098
2020/8/18 8:35:00,278.655,-42.535,56909.63264
2020/8/18 8:36:00,278.835,-42.441,56807.39569
2020/8/18 8:37:00,279.014,-42.346,56704.14251
2020/8/18 8:38:00,279.191,-42.25,56599.87549
2020/8/18 8:39:00,279.367,-42.154,56494.59707
2020/8/18 8:40:00,279.542,-42.057,56388.3097
2020/8/18 8:41:00,279.715,-41.959,56281.01587
2020/8/18 8:42:00,279.887,-41.861,56172.71808
2020/8/18 8:43:00,280.057,-41.761,56063.41887
2020/8/18 8:44:00,280.226,-41.661,55953.1208
2020/8/18 8:45:00,280.394,-41.561,55841.82647
2020/8/18 8:46:00,280.56,-41.459,55729.53848
2020/8/18 8:47:00,280.725,-41.357,55616.25948
2020/8/18 8:48:00,280.888,-41.254,55501.99215
2020/8/18 8:49:00,281.05,-41.15,55386.73918
2020/8/18 8:50:00,281.21,-41.045,55270.50329
2020/8/18 8:51:00,281.369,-40.94,55153.28724
2020/8/18 8:52:00,281.527,-40.834,55035.09381
2020/8/18 8:53:00,281.683,-40.728,54915.92581
2020/8/18 8:54:00,281.838,-40.62,54795.78607
2020/8/18 8:55:00,281.991,-40.513,54674.67753
2020/8/18 8:56:00,282.143,-40.404,54552.60293
2020/8/18 8:57:00,282.293,-40.295,54429.56526
2020/8/18 8:58:00,282.442,-40.185,54305.56747
2020/8/18 8:59:00,282.589,-40.074,54180.61253
2020/8/18 9:00:00,282.735,-39.963,54054.70345
2020/8/18 9:01:00,282.88,-39.851,53927.84327
2020/8/18 9:02:00,283.023,-39.738,53800.03503
2020/8/18 9:03:00,283.164,-39.625,53671.28183
2020/8/18 9:04:00,283.304,-39.511,53541.58678
2020/8/18 9:05:00,283.443,-39.396,53410.95303
2020/8/18 9:06:00,283.58,-39.281,53279.38376
2020/8/18 9:07:00,283.715,-39.165,53146.88217
2020/8/18 9:08:00,283.849,-39.049,53013.45149
2020/8/18 9:09:00,283.982,-38.932,52879.09498
2020/8/18 9:10:00,284.113,-38.814,52743.81594
2020/8/18 9:11:00,284.242,-38.696,52607.61769
2020/8/18 9:12:00,284.37,-38.577,52470.50359
2020/8/18 9:13:00,284.497,-38.458,52332.47701
2020/8/18 9:14:00,284.622,-38.338,52193.54136
2020/8/18 9:15:00,284.745,-38.217,52053.70009
2020/8/18 9:16:00,284.867,-38.096,51912.95667
2020/8/18 9:17:00,284.987,-37.974,51771.3146
2020/8/18 9:18:00,285.106,-37.852,51628.77742
2020/8/18 9:19:00,285.223,-37.729,51485.3487
2020/8/18 9:20:00,285.339,-37.606,51341.03203
2020/8/18 9:21:00,285.453,-37.482,51195.80224
2020/8/18 9:22:00,285.565,-37.358,51049.72052
2020/8/18 9:23:00,285.676,-37.233,50902.76184
2020/8/18 9:24:00,285.786,-37.107,50754.92991
2020/8/18 9:25:00,285.894,-36.981,50606.22851
2020/8/18 9:26:00,286,-36.855,50456.6614
2020/8/18 9:27:00,286.105,-36.727,50306.23243
2020/8/18 9:28:00,286.208,-36.6,50154.94552
2020/8/18 9:29:00,286.309,-36.472,50002.80441
2020/8/18 9:30:00,286.409,-36.343,49849.81308
2020/8/18 9:31:00,286.508,-36.214,49695.97551
2020/8/18 9:32:00,286.605,-36.085,49541.29568
2020/8/18 9:33:00,286.7,-35.955,49385.77762
2020/8/18 9:34:00,286.793,-35.824,49229.42539
2020/8/18 9:35:00,286.885,-35.693,49072.24308
2020/8/18 9:36:00,286.976,-35.562,48914.23483
2020/8/18 9:37:00,287.064,-35.43,48755.40481
2020/8/18 9:38:00,287.151,-35.297,48595.75722
2020/8/18 9:39:00,287.237,-35.165,48435.29629
2020/8/18 9:40:00,287.321,-35.031,48274.02632
2020/8/18 9:41:00,287.403,-34.898,48111.9516
2020/8/18 9:42:00,287.483,-34.764,47949.07649
2020/8/18 9:43:00,287.562,-34.629,47785.40539
2020/8/18 9:44:00,287.639,-34.494,47620.94272
2020/8/18 9:45:00,287.715,-34.359,47455.69295
2020/8/18 9:46:00,287.789,-34.223,47289.66058
2020/8/18 9:47:00,287.861,-34.087,47122.85018
2020/8/18 9:48:00,287.931,-33.95,46955.26631
2020/8/18 9:49:00,288,-33.813,46786.91362
2020/8/18 9:50:00,288.067,-33.676,46617.79676
2020/8/18 9:51:00,288.132,-33.538,46447.92046
2020/8/18 9:52:00,288.196,-33.4,46277.28946
2020/8/18 9:53:00,288.258,-33.261,46105.90857
2020/8/18 9:54:00,288.318,-33.122,45933.78262
2020/8/18 9:55:00,288.376,-32.983,45760.9165
2020/8/18 9:56:00,288.433,-32.843,45587.31514
2020/8/18 9:57:00,288.488,-32.703,45412.98352
2020/8/18 9:58:00,288.541,-32.563,45237.92664
2020/8/18 9:59:00,288.593,-32.422,45062.14959
2020/8/18 10:00:00,288.642,-32.281,44885.65747
2020/8/18 10:01:00,288.69,-32.139,44708.45545
2020/8/18 10:02:00,288.736,-31.998,44530.54874
2020/8/18 10:03:00,288.78,-31.856,44351.94259
2020/8/18 10:04:00,288.823,-31.713,44172.64233
2020/8/18 10:05:00,288.863,-31.57,43992.65332
2020/8/18 10:06:00,288.902,-31.427,43811.98096
2020/8/18 10:07:00,288.939,-31.284,43630.63083
2020/8/18 10:08:00,288.974,-31.14,43448.60824
2020/8/18 10:09:00,289.007,-30.997,43265.91887
2020/8/18 10:10:00,289.038,-30.852,43082.56834
2020/8/18 10:11:00,289.068,-30.708,42898.56235
2020/8/18 10:12:00,289.095,-30.563,42713.90665
2020/8/18 10:13:00,289.121,-30.418,42528.60702
2020/8/18 10:14:00,289.144,-30.273,42342.66934
2020/8/18 10:15:00,289.166,-30.127,42156.09953
2020/8/18 10:16:00,289.185,-29.981,41968.90356
2020/8/18 10:17:00,289.203,-29.835,41781.0875
2020/8/18 10:18:00,289.219,-29.689,41592.65745
2020/8/18 10:19:00,289.233,-29.542,41403.61958
2020/8/18 10:20:00,289.244,-29.395,41213.98014
2020/8/18 10:21:00,289.254,-29.248,41023.74544
2020/8/18 10:22:00,289.261,-29.101,40832.92186
2020/8/18 10:23:00,289.267,-28.953,40641.51585
2020/8/18 10:24:00,289.27,-28.805,40449.53393
2020/8/18 10:25:00,289.272,-28.657,40256.98271
2020/8/18 10:26:00,289.271,-28.509,40063.86886
2020/8/18 10:27:00,289.268,-28.361,39870.19911
2020/8/18 10:28:00,289.263,-28.212,39675.98031
2020/8/18 10:29:00,289.256,-28.063,39481.21935
2020/8/18 10:30:00,289.246,-27.914,39285.92324
2020/8/18 10:31:00,289.235,-27.765,39090.09903
2020/8/18 10:32:00,289.221,-27.616,38893.7539
2020/8/18 10:33:00,289.204,-27.466,38696.89509
2020/8/18 10:34:00,289.186,-27.317,38499.52994
2020/8/18 10:35:00,289.165,-27.167,38301.66588
2020/8/18 10:36:00,289.142,-27.017,38103.31042
2020/8/18 10:37:00,289.117,-26.867,37904.4712
2020/8/18 10:38:00,289.089,-26.717,37705.15593
2020/8/18 10:39:00,289.059,-26.566,37505.37243
2020/8/18 10:40:00,289.026,-26.416,37305.12862
2020/8/18 10:41:00,288.991,-26.265,37104.43253
2020/8/18 10:42:00,288.954,-26.114,36903.29231
2020/8/18 10:43:00,288.914,-25.963,36701.7162
2020/8/18 10:44:00,288.871,-25.812,36499.71256
2020/8/18 10:45:00,288.826,-25.661,36297.28989
2020/8/18 10:46:00,288.778,-25.51,36094.45678
2020/8/18 10:47:00,288.728,-25.358,35891.22197
2020/8/18 10:48:00,288.675,-25.207,35687.5943
2020/8/18 10:49:00,288.619,-25.056,35483.58276
2020/8/18 10:50:00,288.561,-24.904,35279.19647
2020/8/18 10:51:00,288.5,-24.752,35074.44469
2020/8/18 10:52:00,288.436,-24.601,34869.33682
2020/8/18 10:53:00,288.369,-24.449,34663.8824
2020/8/18 10:54:00,288.299,-24.297,34458.13038
2020/8/18 10:55:00,288.227,-24.146,34252.01236
2020/8/18 10:56:00,288.151,-23.994,34045.57734
2020/8/18 10:57:00,288.073,-23.842,33838.83548
2020/8/18 10:58:00,287.992,-23.69,33631.79713
2020/8/18 10:59:00,287.907,-23.538,33424.47279
2020/8/18 11:00:00,287.819,-23.386,33216.87313
2020/8/18 11:01:00,287.729,-23.234,33009.00905
2020/8/18 11:02:00,287.635,-23.083,32800.8916
2020/8/18 11:03:00,287.538,-22.931,32592.53201
2020/8/18 11:04:00,287.437,-22.779,32383.94174
2020/8/18 11:05:00,287.333,-22.627,32175.13246
2020/8/18 11:06:00,287.226,-22.475,31966.11601
2020/8/18 11:07:00,287.116,-22.324,31756.90451
2020/8/18 11:08:00,287.001,-22.172,31547.51024
2020/8/18 11:09:00,286.884,-22.021,31337.94577
2020/8/18 11:10:00,286.763,-21.869,31128.22386
2020/8/18 11:11:00,286.638,-21.718,30918.35756
2020/8/18 11:12:00,286.509,-21.566,30708.36014
2020/8/18 11:13:00,286.377,-21.415,30498.24515
2020/8/18 11:14:00,286.24,-21.264,30288.02642
2020/8/18 11:15:00,286.1,-21.113,30077.71805
2020/8/18 11:16:00,285.956,-20.962,29867.33442
2020/8/18 11:17:00,285.808,-20.812,29656.89021
2020/8/18 11:18:00,285.655,-20.661,29446.40043
2020/8/18 11:19:00,285.499,-20.511,29235.8804
2020/8/18 11:20:00,285.338,-20.361,29025.34575
2020/8/18 11:21:00,285.173,-20.211,28814.81246
2020/8/18 11:22:00,285.004,-20.061,28604.29689
2020/8/18 11:23:00,284.83,-19.911,28393.81571
2020/8/18 11:24:00,284.651,-19.762,28183.38601
2020/8/18 11:25:00,284.468,-19.613,27973.02524
2020/8/18 11:26:00,284.28,-19.464,27762.75126
2020/8/18 11:27:00,284.087,-19.315,27552.58236
2020/8/18 11:28:00,283.89,-19.167,27342.53722
2020/8/18 11:29:00,283.687,-19.018,27132.63501
2020/8/18 11:30:00,283.479,-18.87,26922.89533
2020/8/18 11:31:00,283.266,-18.723,26713.33824
2020/8/18 11:32:00,283.048,-18.576,26503.98432
2020/8/18 11:33:00,282.824,-18.429,26294.85466
2020/8/18 11:34:00,282.595,-18.282,26085.97082
2020/8/18 11:35:00,282.36,-18.136,25877.35496
2020/8/18 11:36:00,282.119,-17.99,25669.02979
2020/8/18 11:37:00,281.873,-17.845,25461.01857
2020/8/18 11:38:00,281.62,-17.7,25253.3452
2020/8/18 11:39:00,281.362,-17.555,25046.03416
2020/8/18 11:40:00,281.097,-17.411,24839.11059
2020/8/18 11:41:00,280.826,-17.267,24632.6003
2020/8/18 11:42:00,280.548,-17.124,24426.52978
2020/8/18 11:43:00,280.264,-16.981,24220.92621
2020/8/18 11:44:00,279.973,-16.839,24015.81756
2020/8/18 11:45:00,279.675,-16.697,23811.23247
2020/8/18 11:46:00,279.37,-16.556,23607.20045
2020/8/18 11:47:00,279.058,-16.415,23403.75176
2020/8/18 11:48:00,278.739,-16.275,23200.91753
2020/8/18 11:49:00,278.412,-16.136,22998.72973
2020/8/18 11:50:00,278.077,-15.997,22797.22125
2020/8/18 11:51:00,277.735,-15.859,22596.42588
2020/8/18 11:52:00,277.385,-15.721,22396.37837
2020/8/18 11:53:00,277.026,-15.584,22197.11443
2020/8/18 11:54:00,276.659,-15.448,21998.67084
2020/8/18 11:55:00,276.284,-15.313,21801.08537
2020/8/18 11:56:00,275.9,-15.178,21604.39688
2020/8/18 11:57:00,275.508,-15.045,21408.64534
2020/8/18 11:58:00,275.106,-14.912,21213.87188
2020/8/18 11:59:00,274.695,-14.78,21020.1188
2020/8/18 12:00:00,274.275,-14.648,20827.42956
2020/8/18 12:01:00,273.845,-14.518,20635.84894
2020/8/18 12:02:00,273.405,-14.389,20445.42294
2020/8/18 12:03:00,272.955,-14.26,20256.1989
2020/8/18 12:04:00,272.495,-14.133,20068.22549
2020/8/18 12:05:00,272.025,-14.006,19881.55276
2020/8/18 12:06:00,271.544,-13.881,19696.23215
2020/8/18 12:07:00,271.052,-13.757,19512.31655
2020/8/18 12:08:00,270.549,-13.634,19329.86035
2020/8/18 12:09:00,270.035,-13.512,19148.91938
2020/8/18 12:10:00,269.51,-13.391,18969.55106
2020/8/18 12:11:00,268.973,-13.272,18791.81431
2020/8/18 12:12:00,268.424,-13.153,18615.76962
2020/8/18 12:13:00,267.863,-13.037,18441.47911
2020/8/18 12:14:00,267.29,-12.921,18269.00649
2020/8/18 12:15:00,266.704,-12.807,18098.41711
2020/8/18 12:16:00,266.106,-12.694,17929.77792
2020/8/18 12:17:00,265.494,-12.583,17763.15755
2020/8/18 12:18:00,264.87,-12.473,17598.62621
2020/8/18 12:19:00,264.232,-12.365,17436.25583
2020/8/18 12:20:00,263.581,-12.259,17276.11987
2020/8/18 12:21:00,262.916,-12.154,17118.29347
2020/8/18 12:22:00,262.238,-12.051,16962.85329
2020/8/18 12:23:00,261.546,-11.95,16809.87756
2020/8/18 12:24:00,260.839,-11.85,16659.44587
2020/8/18 12:25:00,260.119,-11.753,16511.63969
2020/8/18 12:26:00,259.384,-11.657,16366.54143
2020/8/18 12:27:00,258.634,-11.563,16224.23497
2020/8/18 12:28:00,257.87,-11.471,16084.80541
2020/8/18 12:29:00,257.092,-11.382,15948.33897
2020/8/18 12:30:00,256.299,-11.294,15814.92292
2020/8/18 12:31:00,255.491,-11.209,15684.64538
2020/8/18 12:32:00,254.668,-11.125,15557.5953
2020/8/18 12:33:00,253.831,-11.045,15433.86213
2020/8/18 12:34:00,252.979,-10.966,15313.5357
2020/8/18 12:35:00,252.113,-10.89,15196.7065
2020/8/18 12:36:00,251.233,-10.816,15083.46468
2020/8/18 12:37:00,250.338,-10.745,14973.90034
2020/8/18 12:38:00,249.429,-10.676,14868.1032
2020/8/18 12:39:00,248.506,-10.61,14766.16239
2020/8/18 12:40:00,247.569,-10.546,14668.16616
2020/8/18 12:41:00,246.619,-10.485,14574.20161
2020/8/18 12:42:00,245.656,-10.427,14484.35427
2020/8/18 12:43:00,244.68,-10.372,14398.70842
2020/8/18 12:44:00,243.692,-10.32,14317.34587
2020/8/18 12:45:00,242.691,-10.27,14240.34629
2020/8/18 12:46:00,241.68,-10.223,14167.78669
2020/8/18 12:47:00,240.657,-10.18,14099.7412
2020/8/18 12:48:00,239.624,-10.139,14036.28065
2020/8/18 12:49:00,238.581,-10.101,13977.47218
2020/8/18 12:50:00,237.528,-10.066,13923.37957
2020/8/18 12:51:00,236.467,-10.035,13874.06187
2020/8/18 12:52:00,235.398,-10.007,13829.57399
2020/8/18 12:53:00,234.322,-9.981,13789.96601
2020/8/18 12:54:00,233.239,-9.959,13755.28308
2020/8/18 12:55:00,232.151,-9.94,13725.56518
2020/8/18 12:56:00,231.057,-9.925,13700.84673
2020/8/18 12:57:00,229.959,-9.912,13681.15694
2020/8/18 12:58:00,228.858,-9.903,13666.51884
2020/8/18 12:59:00,227.754,-9.897,13656.9498
2020/8/18 13:00:00,226.649,-9.895,13652.46116
2020/8/18 13:01:00,225.543,-9.895,13653.05821
2020/8/18 13:02:00,224.436,-9.899,13658.7401
2020/8/18 13:03:00,223.331,-9.906,13669.50025
2020/8/18 13:04:00,222.227,-9.917,13685.32566
2020/8/18 13:05:00,221.126,-9.931,13706.19758
2020/8/18 13:06:00,220.028,-9.948,13732.09135
2020/8/18 13:07:00,218.934,-9.968,13762.97662
2020/8/18 13:08:00,217.845,-9.991,13798.81736
2020/8/18 13:09:00,216.761,-10.017,13839.5725
2020/8/18 13:10:00,215.684,-10.047,13885.19551
2020/8/18 13:11:00,214.614,-10.08,13935.6351
2020/8/18 13:12:00,213.552,-10.116,13990.83528
2020/8/18 13:13:00,212.497,-10.155,14050.7357
2020/8/18 13:14:00,211.452,-10.196,14115.27195
2020/8/18 13:15:00,210.417,-10.241,14184.3757
2020/8/18 13:16:00,209.391,-10.289,14257.97545
2020/8/18 13:17:00,208.376,-10.34,14335.99622
2020/8/18 13:18:00,207.372,-10.393,14418.36032
2020/8/18 13:19:00,206.379,-10.45,14504.98744
2020/8/18 13:20:00,205.398,-10.509,14595.7951
2020/8/18 13:21:00,204.429,-10.571,14690.69884
2020/8/18 13:22:00,203.473,-10.635,14789.61258
2020/8/18 13:23:00,202.529,-10.702,14892.44887
2020/8/18 13:24:00,201.598,-10.772,14999.11929
2020/8/18 13:25:00,200.68,-10.844,15109.53448
2020/8/18 13:26:00,199.775,-10.919,15223.60456
2020/8/18 13:27:00,198.884,-10.996,15341.23938
2020/8/18 13:28:00,198.006,-11.075,15462.34862
2020/8/18 13:29:00,197.141,-11.157,15586.84211
2020/8/18 13:30:00,196.29,-11.241,15714.62998
2020/8/18 13:31:00,195.453,-11.327,15845.62285
2020/8/18 13:32:00,194.629,-11.415,15979.73192
2020/8/18 13:33:00,193.819,-11.506,16116.86934
2020/8/18 13:34:00,193.022,-11.598,16256.94802
2020/8/18 13:35:00,192.238,-11.693,16399.882
2020/8/18 13:36:00,191.468,-11.789,16545.58647
2020/8/18 13:37:00,190.711,-11.887,16693.97785
2020/8/18 13:38:00,189.967,-11.987,16844.97392
2020/8/18 13:39:00,189.235,-12.089,16998.49383
2020/8/18 13:40:00,188.517,-12.193,17154.45823
2020/8/18 13:41:00,187.811,-12.298,17312.78923
2020/8/18 13:42:00,187.118,-12.405,17473.41055
2020/8/18 13:43:00,186.437,-12.513,17636.24747
2020/8/18 13:44:00,185.768,-12.623,17801.22688
2020/8/18 13:45:00,185.111,-12.735,17968.27729
2020/8/18 13:46:00,184.465,-12.848,18137.32888
2020/8/18 13:47:00,183.831,-12.962,18308.31342
2020/8/18 13:48:00,183.209,-13.078,18481.16434
2020/8/18 13:49:00,182.597,-13.195,18655.81672
2020/8/18 13:50:00,181.997,-13.314,18832.20725
2020/8/18 13:51:00,181.407,-13.434,19010.2742
2020/8/18 13:52:00,180.827,-13.554,19189.95749
2020/8/18 13:53:00,180.258,-13.677,19371.19853
2020/8/18 13:54:00,179.698,-13.8,19553.94035
2020/8/18 13:55:00,179.149,-13.924,19738.12745
2020/8/18 13:56:00,178.609,-14.05,19923.70584
2020/8/18 13:57:00,178.078,-14.176,20110.62303
2020/8/18 13:58:00,177.557,-14.304,20298.82785
2020/8/18 13:59:00,177.044,-14.432,20488.27067
2020/8/18 14:00:00,176.541,-14.562,20678.90313
2020/8/18 14:01:00,176.046,-14.692,20870.67824
2020/8/18 14:02:00,175.559,-14.823,21063.55031
2020/8/18 14:03:00,175.081,-14.955,21257.47494
2020/8/18 14:04:00,174.61,-15.088,21452.40893
2020/8/18 14:05:00,174.147,-15.222,21648.31029
2020/8/18 14:06:00,173.692,-15.357,21845.13821
2020/8/18 14:07:00,173.245,-15.492,22042.85299
2020/8/18 14:08:00,172.804,-15.628,22241.41608
2020/8/18 14:09:00,172.371,-15.765,22440.78994
2020/8/18 14:10:00,171.944,-15.902,22640.93812
2020/8/18 14:11:00,171.524,-16.04,22841.82512
2020/8/18 14:12:00,171.111,-16.179,23043.41649
2020/8/18 14:13:00,170.704,-16.318,23245.67865
2020/8/18 14:14:00,170.304,-16.458,23448.57897
2020/8/18 14:15:00,169.909,-16.599,23652.08573
2020/8/18 14:16:00,169.521,-16.74,23856.16801
2020/8/18 14:17:00,169.138,-16.881,24060.79576
2020/8/18 14:18:00,168.761,-17.023,24265.93975
2020/8/18 14:19:00,168.389,-17.166,24471.57146
2020/8/18 14:20:00,168.023,-17.309,24677.66319
2020/8/18 14:21:00,167.661,-17.452,24884.18795
2020/8/18 14:22:00,167.305,-17.596,25091.11943
2020/8/18 14:23:00,166.954,-17.741,25298.43202
2020/8/18 14:24:00,166.608,-17.885,25506.10076
2020/8/18 14:25:00,166.266,-18.031,25714.10135
2020/8/18 14:26:00,165.929,-18.176,25922.41008
2020/8/18 14:27:00,165.597,-18.322,26131.00382
2020/8/18 14:28:00,165.268,-18.468,26339.86007
2020/8/18 14:29:00,164.944,-18.615,26548.95684
2020/8/18 14:30:00,164.624,-18.762,26758.27267
2020/8/18 14:31:00,164.308,-18.909,26967.78667
2020/8/18 14:32:00,163.996,-19.056,27177.47841
2020/8/18 14:33:00,163.688,-19.204,27387.32796
2020/8/18 14:34:00,163.384,-19.352,27597.31586
2020/8/18 14:35:00,163.083,-19.501,27807.4231
2020/8/18 14:36:00,162.785,-19.649,28017.63112
2020/8/18 14:37:00,162.491,-19.798,28227.92178
2020/8/18 14:38:00,162.201,-19.947,28438.27734
2020/8/18 14:39:00,161.913,-20.096,28648.68047
2020/8/18 14:40:00,161.629,-20.246,28859.11422
2020/8/18 14:41:00,161.348,-20.395,29069.56202
2020/8/18 14:42:00,161.07,-20.545,29280.00765
2020/8/18 14:43:00,160.794,-20.695,29490.43525
2020/8/18 14:44:00,160.522,-20.845,29700.82929
2020/8/18 14:45:00,160.252,-20.995,29911.17456
2020/8/18 14:46:00,159.985,-21.145,30121.45617
2020/8/18 14:47:00,159.721,-21.296,30331.65956
2020/8/18 14:48:00,159.459,-21.446,30541.77043
2020/8/18 14:49:00,159.2,-21.597,30751.77479
2020/8/18 14:50:00,158.943,-21.748,30961.65892
2020/8/18 14:51:00,158.688,-21.899,31171.40937
2020/8/18 14:52:00,158.436,-22.05,31381.01297
2020/8/18 14:53:00,158.185,-22.201,31590.45676
2020/8/18 14:54:00,157.937,-22.352,31799.72807
2020/8/18 14:55:00,157.691,-22.503,32008.81444
2020/8/18 14:56:00,157.447,-22.654,32217.70366
2020/8/18 14:57:00,157.206,-22.805,32426.38372
2020/8/18 14:58:00,156.966,-22.957,32634.84285
2020/8/18 14:59:00,156.727,-23.108,32843.06949
2020/8/18 15:00:00,156.491,-23.259,33051.05226
2020/8/18 15:01:00,156.257,-23.411,33258.78001
2020/8/18 15:02:00,156.024,-23.562,33466.24176
2020/8/18 15:03:00,155.793,-23.713,33673.42672
2020/8/18 15:04:00,155.563,-23.864,33880.32429
2020/8/18 15:05:00,155.335,-24.016,34086.92404
2020/8/18 15:06:00,155.108,-24.167,34293.21572
2020/8/18 15:07:00,154.883,-24.318,34499.18923
2020/8/18 15:08:00,154.66,-24.469,34704.83465
2020/8/18 15:09:00,154.438,-24.62,34910.14221
2020/8/18 15:10:00,154.217,-24.771,35115.10228
2020/8/18 15:11:00,153.997,-24.922,35319.70541
2020/8/18 15:12:00,153.779,-25.073,35523.94226
2020/8/18 15:13:00,153.562,-25.224,35727.80364
2020/8/18 15:14:00,153.346,-25.375,35931.28053
2020/8/18 15:15:00,153.131,-25.525,36134.36399
2020/8/18 15:16:00,152.918,-25.676,36337.04526
2020/8/18 15:17:00,152.705,-25.826,36539.37277
2020/8/18 15:18:00,152.494,-25.977,36741.22286
2020/8/18 15:19:00,152.283,-26.127,36942.64514
2020/8/18 15:20:00,152.074,-26.277,37143.63133
2020/8/18 15:21:00,151.865,-26.427,37344.17324
2020/8/18 15:22:00,151.657,-26.577,37544.26281
2020/8/18 15:23:00,151.45,-26.727,37743.89205
2020/8/18 15:24:00,151.244,-26.876,37943.05313
2020/8/18 15:25:00,151.039,-27.026,38141.73829
2020/8/18 15:26:00,150.835,-27.175,38339.93986
2020/8/18 15:27:00,150.631,-27.324,38537.65031
2020/8/18 15:28:00,150.428,-27.473,38734.86216
2020/8/18 15:29:00,150.226,-27.622,38931.56805
2020/8/18 15:30:00,150.024,-27.771,39127.7607
2020/8/18 15:31:00,149.823,-27.919,39323.43294
2020/8/18 15:32:00,149.623,-28.067,39518.57766
2020/8/18 15:33:00,149.423,-28.215,39713.18786
2020/8/18 15:34:00,149.224,-28.363,39907.2566
2020/8/18 15:35:00,149.025,-28.511,40100.77703
2020/8/18 15:36:00,148.827,-28.658,40293.7424
2020/8/18 15:37:00,148.629,-28.806,40486.14601
2020/8/18 15:38:00,148.432,-28.953,40677.98124
2020/8/18 15:39:00,148.235,-29.099,40869.24157
2020/8/18 15:40:00,148.039,-29.246,41059.92052
2020/8/18 15:41:00,147.842,-29.392,41250.01172
2020/8/18 15:42:00,147.647,-29.538,41439.50882
2020/8/18 15:43:00,147.451,-29.684,41628.40559
2020/8/18 15:44:00,147.256,-29.83,41816.69583
2020/8/18 15:45:00,147.062,-29.975,42004.37343
2020/8/18 15:46:00,146.867,-30.12,42191.43234
2020/8/18 15:47:00,146.673,-30.265,42377.86656
2020/8/18 15:48:00,146.479,-30.41,42563.67016
2020/8/18 15:49:00,146.285,-30.554,42748.83729
2020/8/18 15:50:00,146.092,-30.698,42933.36213
2020/8/18 15:51:00,145.898,-30.842,43117.23894
2020/8/18 15:52:00,145.705,-30.985,43300.46202
2020/8/18 15:53:00,145.512,-31.128,43483.02576
2020/8/18 15:54:00,145.319,-31.271,43664.92458
2020/8/18 15:55:00,145.126,-31.414,43846.15294
2020/8/18 15:56:00,144.933,-31.556,44026.7054
2020/8/18 15:57:00,144.741,-31.698,44206.57653
2020/8/18 15:58:00,144.548,-31.84,44385.76097
2020/8/18 15:59:00,144.355,-31.981,44564.25343
2020/8/18 16:00:00,144.163,-32.122,44742.04863
2020/8/18 16:01:00,143.97,-32.262,44919.14138
2020/8/18 16:02:00,143.778,-32.403,45095.52651
2020/8/18 16:03:00,143.585,-32.543,45271.19892
2020/8/18 16:04:00,143.392,-32.682,45446.15354
2020/8/18 16:05:00,143.2,-32.821,45620.38536
2020/8/18 16:06:00,143.007,-32.96,45793.88941
2020/8/18 16:07:00,142.814,-33.099,45966.66076
2020/8/18 16:08:00,142.621,-33.237,46138.69455
2020/8/18 16:09:00,142.428,-33.375,46309.98593
2020/8/18 16:10:00,142.235,-33.512,46480.53012
2020/8/18 16:11:00,142.041,-33.649,46650.32237
2020/8/18 16:12:00,141.848,-33.786,46819.35797
2020/8/18 16:13:00,141.654,-33.922,46987.63227
2020/8/18 16:14:00,141.46,-34.058,47155.14065
2020/8/18 16:15:00,141.266,-34.193,47321.87853
2020/8/18 16:16:00,141.072,-34.328,47487.84132
2020/8/18 16:17:00,140.877,-34.463,47653.02462
2020/8/18 16:18:00,140.682,-34.597,47817.42392
2020/8/18 16:19:00,140.487,-34.731,47981.03481
2020/8/18 16:20:00,140.292,-34.864,48143.8529
2020/8/18 16:21:00,140.097,-34.997,48305.87385
2020/8/18 16:22:00,139.901,-35.13,48467.09336
2020/8/18 16:23:00,139.705,-35.262,48627.50717
2020/8/18 16:24:00,139.508,-35.393,48787.11104
2020/8/18 16:25:00,139.312,-35.524,48945.90077
2020/8/18 16:26:00,139.115,-35.655,49103.87222
2020/8/18 16:27:00,138.917,-35.785,49261.02127
2020/8/18 16:28:00,138.719,-35.915,49417.34382
2020/8/18 16:29:00,138.521,-36.044,49572.83583
2020/8/18 16:30:00,138.323,-36.173,49727.49329
2020/8/18 16:31:00,138.124,-36.301,49881.31221
2020/8/18 16:32:00,137.925,-36.429,50034.28865
2020/8/18 16:33:00,137.725,-36.556,50186.41869
2020/8/18 16:34:00,137.525,-36.683,50337.69847
2020/8/18 16:35:00,137.325,-36.809,50488.12413
2020/8/18 16:36:00,137.124,-36.935,50637.69186
2020/8/18 16:37:00,136.923,-37.06,50786.3979
2020/8/18 16:38:00,136.721,-37.185,50934.23848
2020/8/18 16:39:00,136.519,-37.309,51081.2099
2020/8/18 16:40:00,136.316,-37.433,51227.30847
2020/8/18 16:41:00,136.113,-37.556,51372.53055
2020/8/18 16:42:00,135.909,-37.679,51516.87253
2020/8/18 16:43:00,135.705,-37.801,51660.3308
2020/8/18 16:44:00,135.501,-37.922,51802.90183
2020/8/18 16:45:00,135.296,-38.043,51944.58208
2020/8/18 16:46:00,135.09,-38.164,52085.36806
2020/8/18 16:47:00,134.884,-38.284,52225.25632
2020/8/18 16:48:00,134.677,-38.403,52364.24341
2020/8/18 16:49:00,134.47,-38.522,52502.32593
2020/8/18 16:50:00,134.263,-38.64,52639.50053
2020/8/18 16:51:00,134.054,-38.757,52775.76385
2020/8/18 16:52:00,133.846,-38.874,52911.11255
2020/8/18 16:53:00,133.636,-38.99,53045.54341
2020/8/18 16:54:00,133.427,-39.106,53179.05315
2020/8/18 16:55:00,133.216,-39.221,53311.63854
2020/8/18 16:56:00,133.005,-39.336,53443.29639
2020/8/18 16:57:00,132.794,-39.45,53574.02353
2020/8/18 16:58:00,132.582,-39.563,53703.81683
2020/8/18 16:59:00,132.369,-39.675,53832.67318
2020/8/18 17:00:00,132.156,-39.787,53960.58949
2020/8/18 17:01:00,131.942,-39.899,54087.56273
2020/8/18 17:02:00,131.727,-40.009,54213.58986
2020/8/18 17:03:00,131.512,-40.119,54338.66788
2020/8/18 17:04:00,131.296,-40.229,54462.79384
2020/8/18 17:05:00,131.08,-40.337,54585.96479
2020/8/18 17:06:00,130.863,-40.445,54708.17782
2020/8/18 17:07:00,130.646,-40.553,54829.43006
2020/8/18 17:08:00,130.428,-40.659,54949.71863
2020/8/18 17:09:00,130.209,-40.765,55069.04072
2020/8/18 17:10:00,129.989,-40.871,55187.39352
2020/8/18 17:11:00,129.769,-40.975,55304.77426
2020/8/18 17:12:00,129.549,-41.079,55421.18019
2020/8/18 17:13:00,129.327,-41.182,55536.6086
2020/8/18 17:14:00,129.105,-41.285,55651.05678
2020/8/18 17:15:00,128.883,-41.387,55764.52208
2020/8/18 17:16:00,128.66,-41.488,55877.00186
2020/8/18 17:17:00,128.436,-41.588,55988.49349
2020/8/18 17:18:00,128.211,-41.687,56098.99441
2020/8/18 17:19:00,127.986,-41.786,56208.50205
2020/8/18 17:20:00,127.76,-41.884,56317.01386
2020/8/18 17:21:00,127.534,-41.982,56424.52736
2020/8/18 17:22:00,127.307,-42.078,56531.04006
2020/8/18 17:23:00,127.079,-42.174,56636.54951
2020/8/18 17:24:00,126.85,-42.269,56741.05326
2020/8/18 17:25:00,126.621,-42.363,56844.54895
2020/8/18 17:26:00,126.392,-42.457,56947.03418
2020/8/18 17:27:00,126.161,-42.549,57048.5066
2020/8/18 17:28:00,125.93,-42.641,57148.9639
2020/8/18 17:29:00,125.698,-42.732,57248.40378
2020/8/18 17:30:00,125.466,-42.822,57346.82396
2020/8/18 17:31:00,125.233,-42.912,57444.2222
2020/8/18 17:32:00,124.999,-43.001,57540.59628
2020/8/18 17:33:00,124.765,-43.088,57635.94401
2020/8/18 17:34:00,124.53,-43.175,57730.26322
2020/8/18 17:35:00,124.295,-43.262,57823.55175
2020/8/18 17:36:00,124.058,-43.347,57915.80752
2020/8/18 17:37:00,123.821,-43.431,58007.02841
2020/8/18 17:38:00,123.584,-43.515,58097.21236
2020/8/18 17:39:00,123.346,-43.598,58186.35734
2020/8/18 17:40:00,123.107,-43.68,58274.46132
2020/8/18 17:41:00,122.868,-43.761,58361.52232
2020/8/18 17:42:00,122.628,-43.841,58447.53838
2020/8/18 17:43:00,122.387,-43.921,58532.50754
2020/8/18 17:44:00,122.146,-43.999,58616.42792
2020/8/18 17:45:00,121.904,-44.077,58699.2976
2020/8/18 17:46:00,121.661,-44.153,58781.11474
2020/8/18 17:47:00,121.418,-44.229,58861.87749
2020/8/18 17:48:00,121.174,-44.304,58941.58403
2020/8/18 17:49:00,120.93,-44.378,59020.2326
2020/8/18 17:50:00,120.685,-44.451,59097.82141
2020/8/18 17:51:00,120.44,-44.524,59174.34872
2020/8/18 17:52:00,120.193,-44.595,59249.81285
2020/8/18 17:53:00,119.947,-44.665,59324.21207
2020/8/18 17:54:00,119.699,-44.735,59397.54475
2020/8/18 17:55:00,119.452,-44.803,59469.80925
2020/8/18 17:56:00,119.203,-44.871,59541.00394
2020/8/18 17:57:00,118.954,-44.937,59611.12724
2020/8/18 17:58:00,118.705,-45.003,59680.1776
2020/8/18 17:59:00,118.455,-45.068,59748.15346
2020/8/18 18:00:00,118.204,-45.131,59815.05333
2020/8/18 18:01:00,117.953,-45.194,59880.87569
2020/8/18 18:02:00,117.702,-45.256,59945.61912
2020/8/18 18:03:00,117.449,-45.317,60009.28214
2020/8/18 18:04:00,117.197,-45.377,60071.86336
2020/8/18 18:05:00,116.944,-45.436,60133.36138
2020/8/18 18:06:00,116.69,-45.494,60193.77484
2020/8/18 18:07:00,116.436,-45.551,60253.1024
2020/8/18 18:08:00,116.182,-45.607,60311.34276
2020/8/18 18:09:00,115.927,-45.662,60368.49459
2020/8/18 18:10:00,115.671,-45.716,60424.55667
2020/8/18 18:11:00,115.415,-45.769,60479.52773
2020/8/18 18:12:00,115.159,-45.821,60533.40657
2020/8/18 18:13:00,114.902,-45.872,60586.19198
2020/8/18 18:14:00,114.645,-45.921,60637.88281
2020/8/18 18:15:00,114.387,-45.97,60688.47791
2020/8/18 18:16:00,114.129,-46.018,60737.97616
2020/8/18 18:17:00,113.871,-46.065,60786.37647
2020/8/18 18:18:00,113.612,-46.111,60833.67778
2020/8/18 18:19:00,113.353,-46.156,60879.87903
2020/8/18 18:20:00,113.094,-46.2,60924.97921
2020/8/18 18:21:00,112.834,-46.242,60968.97733
2020/8/18 18:22:00,112.574,-46.284,61011.8724
2020/8/18 18:23:00,112.314,-46.325,61053.66349
2020/8/18 18:24:00,112.053,-46.364,61094.34969
2020/8/18 18:25:00,111.792,-46.403,61133.93007
2020/8/18 18:26:00,111.531,-46.44,61172.40379
2020/8/18 18:27:00,111.269,-46.476,61209.76998
2020/8/18 18:28:00,111.007,-46.512,61246.02783
2020/8/18 18:29:00,110.745,-46.546,61281.17653
2020/8/18 18:30:00,110.483,-46.579,61315.21532
2020/8/18 18:31:00,110.221,-46.611,61348.14345
2020/8/18 18:32:00,109.958,-46.642,61379.96017
2020/8/18 18:33:00,109.695,-46.672,61410.66481
2020/8/18 18:34:00,109.432,-46.701,61440.25667
2020/8/18 18:35:00,109.169,-46.729,61468.73512
2020/8/18 18:36:00,108.906,-46.756,61496.09951
2020/8/18 18:37:00,108.642,-46.781,61522.34925
2020/8/18 18:38:00,108.379,-46.806,61547.48377
2020/8/18 18:39:00,108.115,-46.829,61571.50249
2020/8/18 18:40:00,107.851,-46.852,61594.4049
2020/8/18 18:41:00,107.587,-46.873,61616.19049
2020/8/18 18:42:00,107.323,-46.893,61636.85878
2020/8/18 18:43:00,107.06,-46.912,61656.40932
2020/8/18 18:44:00,106.796,-46.93,61674.84166
2020/8/18 18:45:00,106.532,-46.947,61692.15541
2020/8/18 18:46:00,106.268,-46.963,61708.35018
2020/8/18 18:47:00,106.004,-46.978,61723.4256
2020/8/18 18:48:00,105.74,-46.991,61737.38138
2020/8/18 18:49:00,105.476,-47.004,61750.21715
2020/8/18 18:50:00,105.212,-47.015,61761.93266
2020/8/18 18:51:00,104.948,-47.025,61772.52763
2020/8/18 18:52:00,104.685,-47.034,61782.00184
2020/8/18 18:53:00,104.421,-47.042,61790.35508
2020/8/18 18:54:00,104.158,-47.049,61797.58714
2020/8/18 18:55:00,103.894,-47.055,61803.69788
2020/8/18 18:56:00,103.631,-47.06,61808.68714
2020/8/18 18:57:00,103.368,-47.063,61812.55483
2020/8/18 18:58:00,103.105,-47.066,61815.30084
2020/8/18 18:59:00,102.843,-47.067,61816.92511
2020/8/18 19:00:00,102.58,-47.067,61817.42761
2020/8/18 19:01:00,102.318,-47.066,61816.8083
2020/8/18 19:02:00,102.056,-47.064,61815.0672
2020/8/18 19:03:00,101.795,-47.061,61812.20435
2020/8/18 19:04:00,101.533,-47.057,61808.21979
2020/8/18 19:05:00,101.272,-47.051,61803.11361
2020/8/18 19:06:00,101.012,-47.045,61796.88591
2020/8/18 19:07:00,100.751,-47.037,61789.53683
2020/8/18 19:08:00,100.491,-47.029,61781.06651
2020/8/18 19:09:00,100.232,-47.019,61771.47514
2020/8/18 19:10:00,99.972,-47.008,61760.76292
2020/8/18 19:11:00,99.713,-46.996,61748.93007
2020/8/18 19:12:00,99.455,-46.983,61735.97685
2020/8/18 19:13:00,99.197,-46.968,61721.90352
2020/8/18 19:14:00,98.939,-46.953,61706.71041
2020/8/18 19:15:00,98.682,-46.936,61690.39784
2020/8/18 19:16:00,98.425,-46.919,61672.96613
2020/8/18 19:17:00,98.169,-46.9,61654.41566
2020/8/18 19:18:00,97.913,-46.88,61634.74684
2020/8/18 19:19:00,97.658,-46.859,61613.9601
2020/8/18 19:20:00,97.403,-46.837,61592.05587
2020/8/18 19:21:00,97.149,-46.814,61569.03463
2020/8/18 19:22:00,96.896,-46.79,61544.89688
2020/8/18 19:23:00,96.643,-46.765,61519.64312
2020/8/18 19:24:00,96.39,-46.739,61493.27392
2020/8/18 19:25:00,96.139,-46.711,61465.78983
2020/8/18 19:26:00,95.887,-46.682,61437.19146
2020/8/18 19:27:00,95.637,-46.653,61407.47942
2020/8/18 19:28:00,95.387,-46.622,61376.65435
2020/8/18 19:29:00,95.138,-46.59,61344.71692
2020/8/18 19:30:00,94.889,-46.557,61311.66782
2020/8/18 19:31:00,94.642,-46.523,61277.50777
2020/8/18 19:32:00,94.395,-46.488,61242.23751
2020/8/18 19:33:00,94.148,-46.452,61205.85779
2020/8/18 19:34:00,93.903,-46.415,61168.36942
2020/8/18 19:35:00,93.658,-46.377,61129.77321
2020/8/18 19:36:00,93.414,-46.338,61090.06999
2020/8/18 19:37:00,93.17,-46.297,61049.26063
2020/8/18 19:38:00,92.928,-46.256,61007.34601
2020/8/18 19:39:00,92.686,-46.213,60964.32705
2020/8/18 19:40:00,92.445,-46.17,60920.20469
2020/8/18 19:41:00,92.205,-46.125,60874.97987
2020/8/18 19:42:00,91.966,-46.08,60828.65365
2020/8/18 19:43:00,91.728,-46.033,60781.22692
2020/8/18 19:44:00,91.491,-45.986,60732.70079
2020/8/18 19:45:00,91.254,-45.937,60683.07631
2020/8/18 19:46:00,91.018,-45.887,60632.35455
2020/8/18 19:47:00,90.784,-45.836,60580.53663
2020/8/18 19:48:00,90.55,-45.785,60527.62368
2020/8/18 19:49:00,90.317,-45.732,60473.61687
2020/8/18 19:50:00,90.085,-45.678,60418.51736
2020/8/18 19:51:00,89.854,-45.623,60362.32638
2020/8/18 19:52:00,89.624,-45.567,60305.04515
2020/8/18 19:53:00,89.396,-45.511,60246.67493
2020/8/18 19:54:00,89.168,-45.453,60187.217
2020/8/18 19:55:00,88.941,-45.394,60126.67267
2020/8/18 19:56:00,88.715,-45.334,60065.04326
2020/8/18 19:57:00,88.49,-45.273,60002.33013
2020/8/18 19:58:00,88.266,-45.212,59938.53467
2020/8/18 19:59:00,88.043,-45.149,59873.65828
2020/8/18 20:00:00,87.822,-45.085,59807.70239
2020/8/18 20:01:00,87.601,-45.021,59740.66845
2020/8/18 20:02:00,87.381,-44.955,59672.55794
2020/8/18 20:03:00,87.163,-44.888,59603.37238
2020/8/18 20:04:00,86.946,-44.821,59533.11327
2020/8/18 20:05:00,86.729,-44.752,59461.78219
2020/8/18 20:06:00,86.514,-44.683,59389.38071
2020/8/18 20:07:00,86.3,-44.613,59315.91044
2020/8/18 20:08:00,86.087,-44.541,59241.373
2020/8/18 20:09:00,85.876,-44.469,59165.77006
2020/8/18 20:10:00,85.665,-44.396,59089.10333
2020/8/18 20:11:00,85.456,-44.322,59011.37442
2020/8/18 20:12:00,85.248,-44.247,58932.58511
2020/8/18 20:13:00,85.041,-44.171,58852.73716
2020/8/18 20:14:00,84.835,-44.094,58771.83234
2020/8/18 20:15:00,84.63,-44.016,58689.87246
2020/8/18 20:16:00,84.427,-43.938,58606.85936
2020/8/18 20:17:00,84.225,-43.858,58522.79487
2020/8/18 20:18:00,84.024,-43.778,58437.68089
2020/8/18 20:19:00,83.824,-43.697,58351.51932
2020/8/18 20:20:00,83.626,-43.615,58264.31209
2020/8/18 20:21:00,83.429,-43.532,58176.06117
2020/8/18 20:22:00,83.233,-43.448,58086.76851
2020/8/18 20:23:00,83.038,-43.363,57996.43615
2020/8/18 20:24:00,82.845,-43.278,57905.0661
2020/8/18 20:25:00,82.653,-43.191,57812.66043
2020/8/18 20:26:00,82.462,-43.104,57719.22122
2020/8/18 20:27:00,82.272,-43.016,57624.75058
2020/8/18 20:28:00,82.084,-42.927,57529.25064
2020/8/18 20:29:00,81.897,-42.837,57432.72357
2020/8/18 20:30:00,81.712,-42.747,57335.17155
2020/8/18 20:31:00,81.527,-42.655,57236.59679
2020/8/18 20:32:00,81.345,-42.563,57137.00153
2020/8/18 20:33:00,81.163,-42.47,57036.38803
2020/8/18 20:34:00,80.983,-42.376,56934.75859
2020/8/18 20:35:00,80.804,-42.282,56832.11551
2020/8/18 20:36:00,80.626,-42.186,56728.46115
2020/8/18 20:37:00,80.45,-42.09,56623.79786
2020/8/18 20:38:00,80.275,-41.993,56518.12804
2020/8/18 20:39:00,80.101,-41.896,56411.45418
2020/8/18 20:40:00,79.929,-41.797,56303.7786
2020/8/18 20:41:00,79.759,-41.698,56195.10382
2020/8/18 20:42:00,79.589,-41.598,56085.43235
2020/8/18 20:43:00,79.421,-41.497,55974.76671
2020/8/18 20:44:00,79.255,-41.396,55863.10946
2020/8/18 20:45:00,79.089,-41.293,55750.46318
2020/8/18 20:46:00,78.926,-41.19,55636.83046
2020/8/18 20:47:00,78.763,-41.087,55522.21395
2020/8/18 20:48:00,78.602,-40.982,55406.6163
2020/8/18 20:49:00,78.442,-40.877,55290.0402
2020/8/18 20:50:00,78.284,-40.771,55172.48835
2020/8/18 20:51:00,78.128,-40.665,55053.9635
2020/8/18 20:52:00,77.972,-40.557,54934.46843
2020/8/18 20:53:00,77.818,-40.449,54814.00591
2020/8/18 20:54:00,77.666,-40.341,54692.57877
2020/8/18 20:55:00,77.515,-40.231,54570.18988
2020/8/18 20:56:00,77.365,-40.121,54446.84209
2020/8/18 20:57:00,77.217,-40.011,54322.53831
2020/8/18 20:58:00,77.07,-39.899,54197.28148
2020/8/18 20:59:00,76.925,-39.787,54071.07456
2020/8/18 21:00:00,76.781,-39.675,53943.92054
2020/8/18 21:01:00,76.639,-39.561,53815.82242
2020/8/18 21:02:00,76.498,-39.447,53686.78327
2020/8/18 21:03:00,76.359,-39.333,53556.80615
2020/8/18 21:04:00,76.221,-39.217,53425.89416
2020/8/18 21:05:00,76.084,-39.101,53294.05044
2020/8/18 21:06:00,75.949,-38.985,53161.27814
2020/8/18 21:07:00,75.816,-38.868,53027.58045
2020/8/18 21:08:00,75.684,-38.75,52892.9606
2020/8/18 21:09:00,75.554,-38.631,52757.42182
2020/8/18 21:10:00,75.425,-38.512,52620.96739
2020/8/18 21:11:00,75.297,-38.393,52483.60071
2020/8/18 21:12:00,75.171,-38.273,52345.32493
2020/8/18 21:13:00,75.047,-38.152,52206.14353
2020/8/18 21:14:00,74.924,-38.03,52066.05987
2020/8/18 21:15:00,74.802,-37.909,51925.07739
2020/8/18 21:16:00,74.682,-37.786,51783.19956
2020/8/18 21:17:00,74.564,-37.663,51640.42985
2020/8/18 21:18:00,74.447,-37.539,51496.77178
2020/8/18 21:19:00,74.332,-37.415,51352.22891
2020/8/18 21:20:00,74.218,-37.29,51206.8048
2020/8/18 21:21:00,74.105,-37.165,51060.50309
2020/8/18 21:22:00,73.995,-37.039,50913.32739
2020/8/18 21:23:00,73.886,-36.913,50765.28141
2020/8/18 21:24:00,73.778,-36.786,50616.36884
2020/8/18 21:25:00,73.672,-36.658,50466.59341
2020/8/18 21:26:00,73.567,-36.53,50315.95891
2020/8/18 21:27:00,73.464,-36.402,50164.46915
2020/8/18 21:28:00,73.363,-36.273,50012.12794
2020/8/18 21:29:00,73.263,-36.143,49858.93918
2020/8/18 21:30:00,73.165,-36.013,49704.90677
2020/8/18 21:31:00,73.068,-35.882,49550.03465
2020/8/18 21:32:00,72.973,-35.751,49394.32678
2020/8/18 21:33:00,72.88,-35.62,49237.78719
2020/8/18 21:34:00,72.788,-35.488,49080.41991
2020/8/18 21:35:00,72.698,-35.355,48922.22903
2020/8/18 21:36:00,72.609,-35.222,48763.21866
2020/8/18 21:37:00,72.522,-35.089,48603.39295
2020/8/18 21:38:00,72.437,-34.955,48442.75608
2020/8/18 21:39:00,72.353,-34.821,48281.31229
2020/8/18 21:40:00,72.271,-34.686,48119.06584
2020/8/18 21:41:00,72.19,-34.551,47956.02101
2020/8/18 21:42:00,72.111,-34.415,47792.18216
2020/8/18 21:43:00,72.034,-34.279,47627.55366
2020/8/18 21:44:00,71.958,-34.142,47462.13991
2020/8/18 21:45:00,71.884,-34.005,47295.94537
2020/8/18 21:46:00,71.812,-33.868,47128.97454
2020/8/18 21:47:00,71.742,-33.73,46961.23204
2020/8/18 21:48:00,71.673,-33.592,46792.72226
2020/8/18 21:49:00,71.605,-33.453,46623.4499
2020/8/18 21:50:00,71.54,-33.314,46453.41963
2020/8/18 21:51:00,71.476,-33.174,46282.63613
2020/8/18 21:52:00,71.414,-33.035,46111.10416
2020/8/18 21:53:00,71.354,-32.894,45938.82849
2020/8/18 21:54:00,71.295,-32.754,45765.81395
2020/8/18 21:55:00,71.238,-32.613,45592.06542
2020/8/18 21:56:00,71.183,-32.471,45417.58782
2020/8/18 21:57:00,71.129,-32.329,45242.3861
2020/8/18 21:58:00,71.078,-32.187,45066.46528
2020/8/18 21:59:00,71.028,-32.045,44889.83042
2020/8/18 22:00:00,70.98,-31.902,44712.48661
2020/8/18 22:01:00,70.933,-31.759,44534.43902
2020/8/18 22:02:00,70.889,-31.615,44355.69284
2020/8/18 22:03:00,70.846,-31.471,44176.25333
2020/8/18 22:04:00,70.805,-31.327,43996.12579
2020/8/18 22:05:00,70.766,-31.182,43815.31557
2020/8/18 22:06:00,70.729,-31.037,43633.82809
2020/8/18 22:07:00,70.693,-30.892,43451.6688
2020/8/18 22:08:00,70.66,-30.746,43268.84322
2020/8/18 22:09:00,70.628,-30.6,43085.35691
2020/8/18 22:10:00,70.598,-30.454,42901.21551
2020/8/18 22:11:00,70.57,-30.308,42716.4247
2020/8/18 22:12:00,70.544,-30.161,42530.99022
2020/8/18 22:13:00,70.52,-30.014,42344.91786
2020/8/18 22:14:00,70.498,-29.866,42158.2135
2020/8/18 22:15:00,70.478,-29.719,41970.88305
2020/8/18 22:16:00,70.46,-29.571,41782.93249
2020/8/18 22:17:00,70.444,-29.422,41594.36789
2020/8/18 22:18:00,70.429,-29.274,41405.19534
2020/8/18 22:19:00,70.417,-29.125,41215.42103
2020/8/18 22:20:00,70.407,-28.976,41025.05121
2020/8/18 22:21:00,70.399,-28.827,40834.09219
2020/8/18 22:22:00,70.393,-28.677,40642.55036
2020/8/18 22:23:00,70.389,-28.527,40450.43219
2020/8/18 22:24:00,70.387,-28.377,40257.74419
2020/8/18 22:25:00,70.387,-28.227,40064.49299
2020/8/18 22:26:00,70.389,-28.077,39870.68525
2020/8/18 22:27:00,70.393,-27.926,39676.32775
2020/8/18 22:28:00,70.4,-27.775,39481.42733
2020/8/18 22:29:00,70.409,-27.624,39285.99091
2020/8/18 22:30:00,70.42,-27.472,39090.02549
2020/8/18 22:31:00,70.433,-27.321,38893.53817
2020/8/18 22:32:00,70.448,-27.169,38696.53613
2020/8/18 22:33:00,70.466,-27.017,38499.02664
2020/8/18 22:34:00,70.486,-26.865,38301.01718
2020/8/18 22:35:00,70.508,-26.712,38102.51496
2020/8/18 22:36:00,70.533,-26.559,37903.52765
2020/8/18 22:37:00,70.56,-26.407,37704.06291
2020/8/18 22:38:00,70.589,-26.254,37504.12848
2020/8/18 22:39:00,70.621,-26.101,37303.73222
2020/8/18 22:40:00,70.655,-25.947,37102.88207
2020/8/18 22:41:00,70.692,-25.794,36901.58612
2020/8/18 22:42:00,70.731,-25.64,36699.85253
2020/8/18 22:43:00,70.773,-25.487,36497.68961
2020/8/18 22:44:00,70.817,-25.333,36295.10576
2020/8/18 22:45:00,70.864,-25.179,36092.1095
2020/8/18 22:46:00,70.913,-25.025,35888.7095
2020/8/18 22:47:00,70.965,-24.87,35684.91452
2020/8/18 22:48:00,71.02,-24.716,35480.73349
2020/8/18 22:49:00,71.077,-24.561,35276.17545
2020/8/18 22:50:00,71.138,-24.407,35071.24956
2020/8/18 22:51:00,71.2,-24.252,34865.96516
2020/8/18 22:52:00,71.266,-24.097,34660.33171
2020/8/18 22:53:00,71.335,-23.942,34454.35883
2020/8/18 22:54:00,71.406,-23.788,34248.05628
2020/8/18 22:55:00,71.481,-23.632,34041.43399
2020/8/18 22:56:00,71.558,-23.477,33834.50204
2020/8/18 22:57:00,71.638,-23.322,33627.2707
2020/8/18 22:58:00,71.722,-23.167,33419.75038
2020/8/18 22:59:00,71.808,-23.012,33211.9517
2020/8/18 23:00:00,71.898,-22.856,33003.88543
2020/8/18 23:01:00,71.991,-22.701,32795.56254
2020/8/18 23:02:00,72.087,-22.546,32586.99421
2020/8/18 23:03:00,72.186,-22.39,32378.1918
2020/8/18 23:04:00,72.289,-22.235,32169.16686
2020/8/18 23:05:00,72.395,-22.079,31959.9312
2020/8/18 23:06:00,72.504,-21.924,31750.4968
2020/8/18 23:07:00,72.617,-21.768,31540.87588
2020/8/18 23:08:00,72.734,-21.613,31331.08089
2020/8/18 23:09:00,72.854,-21.457,31121.12454
2020/8/18 23:10:00,72.977,-21.302,30911.01976
2020/8/18 23:11:00,73.105,-21.147,30700.77973
2020/8/18 23:12:00,73.236,-20.991,30490.41792
2020/8/18 23:13:00,73.371,-20.836,30279.94804
2020/8/18 23:14:00,73.51,-20.681,30069.38411
2020/8/18 23:15:00,73.653,-20.526,29858.74041
2020/8/18 23:16:00,73.8,-20.371,29648.03154
2020/8/18 23:17:00,73.951,-20.216,29437.27238
2020/8/18 23:18:00,74.106,-20.061,29226.47817
2020/8/18 23:19:00,74.265,-19.906,29015.66444
2020/8/18 23:20:00,74.429,-19.751,28804.84706
2020/8/18 23:21:00,74.597,-19.597,28594.04228
2020/8/18 23:22:00,74.77,-19.443,28383.26669
2020/8/18 23:23:00,74.947,-19.288,28172.53725
2020/8/18 23:24:00,75.129,-19.134,27961.87133
2020/8/18 23:25:00,75.315,-18.98,27751.28668
2020/8/18 23:26:00,75.507,-18.827,27540.80146
2020/8/18 23:27:00,75.703,-18.673,27330.43427
2020/8/18 23:28:00,75.904,-18.52,27120.20414
2020/8/18 23:29:00,76.11,-18.366,26910.13058
2020/8/18 23:30:00,76.322,-18.214,26700.23355
2020/8/18 23:31:00,76.539,-18.061,26490.53351
2020/8/18 23:32:00,76.761,-17.908,26281.05142
2020/8/18 23:33:00,76.989,-17.756,26071.80876
2020/8/18 23:34:00,77.222,-17.604,25862.82757
2020/8/18 23:35:00,77.462,-17.453,25654.13042
2020/8/18 23:36:00,77.707,-17.301,25445.7405
2020/8/18 23:37:00,77.958,-17.15,25237.68154
2020/8/18 23:38:00,78.215,-17,25029.97796
2020/8/18 23:39:00,78.478,-16.849,24822.65476
2020/8/18 23:40:00,78.747,-16.699,24615.73765
2020/8/18 23:41:00,79.024,-16.55,24409.25299
2020/8/18 23:42:00,79.306,-16.401,24203.22789
2020/8/18 23:43:00,79.596,-16.252,23997.69014
2020/8/18 23:44:00,79.892,-16.104,23792.66833
2020/8/18 23:45:00,80.195,-15.956,23588.19182
2020/8/18 23:46:00,80.506,-15.808,23384.29078
2020/8/18 23:47:00,80.824,-15.661,23180.99624
2020/8/18 23:48:00,81.149,-15.515,22978.34006
2020/8/18 23:49:00,81.482,-15.369,22776.35501
2020/8/18 23:50:00,81.823,-15.224,22575.07481
2020/8/18 23:51:00,82.171,-15.079,22374.53409
2020/8/18 23:52:00,82.528,-14.935,22174.76849
2020/8/18 23:53:00,82.894,-14.791,21975.81466
2020/8/18 23:54:00,83.267,-14.648,21777.71032
2020/8/18 23:55:00,83.65,-14.506,21580.49425
2020/8/18 23:56:00,84.041,-14.364,21384.20635
2020/8/18 23:57:00,84.441,-14.224,21188.88764
2020/8/18 23:58:00,84.851,-14.083,20994.58038
2020/8/18 23:59:00,85.269,-13.944,20801.32802
2020/8/19 0:00:00,85.698,-13.806,20609.17522
2020/8/19 0:01:00,86.136,-13.668,20418.168
2020/8/19 0:02:00,86.585,-13.531,20228.35363
2020/8/19 0:03:00,87.043,-13.395,20039.78079
2020/8/19 0:04:00,87.512,-13.26,19852.49949
2020/8/19 0:05:00,87.992,-13.126,19666.56123
2020/8/19 0:06:00,88.482,-12.993,19482.0189
2020/8/19 0:07:00,88.984,-12.861,19298.92691
2020/8/19 0:08:00,89.497,-12.73,19117.34115
2020/8/19 0:09:00,90.021,-12.6,18937.31911
2020/8/19 0:10:00,90.557,-12.472,18758.91978
2020/8/19 0:11:00,91.105,-12.344,18582.2038
2020/8/19 0:12:00,91.665,-12.218,18407.23339
2020/8/19 0:13:00,92.237,-12.093,18234.07241
2020/8/19 0:14:00,92.822,-11.97,18062.7864
2020/8/19 0:15:00,93.42,-11.847,17893.4425
2020/8/19 0:16:00,94.03,-11.727,17726.10941
2020/8/19 0:17:00,94.654,-11.607,17560.85794
2020/8/19 0:18:00,95.291,-11.489,17397.76014
2020/8/19 0:19:00,95.941,-11.373,17236.88979
2020/8/19 0:20:00,96.606,-11.258,17078.32238
2020/8/19 0:21:00,97.284,-11.146,16922.135
2020/8/19 0:22:00,97.976,-11.034,16768.40629
2020/8/19 0:23:00,98.683,-10.925,16617.21647
2020/8/19 0:24:00,99.403,-10.817,16468.64722
2020/8/19 0:25:00,100.138,-10.712,16322.78166
2020/8/19 0:26:00,100.888,-10.608,16179.70428
2020/8/19 0:27:00,101.652,-10.506,16039.50082
2020/8/19 0:28:00,102.432,-10.407,15902.25802
2020/8/19 0:29:00,103.225,-10.309,15768.06424
2020/8/19 0:30:00,104.034,-10.214,15637.00822
2020/8/19 0:31:00,104.857,-10.121,15509.17971
2020/8/19 0:32:00,105.696,-10.031,15384.66911
2020/8/19 0:33:00,106.549,-9.943,15263.56729
2020/8/19 0:34:00,107.416,-9.857,15145.96545
2020/8/19 0:35:00,108.299,-9.774,15031.95487
2020/8/19 0:36:00,109.196,-9.693,14921.62676
2020/8/19 0:37:00,110.107,-9.616,14815.07181
2020/8/19 0:38:00,111.032,-9.541,14712.38057
2020/8/19 0:39:00,111.971,-9.469,14613.64233
2020/8/19 0:40:00,112.923,-9.399,14518.94544
2020/8/19 0:41:00,113.889,-9.333,14428.37682
2020/8/19 0:42:00,114.868,-9.27,14342.02172
2020/8/19 0:43:00,115.86,-9.21,14259.96337
2020/8/19 0:44:00,116.863,-9.153,14182.2828
2020/8/19 0:45:00,117.879,-9.099,14109.05814
2020/8/19 0:46:00,118.905,-9.049,14040.36515
2020/8/19 0:47:00,119.942,-9.002,13976.27578
2020/8/19 0:48:00,120.989,-8.958,13916.85868
2020/8/19 0:49:00,122.046,-8.918,13862.17851
2020/8/19 0:50:00,123.112,-8.881,13812.29576
2020/8/19 0:51:00,124.185,-8.848,13767.26654
2020/8/19 0:52:00,125.266,-8.818,13727.1419
2020/8/19 0:53:00,126.354,-8.792,13691.96839
2020/8/19 0:54:00,127.448,-8.77,13661.78687
2020/8/19 0:55:00,128.547,-8.751,13636.63285
2020/8/19 0:56:00,129.65,-8.736,13616.53617
2020/8/19 0:57:00,130.756,-8.725,13601.5208
2020/8/19 0:58:00,131.865,-8.717,13591.60468
2020/8/19 0:59:00,132.976,-8.714,13586.8
2020/8/19 1:00:00,134.088,-8.714,13587.11248
2020/8/19 1:01:00,135.2,-8.717,13592.5418
2020/8/19 1:02:00,136.311,-8.725,13603.08145
2020/8/19 1:03:00,137.421,-8.736,13618.71879
2020/8/19 1:04:00,138.528,-8.751,13639.43507
2020/8/19 1:05:00,139.632,-8.77,13665.20577
2020/8/19 1:06:00,140.731,-8.792,13696.00043
2020/8/19 1:07:00,141.826,-8.818,13731.78287
2020/8/19 1:08:00,142.915,-8.848,13772.51155
2020/8/19 1:09:00,143.998,-8.881,13818.13966
2020/8/19 1:10:00,145.073,-8.917,13868.61541
2020/8/19 1:11:00,146.141,-8.958,13923.8822
2020/8/19 1:12:00,147.201,-9.001,13983.8792
