sat/sr2-dc1.csv

Time (UTCG),Azimuth (deg),Elevation (deg),Range (km)
2020/8/18 4:00:00,174.644,7.126,40918.92036
2020/8/18 4:01:00,174.666,7.314,40898.78667
2020/8/18 4:02:00,174.689,7.503,40878.61758
2020/8/18 4:03:00,174.713,7.692,40858.41394
2020/8/18 4:04:00,174.738,7.881,40838.17661
2020/8/18 4:05:00,174.764,8.071,40817.90644
2020/8/18 4:06:00,174.791,8.262,40797.60429
2020/8/18 4:07:00,174.819,8.453,40777.27103
2020/8/18 4:08:00,174.847,8.644,40756.90751
2020/8/18 4:09:00,174.877,8.836,40736.51459
2020/8/18 4:10:00,174.908,9.028,40716.09313
2020/8/18 4:11:00,174.939,9.221,40695.644
2020/8/18 4:12:00,174.972,9.415,40675.16806
2020/8/18 4:13:00,175.005,9.608,40654.66617
2020/8/18 4:14:00,175.039,9.802,40634.13919
2020/8/18 4:15:00,175.075,9.997,40613.58798
2020/8/18 4:16:00,175.111,10.192,40593.01342
2020/8/18 4:17:00,175.148,10.388,40572.41635
2020/8/18 4:18:00,175.186,10.583,40551.79766
2020/8/18 4:19:00,175.225,10.78,40531.15819
2020/8/18 4:20:00,175.265,10.976,40510.49882
2020/8/18 4:21:00,175.306,11.174,40489.82041
2020/8/18 4:22:00,175.348,11.371,40469.12382
2020/8/18 4:23:00,175.391,11.569,40448.40992
2020/8/18 4:24:00,175.435,11.767,40427.67957
2020/8/18 4:25:00,175.479,11.966,40406.93364
2020/8/18 4:26:00,175.525,12.165,40386.17298
2020/8/18 4:27:00,175.572,12.365,40365.39847
2020/8/18 4:28:00,175.619,12.565,40344.61096
2020/8/18 4:29:00,175.668,12.765,40323.81132
2020/8/18 4:30:00,175.717,12.965,40303.00042
2020/8/18 4:31:00,175.768,13.166,40282.1791
2020/8/18 4:32:00,175.819,13.368,40261.34823
2020/8/18 4:33:00,175.872,13.569,40240.50868
2020/8/18 4:34:00,175.925,13.771,40219.6613
2020/8/18 4:35:00,175.979,13.974,40198.80696
2020/8/18 4:36:00,176.035,14.177,40177.94651
2020/8/18 4:37:00,176.091,14.38,40157.0808
2020/8/18 4:38:00,176.148,14.583,40136.2107
2020/8/18 4:39:00,176.206,14.787,40115.33707
2020/8/18 4:40:00,176.266,14.991,40094.46075
2020/8/18 4:41:00,176.326,15.195,40073.5826
2020/8/18 4:42:00,176.387,15.4,40052.70348
2020/8/18 4:43:00,176.449,15.605,40031.82423
2020/8/18 4:44:00,176.512,15.81,40010.94571
2020/8/18 4:45:00,176.576,16.016,39990.06876
2020/8/18 4:46:00,176.641,16.222,39969.19424
2020/8/18 4:47:00,176.707,16.428,39948.32299
2020/8/18 4:48:00,176.775,16.634,39927.45586
2020/8/18 4:49:00,176.843,16.841,39906.59368
2020/8/18 4:50:00,176.912,17.048,39885.73731
2020/8/18 4:51:00,176.982,17.255,39864.88759
2020/8/18 4:52:00,177.053,17.463,39844.04535
2020/8/18 4:53:00,177.125,17.671,39823.21142
2020/8/18 4:54:00,177.198,17.879,39802.38666
2020/8/18 4:55:00,177.272,18.087,39781.57189
2020/8/18 4:56:00,177.347,18.295,39760.76794
2020/8/18 4:57:00,177.423,18.504,39739.97565
2020/8/18 4:58:00,177.5,18.713,39719.19583
2020/8/18 4:59:00,177.578,18.923,39698.42933
2020/8/18 5:00:00,177.657,19.132,39677.67696
2020/8/18 5:01:00,177.737,19.342,39656.93955
2020/8/18 5:02:00,177.818,19.552,39636.21792
2020/8/18 5:03:00,177.9,19.762,39615.51288
2020/8/18 5:04:00,177.984,19.972,39594.82525
2020/8/18 5:05:00,178.068,20.183,39574.15585
2020/8/18 5:06:00,178.153,20.394,39553.50549
2020/8/18 5:07:00,178.239,20.605,39532.87496
2020/8/18 5:08:00,178.326,20.816,39512.26509
2020/8/18 5:09:00,178.415,21.027,39491.67668
2020/8/18 5:10:00,178.504,21.239,39471.11052
2020/8/18 5:11:00,178.595,21.451,39450.56742
2020/8/18 5:12:00,178.686,21.663,39430.04816
2020/8/18 5:13:00,178.778,21.875,39409.55355
2020/8/18 5:14:00,178.872,22.087,39389.08438
2020/8/18 5:15:00,178.967,22.299,39368.64142
2020/8/18 5:16:00,179.062,22.512,39348.22547
2020/8/18 5:17:00,179.159,22.725,39327.83731
2020/8/18 5:18:00,179.257,22.937,39307.47772
2020/8/18 5:19:00,179.355,23.15,39287.14747
2020/8/18 5:20:00,179.455,23.363,39266.84733
2020/8/18 5:21:00,179.556,23.577,39246.57808
2020/8/18 5:22:00,179.658,23.79,39226.34047
2020/8/18 5:23:00,179.761,24.004,39206.13528
2020/8/18 5:24:00,179.866,24.217,39185.96326
2020/8/18 5:25:00,179.971,24.431,39165.82517
2020/8/18 5:26:00,180.077,24.645,39145.72176
2020/8/18 5:27:00,180.185,24.859,39125.65378
2020/8/18 5:28:00,180.293,25.073,39105.62197
2020/8/18 5:29:00,180.403,25.287,39085.62708
2020/8/18 5:30:00,180.514,25.501,39065.66985
2020/8/18 5:31:00,180.625,25.715,39045.751
2020/8/18 5:32:00,180.738,25.93,39025.87128
2020/8/18 5:33:00,180.852,26.144,39006.0314
2020/8/18 5:34:00,180.968,26.359,38986.23209
2020/8/18 5:35:00,181.084,26.573,38966.47407
2020/8/18 5:36:00,181.201,26.788,38946.75806
2020/8/18 5:37:00,181.32,27.002,38927.08477
2020/8/18 5:38:00,181.439,27.217,38907.45489
2020/8/18 5:39:00,181.56,27.432,38887.86915
2020/8/18 5:40:00,181.682,27.647,38868.32823
2020/8/18 5:41:00,181.805,27.862,38848.83282
2020/8/18 5:42:00,181.929,28.076,38829.38363
2020/8/18 5:43:00,182.055,28.291,38809.98134
2020/8/18 5:44:00,182.181,28.506,38790.62662
2020/8/18 5:45:00,182.309,28.721,38771.32016
2020/8/18 5:46:00,182.438,28.936,38752.06263
2020/8/18 5:47:00,182.568,29.151,38732.8547
2020/8/18 5:48:00,182.699,29.366,38713.69702
2020/8/18 5:49:00,182.831,29.581,38694.59026
2020/8/18 5:50:00,182.965,29.796,38675.53508
2020/8/18 5:51:00,183.1,30.011,38656.53213
2020/8/18 5:52:00,183.236,30.225,38637.58204
2020/8/18 5:53:00,183.373,30.44,38618.68546
2020/8/18 5:54:00,183.511,30.655,38599.84302
2020/8/18 5:55:00,183.651,30.87,38581.05536
2020/8/18 5:56:00,183.791,31.084,38562.3231
2020/8/18 5:57:00,183.933,31.299,38543.64686
2020/8/18 5:58:00,184.076,31.514,38525.02726
2020/8/18 5:59:00,184.221,31.728,38506.46491
2020/8/18 6:00:00,184.366,31.943,38487.96041
2020/8/18 6:01:00,184.513,32.157,38469.51436
2020/8/18 6:02:00,184.661,32.371,38451.12735
2020/8/18 6:03:00,184.811,32.586,38432.79999
2020/8/18 6:04:00,184.961,32.8,38414.53285
2020/8/18 6:05:00,185.113,33.014,38396.32651
2020/8/18 6:06:00,185.266,33.228,38378.18154
2020/8/18 6:07:00,185.421,33.442,38360.09852
2020/8/18 6:08:00,185.576,33.655,38342.078
2020/8/18 6:09:00,185.733,33.869,38324.12055
2020/8/18 6:10:00,185.891,34.083,38306.22671
2020/8/18 6:11:00,186.051,34.296,38288.39703
2020/8/18 6:12:00,186.212,34.509,38270.63205
2020/8/18 6:13:00,186.374,34.722,38252.93232
2020/8/18 6:14:00,186.537,34.935,38235.29834
2020/8/18 6:15:00,186.702,35.148,38217.73066
2020/8/18 6:16:00,186.868,35.361,38200.22979
2020/8/18 6:17:00,187.036,35.573,38182.79623
2020/8/18 6:18:00,187.204,35.786,38165.4305
2020/8/18 6:19:00,187.374,35.998,38148.1331
2020/8/18 6:20:00,187.546,36.21,38130.90451
2020/8/18 6:21:00,187.718,36.422,38113.74524
2020/8/18 6:22:00,187.893,36.633,38096.65575
2020/8/18 6:23:00,188.068,36.845,38079.63653
2020/8/18 6:24:00,188.245,37.056,38062.68805
2020/8/18 6:25:00,188.423,37.267,38045.81077
2020/8/18 6:26:00,188.603,37.478,38029.00515
2020/8/18 6:27:00,188.784,37.689,38012.27165
2020/8/18 6:28:00,188.966,37.899,37995.61069
2020/8/18 6:29:00,189.15,38.109,37979.02274
2020/8/18 6:30:00,189.335,38.319,37962.50821
2020/8/18 6:31:00,189.522,38.529,37946.06754
2020/8/18 6:32:00,189.71,38.738,37929.70115
2020/8/18 6:33:00,189.9,38.948,37913.40945
2020/8/18 6:34:00,190.091,39.157,37897.19285
2020/8/18 6:35:00,190.283,39.365,37881.05175
2020/8/18 6:36:00,190.477,39.574,37864.98655
2020/8/18 6:37:00,190.672,39.782,37848.99763
2020/8/18 6:38:00,190.869,39.99,37833.08538
2020/8/18 6:39:00,191.067,40.197,37817.25017
2020/8/18 6:40:00,191.267,40.405,37801.49237
2020/8/18 6:41:00,191.468,40.612,37785.81235
2020/8/18 6:42:00,191.671,40.818,37770.21046
2020/8/18 6:43:00,191.875,41.025,37754.68704
2020/8/18 6:44:00,192.081,41.231,37739.24245
2020/8/18 6:45:00,192.289,41.436,37723.87702
2020/8/18 6:46:00,192.498,41.642,37708.59108
2020/8/18 6:47:00,192.708,41.847,37693.38495
2020/8/18 6:48:00,192.92,42.052,37678.25894
2020/8/18 6:49:00,193.134,42.256,37663.21338
2020/8/18 6:50:00,193.349,42.46,37648.24855
2020/8/18 6:51:00,193.565,42.664,37633.36476
2020/8/18 6:52:00,193.784,42.867,37618.56229
2020/8/18 6:53:00,194.004,43.07,37603.84143
2020/8/18 6:54:00,194.225,43.272,37589.20245
2020/8/18 6:55:00,194.448,43.475,37574.64562
2020/8/18 6:56:00,194.673,43.676,37560.17121
2020/8/18 6:57:00,194.899,43.878,37545.77946
2020/8/18 6:58:00,195.127,44.079,37531.47064
2020/8/18 6:59:00,195.357,44.279,37517.24497
2020/8/18 7:00:00,195.588,44.479,37503.10269
2020/8/18 7:01:00,195.821,44.679,37489.04403
2020/8/18 7:02:00,196.056,44.878,37475.06921
2020/8/18 7:03:00,196.292,45.077,37461.17845
2020/8/18 7:04:00,196.53,45.276,37447.37195
2020/8/18 7:05:00,196.77,45.474,37433.64991
2020/8/18 7:06:00,197.011,45.671,37420.01252
2020/8/18 7:07:00,197.254,45.868,37406.45998
2020/8/18 7:08:00,197.499,46.065,37392.99245
2020/8/18 7:09:00,197.746,46.261,37379.61012
2020/8/18 7:10:00,197.994,46.456,37366.31314
2020/8/18 7:11:00,198.245,46.651,37353.10168
2020/8/18 7:12:00,198.496,46.846,37339.97588
2020/8/18 7:13:00,198.75,47.04,37326.93589
2020/8/18 7:14:00,199.006,47.234,37313.98185
2020/8/18 7:15:00,199.263,47.427,37301.11389
2020/8/18 7:16:00,199.522,47.619,37288.33213
2020/8/18 7:17:00,199.783,47.811,37275.63669
2020/8/18 7:18:00,200.045,48.003,37263.02768
2020/8/18 7:19:00,200.31,48.194,37250.50519
2020/8/18 7:20:00,200.576,48.384,37238.06934
2020/8/18 7:21:00,200.845,48.574,37225.72019
2020/8/18 7:22:00,201.115,48.763,37213.45784
2020/8/18 7:23:00,201.387,48.952,37201.28236
2020/8/18 7:24:00,201.661,49.14,37189.19382
2020/8/18 7:25:00,201.936,49.328,37177.19228
2020/8/18 7:26:00,202.214,49.515,37165.27779
2020/8/18 7:27:00,202.493,49.701,37153.45039
2020/8/18 7:28:00,202.775,49.887,37141.71014
2020/8/18 7:29:00,203.058,50.072,37130.05706
2020/8/18 7:30:00,203.344,50.256,37118.49118
2020/8/18 7:31:00,203.631,50.44,37107.01252
2020/8/18 7:32:00,203.92,50.623,37095.62108
2020/8/18 7:33:00,204.211,50.806,37084.31689
2020/8/18 7:34:00,204.505,50.988,37073.09992
2020/8/18 7:35:00,204.8,51.169,37061.97019
2020/8/18 7:36:00,205.097,51.35,37050.92766
2020/8/18 7:37:00,205.396,51.53,37039.97233
2020/8/18 7:38:00,205.697,51.709,37029.10416
2020/8/18 7:39:00,206,51.887,37018.32311
2020/8/18 7:40:00,206.306,52.065,37007.62915
2020/8/18 7:41:00,206.613,52.242,36997.02222
2020/8/18 7:42:00,206.922,52.419,36986.50227
2020/8/18 7:43:00,207.234,52.595,36976.06924
2020/8/18 7:44:00,207.547,52.77,36965.72306
2020/8/18 7:45:00,207.863,52.944,36955.46366
2020/8/18 7:46:00,208.18,53.118,36945.29094
2020/8/18 7:47:00,208.5,53.29,36935.20483
2020/8/18 7:48:00,208.822,53.463,36925.20522
2020/8/18 7:49:00,209.146,53.634,36915.29202
2020/8/18 7:50:00,209.472,53.804,36905.46512
2020/8/18 7:51:00,209.8,53.974,36895.72439
2020/8/18 7:52:00,210.13,54.143,36886.06973
2020/8/18 7:53:00,210.462,54.311,36876.501
2020/8/18 7:54:00,210.797,54.479,36867.01807
2020/8/18 7:55:00,211.134,54.645,36857.6208
2020/8/18 7:56:00,211.473,54.811,36848.30904
2020/8/18 7:57:00,211.814,54.976,36839.08264
2020/8/18 7:58:00,212.157,55.14,36829.94143
2020/8/18 7:59:00,212.502,55.304,36820.88525
2020/8/18 8:00:00,212.85,55.466,36811.91394
2020/8/18 8:01:00,213.2,55.628,36803.0273
2020/8/18 8:02:00,213.551,55.789,36794.22516
2020/8/18 8:03:00,213.906,55.949,36785.50732
2020/8/18 8:04:00,214.262,56.108,36776.8736
2020/8/18 8:05:00,214.621,56.266,36768.32377
2020/8/18 8:06:00,214.981,56.423,36759.85764
2020/8/18 8:07:00,215.344,56.58,36751.475
2020/8/18 8:08:00,215.71,56.735,36743.17561
2020/8/18 8:09:00,216.077,56.89,36734.95925
2020/8/18 8:10:00,216.447,57.044,36726.8257
2020/8/18 8:11:00,216.819,57.197,36718.7747
2020/8/18 8:12:00,217.193,57.349,36710.80602
2020/8/18 8:13:00,217.569,57.5,36702.91941
2020/8/18 8:14:00,217.948,57.65,36695.1146
2020/8/18 8:15:00,218.329,57.799,36687.39134
2020/8/18 8:16:00,218.712,57.947,36679.74936
2020/8/18 8:17:00,219.097,58.094,36672.18839
2020/8/18 8:18:00,219.485,58.241,36664.70814
2020/8/18 8:19:00,219.875,58.386,36657.30834
2020/8/18 8:20:00,220.267,58.53,36649.98869
2020/8/18 8:21:00,220.662,58.674,36642.74889
2020/8/18 8:22:00,221.058,58.816,36635.58866
2020/8/18 8:23:00,221.457,58.957,36628.50767
2020/8/18 8:24:00,221.858,59.098,36621.50563
2020/8/18 8:25:00,222.262,59.237,36614.5822
2020/8/18 8:26:00,222.667,59.376,36607.73708
2020/8/18 8:27:00,223.075,59.513,36600.96993
2020/8/18 8:28:00,223.485,59.649,36594.28043
2020/8/18 8:29:00,223.898,59.785,36587.66822
2020/8/18 8:30:00,224.312,59.919,36581.13298
2020/8/18 8:31:00,224.729,60.052,36574.67435
2020/8/18 8:32:00,225.148,60.184,36568.29199
2020/8/18 8:33:00,225.569,60.315,36561.98553
2020/8/18 8:34:00,225.993,60.445,36555.75461
2020/8/18 8:35:00,226.418,60.575,36549.59887
2020/8/18 8:36:00,226.846,60.702,36543.51793
2020/8/18 8:37:00,227.276,60.829,36537.51142
2020/8/18 8:38:00,227.708,60.955,36531.57896
2020/8/18 8:39:00,228.142,61.08,36525.72016
2020/8/18 8:40:00,228.579,61.204,36519.93464
2020/8/18 8:41:00,229.017,61.326,36514.22199
2020/8/18 8:42:00,229.458,61.448,36508.58182
2020/8/18 8:43:00,229.901,61.568,36503.01372
2020/8/18 8:44:00,230.346,61.687,36497.5173
2020/8/18 8:45:00,230.793,61.806,36492.09212
2020/8/18 8:46:00,231.242,61.923,36486.73779
2020/8/18 8:47:00,231.693,62.039,36481.45388
2020/8/18 8:48:00,232.146,62.153,36476.23997
2020/8/18 8:49:00,232.602,62.267,36471.09562
2020/8/18 8:50:00,233.059,62.38,36466.02041
2020/8/18 8:51:00,233.518,62.491,36461.0139
2020/8/18 8:52:00,233.98,62.601,36456.07564
2020/8/18 8:53:00,234.443,62.711,36451.2052
2020/8/18 8:54:00,234.908,62.819,36446.40213
2020/8/18 8:55:00,235.375,62.926,36441.66598
2020/8/18 8:56:00,235.844,63.031,36436.99629
2020/8/18 8:57:00,236.315,63.136,36432.3926
2020/8/18 8:58:00,236.787,63.24,36427.85445
2020/8/18 8:59:00,237.262,63.342,36423.38138
2020/8/18 9:00:00,237.738,63.443,36418.97292
2020/8/18 9:01:00,238.217,63.543,36414.62859
2020/8/18 9:02:00,238.696,63.642,36410.34792
2020/8/18 9:03:00,239.178,63.74,36406.13043
2020/8/18 9:04:00,239.662,63.836,36401.97564
2020/8/18 9:05:00,240.147,63.932,36397.88306
2020/8/18 9:06:00,240.633,64.026,36393.85221
2020/8/18 9:07:00,241.122,64.119,36389.8826
2020/8/18 9:08:00,241.612,64.211,36385.97372
2020/8/18 9:09:00,242.103,64.302,36382.1251
2020/8/18 9:10:00,242.596,64.392,36378.33622
2020/8/18 9:11:00,243.091,64.48,36374.60658
2020/8/18 9:12:00,243.587,64.568,36370.93568
2020/8/18 9:13:00,244.085,64.654,36367.32301
2020/8/18 9:14:00,244.584,64.739,36363.76807
2020/8/18 9:15:00,245.084,64.823,36360.27033
2020/8/18 9:16:00,245.586,64.906,36356.82929
2020/8/18 9:17:00,246.089,64.987,36353.44442
2020/8/18 9:18:00,246.593,65.068,36350.11521
2020/8/18 9:19:00,247.099,65.147,36346.84114
2020/8/18 9:20:00,247.606,65.225,36343.62169
2020/8/18 9:21:00,248.114,65.302,36340.45631
2020/8/18 9:22:00,248.623,65.378,36337.3445
2020/8/18 9:23:00,249.133,65.453,36334.28571
2020/8/18 9:24:00,249.645,65.527,36331.27943
2020/8/18 9:25:00,250.157,65.599,36328.3251
2020/8/18 9:26:00,250.67,65.67,36325.4222
2020/8/18 9:27:00,251.185,65.741,36322.5702
2020/8/18 9:28:00,251.7,65.81,36319.76854
2020/8/18 9:29:00,252.216,65.878,36317.01669
2020/8/18 9:30:00,252.733,65.945,36314.31412
2020/8/18 9:31:00,253.251,66.011,36311.66027
2020/8/18 9:32:00,253.77,66.076,36309.05461
2020/8/18 9:33:00,254.289,66.139,36306.49657
2020/8/18 9:34:00,254.809,66.202,36303.98563
2020/8/18 9:35:00,255.33,66.264,36301.52122
2020/8/18 9:36:00,255.851,66.324,36299.10281
2020/8/18 9:37:00,256.373,66.383,36296.72983
2020/8/18 9:38:00,256.896,66.442,36294.40174
2020/8/18 9:39:00,257.418,66.499,36292.11799
2020/8/18 9:40:00,257.942,66.555,36289.87801
2020/8/18 9:41:00,258.466,66.611,36287.68126
2020/8/18 9:42:00,258.99,66.665,36285.52719
2020/8/18 9:43:00,259.514,66.718,36283.41522
2020/8/18 9:44:00,260.039,66.77,36281.34482
2020/8/18 9:45:00,260.564,66.821,36279.31541
2020/8/18 9:46:00,261.089,66.872,36277.32645
2020/8/18 9:47:00,261.614,66.921,36275.37738
2020/8/18 9:48:00,262.14,66.969,36273.46763
2020/8/18 9:49:00,262.665,67.016,36271.59665
2020/8/18 9:50:00,263.191,67.062,36269.76388
2020/8/18 9:51:00,263.717,67.108,36267.96876
2020/8/18 9:52:00,264.242,67.152,36266.21073
2020/8/18 9:53:00,264.768,67.196,36264.48923
2020/8/18 9:54:00,265.293,67.238,36262.8037
2020/8/18 9:55:00,265.818,67.28,36261.15358
2020/8/18 9:56:00,266.343,67.321,36259.53832
2020/8/18 9:57:00,266.868,67.361,36257.95735
2020/8/18 9:58:00,267.393,67.4,36256.41012
2020/8/18 9:59:00,267.917,67.438,36254.89606
2020/8/18 10:00:00,268.441,67.475,36253.41462
2020/8/18 10:01:00,268.964,67.511,36251.96524
2020/8/18 10:02:00,269.488,67.547,36250.54736
2020/8/18 10:03:00,270.01,67.582,36249.16043
2020/8/18 10:04:00,270.532,67.616,36247.80389
2020/8/18 10:05:00,271.054,67.649,36246.47719
2020/8/18 10:06:00,271.575,67.681,36245.17976
2020/8/18 10:07:00,272.096,67.713,36243.91106
2020/8/18 10:08:00,272.615,67.743,36242.67054
2020/8/18 10:09:00,273.135,67.774,36241.45763
2020/8/18 10:10:00,273.653,67.803,36240.2718
2020/8/18 10:11:00,274.171,67.831,36239.11248
2020/8/18 10:12:00,274.688,67.859,36237.97914
2020/8/18 10:13:00,275.204,67.887,36236.87121
2020/8/18 10:14:00,275.72,67.913,36235.78816
2020/8/18 10:15:00,276.234,67.939,36234.72945
2020/8/18 10:16:00,276.748,67.964,36233.69451
2020/8/18 10:17:00,277.261,67.989,36232.68282
2020/8/18 10:18:00,277.773,68.012,36231.69383
2020/8/18 10:19:00,278.284,68.036,36230.72701
2020/8/18 10:20:00,278.794,68.058,36229.7818
2020/8/18 10:21:00,279.303,68.08,36228.85769
2020/8/18 10:22:00,279.811,68.102,36227.95412
2020/8/18 10:23:00,280.318,68.123,36227.07057
2020/8/18 10:24:00,280.824,68.143,36226.20651
2020/8/18 10:25:00,281.328,68.163,36225.3614
2020/8/18 10:26:00,281.832,68.182,36224.53473
2020/8/18 10:27:00,282.334,68.201,36223.72595
2020/8/18 10:28:00,282.836,68.219,36222.93456
2020/8/18 10:29:00,283.336,68.237,36222.16001
2020/8/18 10:30:00,283.835,68.254,36221.40181
2020/8/18 10:31:00,284.332,68.271,36220.65943
2020/8/18 10:32:00,284.829,68.287,36219.93235
2020/8/18 10:33:00,285.324,68.303,36219.22006
2020/8/18 10:34:00,285.818,68.319,36218.52205
2020/8/18 10:35:00,286.311,68.334,36217.83781
2020/8/18 10:36:00,286.802,68.348,36217.16683
2020/8/18 10:37:00,287.292,68.363,36216.50862
2020/8/18 10:38:00,287.781,68.377,36215.86266
2020/8/18 10:39:00,288.268,68.39,36215.22847
2020/8/18 10:40:00,288.754,68.404,36214.60554
2020/8/18 10:41:00,289.239,68.417,36213.99338
2020/8/18 10:42:00,289.722,68.429,36213.3915
2020/8/18 10:43:00,290.204,68.441,36212.79942
2020/8/18 10:44:00,290.684,68.453,36212.21665
2020/8/18 10:45:00,291.163,68.465,36211.6427
2020/8/18 10:46:00,291.641,68.477,36211.0771
2020/8/18 10:47:00,292.117,68.488,36210.51937
2020/8/18 10:48:00,292.591,68.499,36209.96903
2020/8/18 10:49:00,293.065,68.51,36209.42563
2020/8/18 10:50:00,293.537,68.52,36208.88868
2020/8/18 10:51:00,294.007,68.531,36208.35773
2020/8/18 10:52:00,294.476,68.541,36207.83231
2020/8/18 10:53:00,294.943,68.551,36207.31198
2020/8/18 10:54:00,295.409,68.561,36206.79626
2020/8/18 10:55:00,295.874,68.571,36206.28472
2020/8/18 10:56:00,296.337,68.58,36205.7769
2020/8/18 10:57:00,296.798,68.59,36205.27237
2020/8/18 10:58:00,297.258,68.599,36204.77067
2020/8/18 10:59:00,297.717,68.608,36204.27138
2020/8/18 11:00:00,298.174,68.618,36203.77406
2020/8/18 11:01:00,298.629,68.627,36203.27828
2020/8/18 11:02:00,299.084,68.636,36202.78361
2020/8/18 11:03:00,299.536,68.645,36202.28964
2020/8/18 11:04:00,299.987,68.654,36201.79593
2020/8/18 11:05:00,300.437,68.663,36201.30208
2020/8/18 11:06:00,300.885,68.672,36200.80768
2020/8/18 11:07:00,301.332,68.681,36200.31232
2020/8/18 11:08:00,301.777,68.69,36199.81558
2020/8/18 11:09:00,302.221,68.699,36199.31709
2020/8/18 11:10:00,302.663,68.708,36198.81643
2020/8/18 11:11:00,303.104,68.717,36198.31322
2020/8/18 11:12:00,303.543,68.726,36197.80707
2020/8/18 11:13:00,303.981,68.736,36197.2976
2020/8/18 11:14:00,304.417,68.745,36196.78442
2020/8/18 11:15:00,304.852,68.754,36196.26717
2020/8/18 11:16:00,305.286,68.764,36195.74546
2020/8/18 11:17:00,305.718,68.774,36195.21894
2020/8/18 11:18:00,306.148,68.783,36194.68723
2020/8/18 11:19:00,306.578,68.793,36194.14999
2020/8/18 11:20:00,307.005,68.803,36193.60686
2020/8/18 11:21:00,307.432,68.814,36193.05748
2020/8/18 11:22:00,307.857,68.824,36192.50152
2020/8/18 11:23:00,308.28,68.835,36191.93863
2020/8/18 11:24:00,308.703,68.845,36191.36848
2020/8/18 11:25:00,309.123,68.856,36190.79073
2020/8/18 11:26:00,309.543,68.868,36190.20506
2020/8/18 11:27:00,309.961,68.879,36189.61114
2020/8/18 11:28:00,310.378,68.891,36189.00866
2020/8/18 11:29:00,310.793,68.903,36188.3973
2020/8/18 11:30:00,311.207,68.915,36187.77675
2020/8/18 11:31:00,311.62,68.927,36187.14672
2020/8/18 11:32:00,312.031,68.94,36186.50689
2020/8/18 11:33:00,312.441,68.953,36185.85698
2020/8/18 11:34:00,312.85,68.966,36185.19669
2020/8/18 11:35:00,313.257,68.979,36184.52574
2020/8/18 11:36:00,313.664,68.993,36183.84385
2020/8/18 11:37:00,314.069,69.007,36183.15075
2020/8/18 11:38:00,314.472,69.022,36182.44616
2020/8/18 11:39:00,314.875,69.036,36181.72982
2020/8/18 11:40:00,315.276,69.052,36181.00146
2020/8/18 11:41:00,315.676,69.067,36180.26084
2020/8/18 11:42:00,316.075,69.083,36179.50769
2020/8/18 11:43:00,316.473,69.099,36178.74179
2020/8/18 11:44:00,316.869,69.116,36177.96287
2020/8/18 11:45:00,317.264,69.132,36177.17072
2020/8/18 11:46:00,317.659,69.15,36176.36509
2020/8/18 11:47:00,318.052,69.167,36175.54576
2020/8/18 11:48:00,318.443,69.186,36174.71252
2020/8/18 11:49:00,318.834,69.204,36173.86515
2020/8/18 11:50:00,319.224,69.223,36173.00343
2020/8/18 11:51:00,319.612,69.242,36172.12716
2020/8/18 11:52:00,320,69.262,36171.23615
2020/8/18 11:53:00,320.386,69.282,36170.33019
2020/8/18 11:54:00,320.772,69.303,36169.40911
2020/8/18 11:55:00,321.156,69.324,36168.4727
2020/8/18 11:56:00,321.539,69.346,36167.52081
2020/8/18 11:57:00,321.922,69.368,36166.55325
2020/8/18 11:58:00,322.303,69.39,36165.56985
2020/8/18 11:59:00,322.683,69.413,36164.57046
2020/8/18 12:00:00,323.063,69.437,36163.55492
2020/8/18 12:01:00,323.441,69.461,36162.52307
2020/8/18 12:02:00,323.819,69.485,36161.47476
2020/8/18 12:03:00,324.195,69.51,36160.40987
2020/8/18 12:04:00,324.571,69.535,36159.32824
2020/8/18 12:05:00,324.946,69.561,36158.22976
2020/8/18 12:06:00,325.319,69.588,36157.1143
2020/8/18 12:07:00,325.692,69.615,36155.98173
2020/8/18 12:08:00,326.065,69.642,36154.83194
2020/8/18 12:09:00,326.436,69.67,36153.66483
2020/8/18 12:10:00,326.807,69.699,36152.4803
2020/8/18 12:11:00,327.176,69.728,36151.27824
2020/8/18 12:12:00,327.545,69.758,36150.05856
2020/8/18 12:13:00,327.914,69.788,36148.82119
2020/8/18 12:14:00,328.281,69.819,36147.56603
2020/8/18 12:15:00,328.648,69.851,36146.29301
2020/8/18 12:16:00,329.014,69.883,36145.00207
2020/8/18 12:17:00,329.379,69.915,36143.69313
2020/8/18 12:18:00,329.744,69.948,36142.36615
2020/8/18 12:19:00,330.108,69.982,36141.02107
2020/8/18 12:20:00,330.471,70.016,36139.65784
2020/8/18 12:21:00,330.834,70.051,36138.27642
2020/8/18 12:22:00,331.196,70.087,36136.87678
2020/8/18 12:23:00,331.558,70.123,36135.45888
2020/8/18 12:24:00,331.919,70.16,36134.0227
2020/8/18 12:25:00,332.279,70.197,36132.56822
2020/8/18 12:26:00,332.639,70.235,36131.09543
2020/8/18 12:27:00,332.998,70.274,36129.60432
2020/8/18 12:28:00,333.357,70.313,36128.09489
2020/8/18 12:29:00,333.715,70.353,36126.56714
2020/8/18 12:30:00,334.073,70.393,36125.02109
2020/8/18 12:31:00,334.431,70.434,36123.45674
2020/8/18 12:32:00,334.788,70.476,36121.87412
2020/8/18 12:33:00,335.144,70.518,36120.27325
2020/8/18 12:34:00,335.501,70.561,36118.65417
2020/8/18 12:35:00,335.856,70.605,36117.01692
2020/8/18 12:36:00,336.212,70.649,36115.36153
2020/8/18 12:37:00,336.567,70.694,36113.68806
2020/8/18 12:38:00,336.922,70.74,36111.99656
2020/8/18 12:39:00,337.277,70.786,36110.2871
2020/8/18 12:40:00,337.631,70.833,36108.55973
2020/8/18 12:41:00,337.985,70.881,36106.81453
2020/8/18 12:42:00,338.339,70.929,36105.05158
2020/8/18 12:43:00,338.693,70.978,36103.27096
2020/8/18 12:44:00,339.046,71.028,36101.47276
2020/8/18 12:45:00,339.4,71.078,36099.65707
2020/8/18 12:46:00,339.753,71.129,36097.824
2020/8/18 12:47:00,340.106,71.181,36095.97364
2020/8/18 12:48:00,340.459,71.233,36094.10612
2020/8/18 12:49:00,340.812,71.286,36092.22154
2020/8/18 12:50:00,341.165,71.34,36090.32003
2020/8/18 12:51:00,341.518,71.395,36088.40172
2020/8/18 12:52:00,341.871,71.45,36086.46675
2020/8/18 12:53:00,342.224,71.505,36084.51524
2020/8/18 12:54:00,342.577,71.562,36082.54735
2020/8/18 12:55:00,342.93,71.619,36080.56323
2020/8/18 12:56:00,343.284,71.677,36078.56303
2020/8/18 12:57:00,343.637,71.736,36076.54691
2020/8/18 12:58:00,343.991,71.795,36074.51505
2020/8/18 12:59:00,344.345,71.855,36072.46761
2020/8/18 13:00:00,344.699,71.916,36070.40477
2020/8/18 13:01:00,345.053,71.977,36068.32672
2020/8/18 13:02:00,345.408,72.039,36066.23365
2020/8/18 13:03:00,345.763,72.102,36064.12575
2020/8/18 13:04:00,346.118,72.165,36062.00321
2020/8/18 13:05:00,346.474,72.229,36059.86626
2020/8/18 13:06:00,346.83,72.294,36057.71509
2020/8/18 13:07:00,347.186,72.36,36055.54992
2020/8/18 13:08:00,347.543,72.426,36053.37099
2020/8/18 13:09:00,347.901,72.493,36051.1785
2020/8/18 13:10:00,348.259,72.561,36048.97271
2020/8/18 13:11:00,348.618,72.629,36046.75384
2020/8/18 13:12:00,348.977,72.699,36044.52213
2020/8/18 13:13:00,349.337,72.768,36042.27785
2020/8/18 13:14:00,349.698,72.839,36040.02123
2020/8/18 13:15:00,350.06,72.91,36037.75255
2020/8/18 13:16:00,350.422,72.982,36035.47206
2020/8/18 13:17:00,350.785,73.055,36033.18004
2020/8/18 13:18:00,351.149,73.128,36030.87676
2020/8/18 13:19:00,351.514,73.202,36028.56251
2020/8/18 13:20:00,351.88,73.277,36026.23756
2020/8/18 13:21:00,352.247,73.352,36023.90221
2020/8/18 13:22:00,352.615,73.429,36021.55675
2020/8/18 13:23:00,352.984,73.505,36019.20149
2020/8/18 13:24:00,353.354,73.583,36016.83673
2020/8/18 13:25:00,353.725,73.661,36014.46278
2020/8/18 13:26:00,354.098,73.74,36012.07997
2020/8/18 13:27:00,354.472,73.82,36009.6886
2020/8/18 13:28:00,354.847,73.9,36007.28902
2020/8/18 13:29:00,355.224,73.981,36004.88154
2020/8/18 13:30:00,355.602,74.063,36002.46651
2020/8/18 13:31:00,355.981,74.145,36000.04427
2020/8/18 13:32:00,356.362,74.228,35997.61516
2020/8/18 13:33:00,356.745,74.312,35995.17953
2020/8/18 13:34:00,357.13,74.396,35992.73775
2020/8/18 13:35:00,357.516,74.481,35990.29017
2020/8/18 13:36:00,357.904,74.567,35987.83715
2020/8/18 13:37:00,358.295,74.653,35985.37908
2020/8/18 13:38:00,358.687,74.74,35982.91632
2020/8/18 13:39:00,359.081,74.828,35980.44925
2020/8/18 13:40:00,359.477,74.917,35977.97825
2020/8/18 13:41:00,359.876,75.006,35975.50373
2020/8/18 13:42:00,0.276,75.095,35973.02606
2020/8/18 13:43:00,0.68,75.186,35970.54566
2020/8/18 13:44:00,1.085,75.276,35968.06291
2020/8/18 13:45:00,1.493,75.368,35965.57824
2020/8/18 13:46:00,1.904,75.46,35963.09205
2020/8/18 13:47:00,2.318,75.553,35960.60475
2020/8/18 13:48:00,2.734,75.646,35958.11678
2020/8/18 13:49:00,3.153,75.74,35955.62855
2020/8/18 13:50:00,3.576,75.835,35953.14049
2020/8/18 13:51:00,4.001,75.93,35950.65304
2020/8/18 13:52:00,4.43,76.026,35948.16664
2020/8/18 13:53:00,4.862,76.122,35945.68172
2020/8/18 13:54:00,5.297,76.219,35943.19874
2020/8/18 13:55:00,5.737,76.317,35940.71815
2020/8/18 13:56:00,6.179,76.415,35938.24039
2020/8/18 13:57:00,6.626,76.514,35935.76594
2020/8/18 13:58:00,7.077,76.613,35933.29525
2020/8/18 13:59:00,7.532,76.713,35930.82879
2020/8/18 14:00:00,7.991,76.813,35928.36702
2020/8/18 14:01:00,8.455,76.914,35925.91044
2020/8/18 14:02:00,8.923,77.015,35923.45951
2020/8/18 14:03:00,9.396,77.117,35921.01471
2020/8/18 14:04:00,9.874,77.219,35918.57654
2020/8/18 14:05:00,10.357,77.322,35916.14548
2020/8/18 14:06:00,10.845,77.425,35913.72203
2020/8/18 14:07:00,11.339,77.528,35911.30669
2020/8/18 14:08:00,11.838,77.633,35908.89995
2020/8/18 14:09:00,12.343,77.737,35906.50232
2020/8/18 14:10:00,12.854,77.842,35904.11431
2020/8/18 14:11:00,13.372,77.947,35901.73644
2020/8/18 14:12:00,13.896,78.053,35899.36921
2020/8/18 14:13:00,14.426,78.159,35897.01315
2020/8/18 14:14:00,14.964,78.265,35894.66877
2020/8/18 14:15:00,15.509,78.372,35892.33661
2020/8/18 14:16:00,16.061,78.479,35890.01719
2020/8/18 14:17:00,16.621,78.586,35887.71104
2020/8/18 14:18:00,17.19,78.694,35885.4187
2020/8/18 14:19:00,17.766,78.801,35883.14071
2020/8/18 14:20:00,18.351,78.909,35880.87761
2020/8/18 14:21:00,18.945,79.018,35878.62994
2020/8/18 14:22:00,19.548,79.126,35876.39825
2020/8/18 14:23:00,20.161,79.234,35874.18309
2020/8/18 14:24:00,20.784,79.343,35871.98501
2020/8/18 14:25:00,21.417,79.452,35869.80457
2020/8/18 14:26:00,22.061,79.561,35867.64232
2020/8/18 14:27:00,22.715,79.67,35865.49884
2020/8/18 14:28:00,23.382,79.778,35863.37468
2020/8/18 14:29:00,24.06,79.887,35861.2704
2020/8/18 14:30:00,24.75,79.996,35859.18659
2020/8/18 14:31:00,25.453,80.105,35857.1238
2020/8/18 14:32:00,26.17,80.213,35855.08262
2020/8/18 14:33:00,26.9,80.322,35853.06362
2020/8/18 14:34:00,27.645,80.43,35851.06738
2020/8/18 14:35:00,28.404,80.538,35849.09448
2020/8/18 14:36:00,29.178,80.645,35847.14551
2020/8/18 14:37:00,29.968,80.752,35845.22104
2020/8/18 14:38:00,30.775,80.859,35843.32167
2020/8/18 14:39:00,31.599,80.966,35841.44799
2020/8/18 14:40:00,32.44,81.071,35839.60059
2020/8/18 14:41:00,33.299,81.177,35837.78006
2020/8/18 14:42:00,34.177,81.281,35835.98699
2020/8/18 14:43:00,35.075,81.385,35834.222
2020/8/18 14:44:00,35.993,81.488,35832.48566
2020/8/18 14:45:00,36.931,81.59,35830.7786
2020/8/18 14:46:00,37.891,81.692,35829.1014
2020/8/18 14:47:00,38.873,81.792,35827.45467
2020/8/18 14:48:00,39.878,81.891,35825.83902
2020/8/18 14:49:00,40.906,81.99,35824.25506
2020/8/18 14:50:00,41.959,82.086,35822.70339
2020/8/18 14:51:00,43.036,82.182,35821.18462
2020/8/18 14:52:00,44.139,82.276,35819.69937
2020/8/18 14:53:00,45.268,82.368,35818.24825
2020/8/18 14:54:00,46.424,82.459,35816.83187
2020/8/18 14:55:00,47.608,82.548,35815.45084
2020/8/18 14:56:00,48.819,82.636,35814.10579
2020/8/18 14:57:00,50.059,82.721,35812.79732
2020/8/18 14:58:00,51.328,82.804,35811.52606
2020/8/18 14:59:00,52.627,82.885,35810.29263
2020/8/18 15:00:00,53.955,82.963,35809.09764
2020/8/18 15:01:00,55.314,83.039,35807.94171
2020/8/18 15:02:00,56.703,83.113,35806.82547
2020/8/18 15:03:00,58.122,83.183,35805.74954
2020/8/18 15:04:00,59.572,83.251,35804.71453
2020/8/18 15:05:00,61.052,83.316,35803.72108
2020/8/18 15:06:00,62.562,83.377,35802.7698
2020/8/18 15:07:00,64.101,83.435,35801.86132
2020/8/18 15:08:00,65.669,83.49,35800.99626
2020/8/18 15:09:00,67.266,83.54,35800.17524
2020/8/18 15:10:00,68.889,83.587,35799.39889
2020/8/18 15:11:00,70.539,83.631,35798.66784
2020/8/18 15:12:00,72.214,83.67,35797.9827
2020/8/18 15:13:00,73.912,83.704,35797.3441
2020/8/18 15:14:00,75.631,83.735,35796.75266
2020/8/18 15:15:00,77.371,83.761,35796.20901
2020/8/18 15:16:00,79.128,83.782,35795.71377
2020/8/18 15:17:00,80.901,83.799,35795.26757
2020/8/18 15:18:00,82.688,83.811,35794.87102
2020/8/18 15:19:00,84.485,83.818,35794.52475
2020/8/18 15:20:00,86.291,83.82,35794.22938
2020/8/18 15:21:00,88.102,83.817,35793.98553
2020/8/18 15:22:00,89.916,83.809,35793.79383
2020/8/18 15:23:00,91.731,83.796,35793.65489
2020/8/18 15:24:00,93.543,83.777,35793.56932
2020/8/18 15:25:00,95.35,83.754,35793.53776
2020/8/18 15:26:00,97.149,83.725,35793.56081
2020/8/18 15:27:00,98.938,83.692,35793.63909
2020/8/18 15:28:00,100.713,83.653,35793.77322
2020/8/18 15:29:00,102.473,83.609,35793.96382
2020/8/18 15:30:00,104.216,83.56,35794.21148
2020/8/18 15:31:00,105.938,83.506,35794.51683
2020/8/18 15:32:00,107.639,83.447,35794.88048
2020/8/18 15:33:00,109.316,83.383,35795.30303
2020/8/18 15:34:00,110.969,83.314,35795.7851
2020/8/18 15:35:00,112.594,83.241,35796.32728
2020/8/18 15:36:00,114.192,83.163,35796.93018
2020/8/18 15:37:00,115.762,83.081,35797.59441
2020/8/18 15:38:00,117.301,82.994,35798.32056
2020/8/18 15:39:00,118.811,82.903,35799.10923
2020/8/18 15:40:00,120.289,82.808,35799.96103
2020/8/18 15:41:00,121.737,82.709,35800.87654
2020/8/18 15:42:00,123.153,82.606,35801.85636
2020/8/18 15:43:00,124.537,82.499,35802.90107
2020/8/18 15:44:00,125.89,82.389,35804.01128
2020/8/18 15:45:00,127.212,82.275,35805.18756
2020/8/18 15:46:00,128.502,82.157,35806.4305
2020/8/18 15:47:00,129.762,82.036,35807.74068
2020/8/18 15:48:00,130.991,81.912,35809.11869
2020/8/18 15:49:00,132.191,81.785,35810.56508
2020/8/18 15:50:00,133.36,81.655,35812.08045
2020/8/18 15:51:00,134.501,81.521,35813.66537
2020/8/18 15:52:00,135.614,81.385,35815.32039
2020/8/18 15:53:00,136.699,81.246,35817.04609
2020/8/18 15:54:00,137.757,81.105,35818.84304
2020/8/18 15:55:00,138.788,80.96,35820.71178
2020/8/18 15:56:00,139.794,80.814,35822.65288
2020/8/18 15:57:00,140.774,80.665,35824.6669
2020/8/18 15:58:00,141.731,80.513,35826.75438
2020/8/18 15:59:00,142.663,80.36,35828.91588
2020/8/18 16:00:00,143.573,80.204,35831.15193
2020/8/18 16:01:00,144.461,80.046,35833.46308
2020/8/18 16:02:00,145.326,79.886,35835.84987
2020/8/18 16:03:00,146.171,79.724,35838.31282
2020/8/18 16:04:00,146.996,79.56,35840.85249
2020/8/18 16:05:00,147.801,79.394,35843.46938
2020/8/18 16:06:00,148.587,79.226,35846.16402
2020/8/18 16:07:00,149.354,79.057,35848.93694
2020/8/18 16:08:00,150.104,78.885,35851.78865
2020/8/18 16:09:00,150.836,78.713,35854.71966
2020/8/18 16:10:00,151.551,78.538,35857.73048
2020/8/18 16:11:00,152.251,78.362,35860.82162
2020/8/18 16:12:00,152.934,78.185,35863.99357
2020/8/18 16:13:00,153.603,78.006,35867.24683
2020/8/18 16:14:00,154.257,77.825,35870.5819
2020/8/18 16:15:00,154.896,77.643,35873.99927
2020/8/18 16:16:00,155.522,77.46,35877.4994
2020/8/18 16:17:00,156.135,77.276,35881.0828
2020/8/18 16:18:00,156.735,77.09,35884.74992
2020/8/18 16:19:00,157.322,76.903,35888.50125
2020/8/18 16:20:00,157.897,76.714,35892.33724
2020/8/18 16:21:00,158.461,76.525,35896.25836
2020/8/18 16:22:00,159.013,76.334,35900.26506
2020/8/18 16:23:00,159.555,76.142,35904.3578
2020/8/18 16:24:00,160.085,75.949,35908.53703
2020/8/18 16:25:00,160.606,75.755,35912.80318
2020/8/18 16:26:00,161.117,75.56,35917.15669
2020/8/18 16:27:00,161.617,75.363,35921.59799
2020/8/18 16:28:00,162.109,75.166,35926.12752
2020/8/18 16:29:00,162.592,74.968,35930.7457
2020/8/18 16:30:00,163.065,74.768,35935.45293
2020/8/18 16:31:00,163.53,74.568,35940.24964
2020/8/18 16:32:00,163.987,74.367,35945.13622
2020/8/18 16:33:00,164.436,74.165,35950.11309
2020/8/18 16:34:00,164.877,73.962,35955.18064
2020/8/18 16:35:00,165.311,73.758,35960.33925
2020/8/18 16:36:00,165.737,73.553,35965.58931
2020/8/18 16:37:00,166.156,73.348,35970.93121
2020/8/18 16:38:00,166.568,73.141,35976.36531
2020/8/18 16:39:00,166.973,72.934,35981.89198
2020/8/18 16:40:00,167.372,72.726,35987.51159
2020/8/18 16:41:00,167.764,72.517,35993.22449
2020/8/18 16:42:00,168.15,72.307,35999.03104
2020/8/18 16:43:00,168.53,72.097,36004.93158
2020/8/18 16:44:00,168.904,71.886,36010.92644
2020/8/18 16:45:00,169.273,71.674,36017.01597
2020/8/18 16:46:00,169.636,71.461,36023.20048
2020/8/18 16:47:00,169.993,71.248,36029.4803
2020/8/18 16:48:00,170.345,71.033,36035.85575
2020/8/18 16:49:00,170.692,70.819,36042.32713
2020/8/18 16:50:00,171.034,70.603,36048.89475
2020/8/18 16:51:00,171.372,70.387,36055.5589
2020/8/18 16:52:00,171.704,70.17,36062.31988
2020/8/18 16:53:00,172.032,69.953,36069.17796
2020/8/18 16:54:00,172.355,69.735,36076.13343
2020/8/18 16:55:00,172.674,69.516,36083.18655
2020/8/18 16:56:00,172.988,69.297,36090.33759
2020/8/18 16:57:00,173.298,69.077,36097.58682
2020/8/18 16:58:00,173.604,68.857,36104.93447
2020/8/18 16:59:00,173.906,68.636,36112.3808
2020/8/18 17:00:00,174.204,68.414,36119.92604
2020/8/18 17:01:00,174.499,68.192,36127.57043
2020/8/18 17:02:00,174.789,67.969,36135.31419
2020/8/18 17:03:00,175.076,67.746,36143.15754
2020/8/18 17:04:00,175.359,67.522,36151.10069
2020/8/18 17:05:00,175.639,67.298,36159.14385
2020/8/18 17:06:00,175.915,67.073,36167.28721
2020/8/18 17:07:00,176.188,66.847,36175.53096
2020/8/18 17:08:00,176.458,66.621,36183.87529
2020/8/18 17:09:00,176.724,66.395,36192.32038
2020/8/18 17:10:00,176.987,66.168,36200.8664
2020/8/18 17:11:00,177.247,65.941,36209.5135
2020/8/18 17:12:00,177.504,65.713,36218.26185
2020/8/18 17:13:00,177.759,65.484,36227.1116
2020/8/18 17:14:00,178.01,65.255,36236.06288
2020/8/18 17:15:00,178.258,65.026,36245.11583
2020/8/18 17:16:00,178.504,64.797,36254.27058
2020/8/18 17:17:00,178.747,64.566,36263.52726
2020/8/18 17:18:00,178.987,64.336,36272.88596
2020/8/18 17:19:00,179.224,64.105,36282.3468
2020/8/18 17:20:00,179.459,63.873,36291.90988
2020/8/18 17:21:00,179.691,63.641,36301.57529
2020/8/18 17:22:00,179.921,63.409,36311.34311
2020/8/18 17:23:00,180.149,63.177,36321.21342
2020/8/18 17:24:00,180.374,62.944,36331.1863
2020/8/18 17:25:00,180.596,62.71,36341.26179
2020/8/18 17:26:00,180.817,62.476,36351.43996
2020/8/18 17:27:00,181.035,62.242,36361.72085
2020/8/18 17:28:00,181.25,62.008,36372.1045
2020/8/18 17:29:00,181.464,61.773,36382.59095
2020/8/18 17:30:00,181.675,61.537,36393.18022
2020/8/18 17:31:00,181.885,61.302,36403.87233
2020/8/18 17:32:00,182.092,61.066,36414.66729
2020/8/18 17:33:00,182.297,60.829,36425.56509
2020/8/18 17:34:00,182.5,60.593,36436.56574
2020/8/18 17:35:00,182.701,60.356,36447.66921
2020/8/18 17:36:00,182.9,60.118,36458.8755
2020/8/18 17:37:00,183.097,59.881,36470.18458
2020/8/18 17:38:00,183.293,59.643,36481.5964
2020/8/18 17:39:00,183.486,59.405,36493.11092
2020/8/18 17:40:00,183.677,59.166,36504.7281
2020/8/18 17:41:00,183.867,58.927,36516.44787
2020/8/18 17:42:00,184.055,58.688,36528.27017
2020/8/18 17:43:00,184.241,58.449,36540.19493
2020/8/18 17:44:00,184.426,58.209,36552.22207
2020/8/18 17:45:00,184.608,57.969,36564.35149
2020/8/18 17:46:00,184.789,57.729,36576.5831
2020/8/18 17:47:00,184.968,57.488,36588.91679
2020/8/18 17:48:00,185.146,57.248,36601.35246
2020/8/18 17:49:00,185.322,57.007,36613.88998
2020/8/18 17:50:00,185.496,56.765,36626.52923
2020/8/18 17:51:00,185.669,56.524,36639.27007
2020/8/18 17:52:00,185.84,56.282,36652.11236
2020/8/18 17:53:00,186.01,56.04,36665.05595
2020/8/18 17:54:00,186.178,55.798,36678.10069
2020/8/18 17:55:00,186.345,55.556,36691.2464
2020/8/18 17:56:00,186.51,55.313,36704.49291
2020/8/18 17:57:00,186.674,55.07,36717.84005
2020/8/18 17:58:00,186.836,54.827,36731.28763
2020/8/18 17:59:00,186.997,54.584,36744.83544
2020/8/18 18:00:00,187.156,54.341,36758.48329
2020/8/18 18:01:00,187.314,54.097,36772.23097
2020/8/18 18:02:00,187.471,53.853,36786.07825
2020/8/18 18:03:00,187.626,53.609,36800.02492
2020/8/18 18:04:00,187.78,53.365,36814.07073
2020/8/18 18:05:00,187.932,53.121,36828.21545
2020/8/18 18:06:00,188.084,52.877,36842.45882
2020/8/18 18:07:00,188.233,52.632,36856.8006
2020/8/18 18:08:00,188.382,52.387,36871.24051
2020/8/18 18:09:00,188.529,52.142,36885.77829
2020/8/18 18:10:00,188.675,51.897,36900.41365
2020/8/18 18:11:00,188.82,51.652,36915.14632
2020/8/18 18:12:00,188.964,51.406,36929.97599
2020/8/18 18:13:00,189.106,51.161,36944.90237
2020/8/18 18:14:00,189.247,50.915,36959.92514
2020/8/18 18:15:00,189.387,50.67,36975.044
2020/8/18 18:16:00,189.526,50.424,36990.25861
2020/8/18 18:17:00,189.663,50.178,37005.56866
2020/8/18 18:18:00,189.799,49.932,37020.97379
2020/8/18 18:19:00,189.935,49.685,37036.47366
2020/8/18 18:20:00,190.069,49.439,37052.06792
2020/8/18 18:21:00,190.201,49.193,37067.75622
2020/8/18 18:22:00,190.333,48.946,37083.53818
2020/8/18 18:23:00,190.464,48.7,37099.41342
2020/8/18 18:24:00,190.593,48.453,37115.38158
2020/8/18 18:25:00,190.722,48.206,37131.44226
2020/8/18 18:26:00,190.849,47.959,37147.59505
2020/8/18 18:27:00,190.975,47.712,37163.83957
2020/8/18 18:28:00,191.1,47.466,37180.1754
2020/8/18 18:29:00,191.224,47.219,37196.60212
2020/8/18 18:30:00,191.347,46.971,37213.11932
2020/8/18 18:31:00,191.469,46.724,37229.72655
2020/8/18 18:32:00,191.59,46.477,37246.42337
2020/8/18 18:33:00,191.71,46.23,37263.20936
2020/8/18 18:34:00,191.829,45.983,37280.08405
2020/8/18 18:35:00,191.947,45.735,37297.04698
2020/8/18 18:36:00,192.064,45.488,37314.09769
2020/8/18 18:37:00,192.179,45.241,37331.23571
2020/8/18 18:38:00,192.294,44.993,37348.46055
2020/8/18 18:39:00,192.408,44.746,37365.77174
2020/8/18 18:40:00,192.521,44.499,37383.16877
2020/8/18 18:41:00,192.633,44.251,37400.65116
2020/8/18 18:42:00,192.744,44.004,37418.21839
2020/8/18 18:43:00,192.854,43.756,37435.86995
2020/8/18 18:44:00,192.963,43.509,37453.60532
2020/8/18 18:45:00,193.071,43.262,37471.42399
2020/8/18 18:46:00,193.178,43.014,37489.32541
2020/8/18 18:47:00,193.284,42.767,37507.30904
2020/8/18 18:48:00,193.389,42.52,37525.37435
2020/8/18 18:49:00,193.493,42.272,37543.52079
2020/8/18 18:50:00,193.597,42.025,37561.74778
2020/8/18 18:51:00,193.699,41.778,37580.05478
2020/8/18 18:52:00,193.801,41.531,37598.44122
2020/8/18 18:53:00,193.901,41.283,37616.90651
2020/8/18 18:54:00,194.001,41.036,37635.45007
2020/8/18 18:55:00,194.1,40.789,37654.07132
2020/8/18 18:56:00,194.198,40.542,37672.76966
2020/8/18 18:57:00,194.295,40.295,37691.56949
2020/8/18 18:58:00,194.391,40.048,37710.4204
2020/8/18 18:59:00,194.486,39.801,37729.34659
2020/8/18 19:00:00,194.58,39.555,37748.34743
2020/8/18 19:01:00,194.674,39.308,37767.42231
2020/8/18 19:02:00,194.767,39.061,37786.57059
2020/8/18 19:03:00,194.859,38.815,37805.79165
2020/8/18 19:04:00,194.95,38.568,37825.08483
2020/8/18 19:05:00,195.04,38.322,37844.44949
2020/8/18 19:06:00,195.129,38.076,37863.88499
2020/8/18 19:07:00,195.217,37.83,37883.39066
2020/8/18 19:08:00,195.305,37.584,37902.96585
2020/8/18 19:09:00,195.392,37.338,37922.60988
2020/8/18 19:10:00,195.477,37.092,37942.32208
2020/8/18 19:11:00,195.563,36.846,37962.10177
2020/8/18 19:12:00,195.647,36.601,37981.94827
2020/8/18 19:13:00,195.73,36.355,38001.86089
2020/8/18 19:14:00,195.813,36.11,38021.83894
2020/8/18 19:15:00,195.895,35.865,38041.88171
2020/8/18 19:16:00,195.976,35.62,38061.98851
2020/8/18 19:17:00,196.056,35.375,38082.15862
2020/8/18 19:18:00,196.135,35.13,38102.39132
2020/8/18 19:19:00,196.214,34.885,38122.68591
2020/8/18 19:20:00,196.291,34.641,38143.04166
2020/8/18 19:21:00,196.368,34.396,38163.45783
2020/8/18 19:22:00,196.444,34.152,38183.93369
2020/8/18 19:23:00,196.52,33.908,38204.46852
2020/8/18 19:24:00,196.594,33.664,38225.06155
2020/8/18 19:25:00,196.668,33.421,38245.71206
2020/8/18 19:26:00,196.741,33.177,38266.41928
2020/8/18 19:27:00,196.813,32.934,38287.18246
2020/8/18 19:28:00,196.885,32.691,38308.00083
2020/8/18 19:29:00,196.955,32.448,38328.87365
2020/8/18 19:30:00,197.025,32.205,38349.80013
2020/8/18 19:31:00,197.094,31.963,38370.7795
2020/8/18 19:32:00,197.162,31.72,38391.81099
2020/8/18 19:33:00,197.23,31.478,38412.89381
2020/8/18 19:34:00,197.297,31.236,38434.02718
2020/8/18 19:35:00,197.363,30.994,38455.21031
2020/8/18 19:36:00,197.428,30.753,38476.44241
2020/8/18 19:37:00,197.492,30.511,38497.72267
2020/8/18 19:38:00,197.556,30.27,38519.05031
2020/8/18 19:39:00,197.619,30.03,38540.42451
2020/8/18 19:40:00,197.681,29.789,38561.84446
2020/8/18 19:41:00,197.742,29.548,38583.30936
2020/8/18 19:42:00,197.803,29.308,38604.81839
2020/8/18 19:43:00,197.863,29.068,38626.37073
2020/8/18 19:44:00,197.922,28.829,38647.96555
2020/8/18 19:45:00,197.981,28.589,38669.60204
2020/8/18 19:46:00,198.038,28.35,38691.27936
2020/8/18 19:47:00,198.095,28.111,38712.99668
2020/8/18 19:48:00,198.151,27.873,38734.75316
2020/8/18 19:49:00,198.207,27.634,38756.54797
2020/8/18 19:50:00,198.261,27.396,38778.38026
2020/8/18 19:51:00,198.315,27.158,38800.2492
2020/8/18 19:52:00,198.368,26.921,38822.15392
2020/8/18 19:53:00,198.421,26.683,38844.09358
2020/8/18 19:54:00,198.472,26.446,38866.06734
2020/8/18 19:55:00,198.523,26.209,38888.07432
2020/8/18 19:56:00,198.574,25.973,38910.11367
2020/8/18 19:57:00,198.623,25.737,38932.18454
2020/8/18 19:58:00,198.672,25.501,38954.28605
2020/8/18 19:59:00,198.72,25.265,38976.41734
2020/8/18 20:00:00,198.767,25.03,38998.57754
2020/8/18 20:01:00,198.814,24.795,39020.76577
2020/8/18 20:02:00,198.859,24.561,39042.98117
2020/8/18 20:03:00,198.905,24.326,39065.22286
2020/8/18 20:04:00,198.949,24.092,39087.48995
2020/8/18 20:05:00,198.993,23.859,39109.78158
2020/8/18 20:06:00,199.035,23.625,39132.09684
2020/8/18 20:07:00,199.078,23.392,39154.43487
2020/8/18 20:08:00,199.119,23.16,39176.79477
2020/8/18 20:09:00,199.16,22.927,39199.17565
2020/8/18 20:10:00,199.2,22.695,39221.57662
2020/8/18 20:11:00,199.239,22.464,39243.99679
2020/8/18 20:12:00,199.277,22.232,39266.43527
2020/8/18 20:13:00,199.315,22.002,39288.89115
2020/8/18 20:14:00,199.352,21.771,39311.36355
2020/8/18 20:15:00,199.389,21.541,39333.85155
2020/8/18 20:16:00,199.424,21.311,39356.35426
2020/8/18 20:17:00,199.459,21.081,39378.87078
2020/8/18 20:18:00,199.493,20.852,39401.40021
2020/8/18 20:19:00,199.527,20.624,39423.94162
2020/8/18 20:20:00,199.56,20.395,39446.49414
2020/8/18 20:21:00,199.592,20.167,39469.05683
2020/8/18 20:22:00,199.623,19.94,39491.62879
2020/8/18 20:23:00,199.654,19.713,39514.20912
2020/8/18 20:24:00,199.683,19.486,39536.7969
2020/8/18 20:25:00,199.713,19.259,39559.39122
2020/8/18 20:26:00,199.741,19.033,39581.99117
2020/8/18 20:27:00,199.769,18.808,39604.59583
2020/8/18 20:28:00,199.796,18.583,39627.20428
2020/8/18 20:29:00,199.822,18.358,39649.81562
2020/8/18 20:30:00,199.848,18.134,39672.42892
2020/8/18 20:31:00,199.872,17.91,39695.04326
2020/8/18 20:32:00,199.897,17.686,39717.65774
2020/8/18 20:33:00,199.92,17.463,39740.27142
2020/8/18 20:34:00,199.943,17.241,39762.8834
2020/8/18 20:35:00,199.965,17.018,39785.49275
2020/8/18 20:36:00,199.986,16.797,39808.09855
2020/8/18 20:37:00,200.006,16.575,39830.69988
2020/8/18 20:38:00,200.026,16.355,39853.29583
2020/8/18 20:39:00,200.045,16.134,39875.88546
2020/8/18 20:40:00,200.064,15.914,39898.46787
2020/8/18 20:41:00,200.081,15.695,39921.04212
2020/8/18 20:42:00,200.098,15.476,39943.60731
2020/8/18 20:43:00,200.114,15.257,39966.1625
2020/8/18 20:44:00,200.13,15.039,39988.70678
2020/8/18 20:45:00,200.145,14.822,40011.23922
2020/8/18 20:46:00,200.159,14.605,40033.75891
2020/8/18 20:47:00,200.172,14.388,40056.26492
2020/8/18 20:48:00,200.185,14.172,40078.75634
2020/8/18 20:49:00,200.197,13.956,40101.23224
2020/8/18 20:50:00,200.208,13.741,40123.69171
2020/8/18 20:51:00,200.218,13.526,40146.13382
2020/8/18 20:52:00,200.228,13.312,40168.55766
2020/8/18 20:53:00,200.237,13.099,40190.96231
2020/8/18 20:54:00,200.246,12.886,40213.34685
2020/8/18 20:55:00,200.253,12.673,40235.71036
2020/8/18 20:56:00,200.26,12.461,40258.05194
2020/8/18 20:57:00,200.266,12.249,40280.37066
2020/8/18 20:58:00,200.272,12.038,40302.6656
2020/8/18 20:59:00,200.276,11.828,40324.93586
2020/8/18 21:00:00,200.28,11.618,40347.18053
2020/8/18 21:01:00,200.284,11.408,40369.39868
2020/8/18 21:02:00,200.286,11.199,40391.58941
2020/8/18 21:03:00,200.288,10.991,40413.75182
2020/8/18 21:04:00,200.289,10.783,40435.88498
2020/8/18 21:05:00,200.29,10.576,40457.988
2020/8/18 21:06:00,200.29,10.369,40480.05996
2020/8/18 21:07:00,200.289,10.163,40502.09996
2020/8/18 21:08:00,200.287,9.958,40524.1071
2020/8/18 21:09:00,200.284,9.753,40546.08048
2020/8/18 21:10:00,200.281,9.548,40568.01918
2020/8/18 21:11:00,200.277,9.345,40589.92233
2020/8/18 21:12:00,200.273,9.141,40611.789
2020/8/18 21:13:00,200.267,8.939,40633.61832
2020/8/18 21:14:00,200.261,8.737,40655.40938
2020/8/18 21:15:00,200.254,8.535,40677.16129
2020/8/18 21:16:00,200.247,8.334,40698.87315
2020/8/18 21:17:00,200.239,8.134,40720.54409
2020/8/18 21:18:00,200.23,7.934,40742.1732
2020/8/18 21:19:00,200.22,7.735,40763.75961
2020/8/18 21:20:00,200.21,7.537,40785.30242
2020/8/18 21:21:00,200.199,7.339,40806.80076
2020/8/18 21:22:00,200.187,7.142,40828.25374
2020/8/18 21:23:00,200.174,6.945,40849.66049
2020/8/18 21:24:00,200.161,6.749,40871.02013
2020/8/18 21:25:00,200.147,6.554,40892.33178
2020/8/18 21:26:00,200.132,6.359,40913.59458
2020/8/18 21:27:00,200.117,6.165,40934.80764
2020/8/18 21:28:00,200.101,5.972,40955.9701
2020/8/18 21:29:00,200.084,5.779,40977.0811
2020/8/18 21:30:00,200.066,5.587,40998.13978
2020/8/18 21:31:00,200.048,5.396,41019.14526
2020/8/18 21:32:00,200.029,5.205,41040.0967
2020/8/18 21:33:00,200.009,5.015,41060.99323
2020/8/18 21:34:00,199.989,4.826,41081.83401
2020/8/18 21:35:00,199.968,4.637,41102.61817
2020/8/18 21:36:00,199.946,4.449,41123.34488
2020/8/18 21:37:00,199.923,4.262,41144.01328
2020/8/18 21:38:00,199.9,4.075,41164.62253
2020/8/18 21:39:00,199.876,3.889,41185.17179
2020/8/18 21:40:00,199.851,3.704,41205.66022
2020/8/18 21:41:00,199.825,3.519,41226.08699
2020/8/18 21:42:00,199.799,3.335,41246.45126
2020/8/18 21:43:00,199.772,3.152,41266.7522
2020/8/18 21:44:00,199.744,2.97,41286.98898
2020/8/18 21:45:00,199.716,2.788,41307.16079
2020/8/18 21:46:00,199.687,2.607,41327.2668
2020/8/18 21:47:00,199.657,2.427,41347.30618
2020/8/18 21:48:00,199.627,2.247,41367.27814
2020/8/18 21:49:00,199.595,2.068,41387.18184
2020/8/18 21:50:00,199.563,1.89,41407.01649
2020/8/18 21:51:00,199.531,1.713,41426.78128
2020/8/18 21:52:00,199.497,1.536,41446.47541
2020/8/18 21:53:00,199.463,1.361,41466.09807
2020/8/18 21:54:00,199.428,1.186,41485.64847
2020/8/18 21:55:00,199.393,1.011,41505.12582
2020/8/18 21:56:00,199.356,0.838,41524.52932
2020/8/18 21:57:00,199.319,0.665,41543.85819
2020/8/18 21:58:00,199.282,0.493,41563.11165
2020/8/18 21:59:00,199.243,0.322,41582.28891
2020/8/18 22:00:00,199.204,0.151,41601.38921
2020/8/18 22:00:53,199.168,0,41618.35246
2020/8/19 3:15:42,174.512,0,41692.76447
2020/8/19 3:16:41,174.498,0.162,41675.02549
2020/8/19 3:17:41,174.485,0.326,41656.94987
2020/8/19 3:18:41,174.472,0.492,41638.80634
2020/8/19 3:19:41,174.461,0.658,41620.59567
2020/8/19 3:20:41,174.45,0.825,41602.31867
2020/8/19 3:21:41,174.44,0.992,41583.97612
2020/8/19 3:22:41,174.431,1.16,41565.56881
2020/8/19 3:23:41,174.423,1.329,41547.09755
2020/8/19 3:24:41,174.416,1.499,41528.56313
2020/8/19 3:25:41,174.409,1.669,41509.96634
2020/8/19 3:26:41,174.404,1.839,41491.308
2020/8/19 3:27:41,174.399,2.011,41472.58891
2020/8/19 3:28:41,174.396,2.183,41453.80988
2020/8/19 3:29:41,174.393,2.356,41434.97171
2020/8/19 3:30:41,174.391,2.529,41416.07522
2020/8/19 3:31:41,174.39,2.703,41397.12123
2020/8/19 3:32:41,174.39,2.877,41378.11054
2020/8/19 3:33:41,174.391,3.052,41359.04398
2020/8/19 3:34:41,174.393,3.228,41339.92237
2020/8/19 3:35:41,174.396,3.404,41320.74653
2020/8/19 3:36:41,174.399,3.581,41301.51728
2020/8/19 3:37:41,174.404,3.759,41282.23545
2020/8/19 3:38:41,174.409,3.937,41262.90188
2020/8/19 3:39:41,174.415,4.116,41243.51738
2020/8/19 3:40:41,174.423,4.295,41224.08279
2020/8/19 3:41:41,174.431,4.475,41204.59895
2020/8/19 3:42:41,174.44,4.655,41185.06668
2020/8/19 3:43:41,174.45,4.836,41165.48683
2020/8/19 3:44:41,174.461,5.018,41145.86023
2020/8/19 3:45:41,174.472,5.2,41126.18773
2020/8/19 3:46:41,174.485,5.382,41106.47016
2020/8/19 3:47:41,174.499,5.566,41086.70837
2020/8/19 3:48:41,174.513,5.749,41066.9032
2020/8/19 3:49:41,174.529,5.934,41047.0555
2020/8/19 3:50:41,174.545,6.118,41027.16611
2020/8/19 3:51:41,174.562,6.304,41007.23588
2020/8/19 3:52:41,174.58,6.49,40987.26567
2020/8/19 3:53:41,174.6,6.676,40967.25631
2020/8/19 3:54:41,174.62,6.863,40947.20867
2020/8/19 3:55:41,174.641,7.05,40927.1236
2020/8/19 3:56:41,174.662,7.238,40907.00194
2020/8/19 3:57:41,174.685,7.426,40886.84456
2020/8/19 3:58:41,174.709,7.615,40866.65231
2020/8/19 3:59:41,174.734,7.805,40846.42604
2020/8/19 4:00:00,174.742,7.864,40840.06009
